{
  "type": "FeatureCollection",
  "name": "012220",
  "features": [
    {
      "type": "Feature",
      "geometry": {
        "type": "Point",
        "coordinates": [
          141.804377,
          43.246625
        ]
      },
      "properties": {
        "NO": 1294,
        "共通ID": "E0122200001111",
        "都道府県名及び市町村名": "北海道三笠市",
        "施設・場所名": "道の駅三笠",
        "住所": "北海道三笠市岡山1056-1",
        "指定緊急避難場所との住所同一": "",
        "その他市町村長が必要と認める事項": null,
        "受入対象者": null,
        "備考": ""
      }
    },
    {
      "type": "Feature",
      "geometry": {
        "type": "Point",
        "coordinates": [
          141.820646,
          43.234376
        ]
      },
      "properties": {
        "NO": 1295,
        "共通ID": "E0122200004111",
        "都道府県名及び市町村名": "北海道三笠市",
        "施設・場所名": "岡山小学校",
        "住所": "北海道三笠市岡山60-2",
        "指定緊急避難場所との住所同一": "",
        "その他市町村長が必要と認める事項": "",
        "受入対象者": "",
        "備考": ""
      }
    },
    {
      "type": "Feature",
      "geometry": {
        "type": "Point",
        "coordinates": [
          141.814724,
          43.235144
        ]
      },
      "properties": {
        "NO": 1296,
        "共通ID": "E0122200005111",
        "都道府県名及び市町村名": "北海道三笠市",
        "施設・場所名": "岡山市民センター",
        "住所": "北海道三笠市岡山89-4",
        "指定緊急避難場所との住所同一": "",
        "その他市町村長が必要と認める事項": null,
        "受入対象者": null,
        "備考": ""
      }
    },
    {
      "type": "Feature",
      "geometry": {
        "type": "Point",
        "coordinates": [
          141.824306,
          43.230539
        ]
      },
      "properties": {
        "NO": 1297,
        "共通ID": "E0122200006111",
        "都道府県名及び市町村名": "北海道三笠市",
        "施設・場所名": "三葉保育所",
        "住所": "北海道三笠市萱野127-9",
        "指定緊急避難場所との住所同一": "",
        "その他市町村長が必要と認める事項": "",
        "受入対象者": "",
        "備考": ""
      }
    },
    {
      "type": "Feature",
      "geometry": {
        "type": "Point",
        "coordinates": [
          141.826217,
          43.225922
        ]
      },
      "properties": {
        "NO": 1298,
        "共通ID": "E0122200007111",
        "都道府県名及び市町村名": "北海道三笠市",
        "施設・場所名": "萱野中学校",
        "住所": "北海道三笠市萱野192-1",
        "指定緊急避難場所との住所同一": "1",
        "その他市町村長が必要と認める事項": "",
        "受入対象者": "",
        "備考": ""
      }
    },
    {
      "type": "Feature",
      "geometry": {
        "type": "Point",
        "coordinates": [
          141.956391,
          43.260936
        ]
      },
      "properties": {
        "NO": 1299,
        "共通ID": "E0122200052111",
        "都道府県名及び市町村名": "北海道三笠市",
        "施設・場所名": "幾春別消防センター",
        "住所": "北海道三笠市幾春別町１丁目318",
        "指定緊急避難場所との住所同一": "",
        "その他市町村長が必要と認める事項": "",
        "受入対象者": "",
        "備考": ""
      }
    },
    {
      "type": "Feature",
      "geometry": {
        "type": "Point",
        "coordinates": [
          141.957752,
          43.260553
        ]
      },
      "properties": {
        "NO": 1300,
        "共通ID": "E0122200051111",
        "都道府県名及び市町村名": "北海道三笠市",
        "施設・場所名": "幾春別市民センター",
        "住所": "北海道三笠市幾春別町１丁目318-6",
        "指定緊急避難場所との住所同一": "",
        "その他市町村長が必要と認める事項": "",
        "受入対象者": "",
        "備考": ""
      }
    },
    {
      "type": "Feature",
      "geometry": {
        "type": "Point",
        "coordinates": [
          141.878086,
          43.246113
        ]
      },
      "properties": {
        "NO": 1301,
        "共通ID": "E0122200014111",
        "都道府県名及び市町村名": "北海道三笠市",
        "施設・場所名": "市民会館",
        "住所": "北海道三笠市幸町13",
        "指定緊急避難場所との住所同一": "",
        "その他市町村長が必要と認める事項": null,
        "受入対象者": null,
        "備考": ""
      }
    },
    {
      "type": "Feature",
      "geometry": {
        "type": "Point",
        "coordinates": [
          141.875617,
          43.249291
        ]
      },
      "properties": {
        "NO": 1302,
        "共通ID": "E0122200015121",
        "都道府県名及び市町村名": "北海道三笠市",
        "施設・場所名": "ふれあい健康センター",
        "住所": "北海道三笠市高美町444",
        "指定緊急避難場所との住所同一": "",
        "その他市町村長が必要と認める事項": "",
        "受入対象者": "要配慮者、要配慮者の家族、その他市長が必要と認める者",
        "備考": ""
      }
    },
    {
      "type": "Feature",
      "geometry": {
        "type": "Point",
        "coordinates": [
          141.874958,
          43.250689
        ]
      },
      "properties": {
        "NO": 1303,
        "共通ID": "E0122200016112",
        "都道府県名及び市町村名": "北海道三笠市",
        "施設・場所名": "山の手市民センター",
        "住所": "北海道三笠市高美町448-1",
        "指定緊急避難場所との住所同一": "",
        "その他市町村長が必要と認める事項": "",
        "受入対象者": "",
        "備考": ""
      }
    },
    {
      "type": "Feature",
      "geometry": {
        "type": "Point",
        "coordinates": [
          141.870209,
          43.24433
        ]
      },
      "properties": {
        "NO": 1304,
        "共通ID": "E0122200019111",
        "都道府県名及び市町村名": "北海道三笠市",
        "施設・場所名": "三笠市児童館",
        "住所": "北海道三笠市若松町14-1",
        "指定緊急避難場所との住所同一": "",
        "その他市町村長が必要と認める事項": "",
        "受入対象者": "",
        "備考": ""
      }
    },
    {
      "type": "Feature",
      "geometry": {
        "type": "Point",
        "coordinates": [
          141.884184,
          43.245337
        ]
      },
      "properties": {
        "NO": 1305,
        "共通ID": "E0122200021111",
        "都道府県名及び市町村名": "北海道三笠市",
        "施設・場所名": "三笠ドーム",
        "住所": "北海道三笠市若草町280",
        "指定緊急避難場所との住所同一": "1",
        "その他市町村長が必要と認める事項": "",
        "受入対象者": "",
        "備考": ""
      }
    },
    {
      "type": "Feature",
      "geometry": {
        "type": "Point",
        "coordinates": [
          141.883093,
          43.245283
        ]
      },
      "properties": {
        "NO": 1306,
        "共通ID": "E0122200021112",
        "都道府県名及び市町村名": "北海道三笠市",
        "施設・場所名": "三笠スポーツセンター",
        "住所": "北海道三笠市若草町280",
        "指定緊急避難場所との住所同一": "1",
        "その他市町村長が必要と認める事項": "",
        "受入対象者": "",
        "備考": ""
      }
    },
    {
      "type": "Feature",
      "geometry": {
        "type": "Point",
        "coordinates": [
          141.883724,
          43.246705
        ]
      },
      "properties": {
        "NO": 1307,
        "共通ID": "E0122200022111",
        "都道府県名及び市町村名": "北海道三笠市",
        "施設・場所名": "三笠高校生レストラン",
        "住所": "北海道三笠市若草町396-1",
        "指定緊急避難場所との住所同一": "",
        "その他市町村長が必要と認める事項": null,
        "受入対象者": null,
        "備考": ""
      }
    },
    {
      "type": "Feature",
      "geometry": {
        "type": "Point",
        "coordinates": [
          141.883527,
          43.247733
        ]
      },
      "properties": {
        "NO": 1308,
        "共通ID": "E0122200023111",
        "都道府県名及び市町村名": "北海道三笠市",
        "施設・場所名": "三笠高校",
        "住所": "北海道三笠市若草町397",
        "指定緊急避難場所との住所同一": "",
        "その他市町村長が必要と認める事項": null,
        "受入対象者": null,
        "備考": ""
      }
    },
    {
      "type": "Feature",
      "geometry": {
        "type": "Point",
        "coordinates": [
          141.881611,
          43.247548
        ]
      },
      "properties": {
        "NO": 1309,
        "共通ID": "E0122200024111",
        "都道府県名及び市町村名": "北海道三笠市",
        "施設・場所名": "公民館",
        "住所": "北海道三笠市若草町404",
        "指定緊急避難場所との住所同一": "",
        "その他市町村長が必要と認める事項": "",
        "受入対象者": "",
        "備考": ""
      }
    },
    {
      "type": "Feature",
      "geometry": {
        "type": "Point",
        "coordinates": [
          141.873466,
          43.241849
        ]
      },
      "properties": {
        "NO": 1310,
        "共通ID": "E0122200027111",
        "都道府県名及び市町村名": "北海道三笠市",
        "施設・場所名": "三笠市民センター",
        "住所": "北海道三笠市堤町2-7",
        "指定緊急避難場所との住所同一": "",
        "その他市町村長が必要と認める事項": null,
        "受入対象者": null,
        "備考": ""
      }
    },
    {
      "type": "Feature",
      "geometry": {
        "type": "Point",
        "coordinates": [
          141.919299,
          43.252123
        ]
      },
      "properties": {
        "NO": 1311,
        "共通ID": "E0122200028111",
        "都道府県名及び市町村名": "北海道三笠市",
        "施設・場所名": "唐松市民センター",
        "住所": "北海道三笠市唐松常盤町310-1",
        "指定緊急避難場所との住所同一": "",
        "その他市町村長が必要と認める事項": null,
        "受入対象者": null,
        "備考": ""
      }
    },
    {
      "type": "Feature",
      "geometry": {
        "type": "Point",
        "coordinates": [
          141.893291,
          43.250706
        ]
      },
      "properties": {
        "NO": 1312,
        "共通ID": "E0122200033111",
        "都道府県名及び市町村名": "北海道三笠市",
        "施設・場所名": "美園市民センター",
        "住所": "北海道三笠市美園町72-5",
        "指定緊急避難場所との住所同一": "",
        "その他市町村長が必要と認める事項": null,
        "受入対象者": null,
        "備考": ""
      }
    },
    {
      "type": "Feature",
      "geometry": {
        "type": "Point",
        "coordinates": [
          141.89384,
          43.229191
        ]
      },
      "properties": {
        "NO": 1313,
        "共通ID": "E0122200036111",
        "都道府県名及び市町村名": "北海道三笠市",
        "施設・場所名": "幌内市民センター",
        "住所": "北海道三笠市幌内金谷町31-4",
        "指定緊急避難場所との住所同一": "",
        "その他市町村長が必要と認める事項": null,
        "受入対象者": null,
        "備考": ""
      }
    },
    {
      "type": "Feature",
      "geometry": {
        "type": "Point",
        "coordinates": [
          141.863986,
          43.24723
        ]
      },
      "properties": {
        "NO": 1314,
        "共通ID": "E0122200039111",
        "都道府県名及び市町村名": "北海道三笠市",
        "施設・場所名": "三笠中学校",
        "住所": "北海道三笠市本郷町484-2",
        "指定緊急避難場所との住所同一": "1",
        "その他市町村長が必要と認める事項": "",
        "受入対象者": "",
        "備考": ""
      }
    },
    {
      "type": "Feature",
      "geometry": {
        "type": "Point",
        "coordinates": [
          141.861149,
          43.247256
        ]
      },
      "properties": {
        "NO": 1315,
        "共通ID": "E0122200040111",
        "都道府県名及び市町村名": "北海道三笠市",
        "施設・場所名": "三笠小学校",
        "住所": "北海道三笠市本郷町485-1",
        "指定緊急避難場所との住所同一": "",
        "その他市町村長が必要と認める事項": "",
        "受入対象者": "",
        "備考": ""
      }
    },
    {
      "type": "Feature",
      "geometry": {
        "type": "Point",
        "coordinates": [
          141.939344,
          43.258016
        ]
      },
      "properties": {
        "NO": 1316,
        "共通ID": "E0122200044111",
        "都道府県名及び市町村名": "北海道三笠市",
        "施設・場所名": "弥生市民センター",
        "住所": "北海道三笠市弥生橘町72-8",
        "指定緊急避難場所との住所同一": "",
        "その他市町村長が必要と認める事項": null,
        "受入対象者": null,
        "備考": ""
      }
    }
  ]
}