{
  "type": "FeatureCollection",
  "name": "012319",
  "features": [
    {
      "type": "Feature",
      "geometry": {
        "type": "Point",
        "coordinates": [
          141.591485,
          42.890564
        ]
      },
      "properties": {
        "NO": 1556,
        "共通ID": "E0123100003111",
        "都道府県名及び市町村名": "北海道恵庭市",
        "施設・場所名": "北海道文教大学",
        "住所": "北海道恵庭市黄金中央5-196-1",
        "指定緊急避難場所との住所同一": "1",
        "その他市町村長が必要と認める事項": null,
        "受入対象者": null,
        "備考": ""
      }
    },
    {
      "type": "Feature",
      "geometry": {
        "type": "Point",
        "coordinates": [
          141.592873,
          42.892984
        ]
      },
      "properties": {
        "NO": 1557,
        "共通ID": "E0123100004111",
        "都道府県名及び市町村名": "北海道恵庭市",
        "施設・場所名": "総合体育館",
        "住所": "北海道恵庭市黄金中央5-199-1",
        "指定緊急避難場所との住所同一": "1",
        "その他市町村長が必要と認める事項": null,
        "受入対象者": null,
        "備考": ""
      }
    },
    {
      "type": "Feature",
      "geometry": {
        "type": "Point",
        "coordinates": [
          141.594631,
          42.891059
        ]
      },
      "properties": {
        "NO": 1558,
        "共通ID": "E0123100005111",
        "都道府県名及び市町村名": "北海道恵庭市",
        "施設・場所名": "北海道文教大学付属高等学校",
        "住所": "北海道恵庭市黄金中央5-207-11",
        "指定緊急避難場所との住所同一": "1",
        "その他市町村長が必要と認める事項": null,
        "受入対象者": null,
        "備考": ""
      }
    },
    {
      "type": "Feature",
      "geometry": {
        "type": "Point",
        "coordinates": [
          141.596625,
          42.887189
        ]
      },
      "properties": {
        "NO": 1559,
        "共通ID": "E0123100008111",
        "都道府県名及び市町村名": "北海道恵庭市",
        "施設・場所名": "黄金ふれあいセンター",
        "住所": "北海道恵庭市黄金南5-11-1",
        "指定緊急避難場所との住所同一": "1",
        "その他市町村長が必要と認める事項": null,
        "受入対象者": null,
        "備考": ""
      }
    },
    {
      "type": "Feature",
      "geometry": {
        "type": "Point",
        "coordinates": [
          141.597147,
          42.88824
        ]
      },
      "properties": {
        "NO": 1560,
        "共通ID": "E0123100009111",
        "都道府県名及び市町村名": "北海道恵庭市",
        "施設・場所名": "子ども発達支援センター",
        "住所": "北海道恵庭市黄金南5-11-4",
        "指定緊急避難場所との住所同一": "1",
        "その他市町村長が必要と認める事項": null,
        "受入対象者": null,
        "備考": ""
      }
    },
    {
      "type": "Feature",
      "geometry": {
        "type": "Point",
        "coordinates": [
          141.597147,
          42.88824
        ]
      },
      "properties": {
        "NO": 1561,
        "共通ID": "E0123100009121",
        "都道府県名及び市町村名": "北海道恵庭市",
        "施設・場所名": "子ども発達支援センター",
        "住所": "北海道恵庭市黄金南5-11-4",
        "指定緊急避難場所との住所同一": "1",
        "その他市町村長が必要と認める事項": null,
        "受入対象者": null,
        "備考": ""
      }
    },
    {
      "type": "Feature",
      "geometry": {
        "type": "Point",
        "coordinates": [
          141.58835,
          42.892644
        ]
      },
      "properties": {
        "NO": 1562,
        "共通ID": "E0123100014111",
        "都道府県名及び市町村名": "北海道恵庭市",
        "施設・場所名": "恵明中学校",
        "住所": "北海道恵庭市黄金北4-1-1",
        "指定緊急避難場所との住所同一": "1",
        "その他市町村長が必要と認める事項": null,
        "受入対象者": null,
        "備考": ""
      }
    },
    {
      "type": "Feature",
      "geometry": {
        "type": "Point",
        "coordinates": [
          141.578793,
          42.871459
        ]
      },
      "properties": {
        "NO": 1563,
        "共通ID": "E0123100019111",
        "都道府県名及び市町村名": "北海道恵庭市",
        "施設・場所名": "駒場体育館",
        "住所": "北海道恵庭市駒場町3-3-15",
        "指定緊急避難場所との住所同一": "1",
        "その他市町村長が必要と認める事項": null,
        "受入対象者": null,
        "備考": ""
      }
    },
    {
      "type": "Feature",
      "geometry": {
        "type": "Point",
        "coordinates": [
          141.589174,
          42.905327
        ]
      },
      "properties": {
        "NO": 1564,
        "共通ID": "E0123100024111",
        "都道府県名及び市町村名": "北海道恵庭市",
        "施設・場所名": "恵み野中学校",
        "住所": "北海道恵庭市恵み野東1-1-2",
        "指定緊急避難場所との住所同一": "1",
        "その他市町村長が必要と認める事項": null,
        "受入対象者": null,
        "備考": ""
      }
    },
    {
      "type": "Feature",
      "geometry": {
        "type": "Point",
        "coordinates": [
          141.585021,
          42.901771
        ]
      },
      "properties": {
        "NO": 1565,
        "共通ID": "E0123100028111",
        "都道府県名及び市町村名": "北海道恵庭市",
        "施設・場所名": "恵み野小学校",
        "住所": "北海道恵庭市恵み野南4-1-1",
        "指定緊急避難場所との住所同一": "1",
        "その他市町村長が必要と認める事項": null,
        "受入対象者": null,
        "備考": ""
      }
    },
    {
      "type": "Feature",
      "geometry": {
        "type": "Point",
        "coordinates": [
          141.582664,
          42.907941
        ]
      },
      "properties": {
        "NO": 1566,
        "共通ID": "E0123100031111",
        "都道府県名及び市町村名": "北海道恵庭市",
        "施設・場所名": "恵み野憩の家",
        "住所": "北海道恵庭市恵み野北2-1-3",
        "指定緊急避難場所との住所同一": "1",
        "その他市町村長が必要と認める事項": null,
        "受入対象者": null,
        "備考": ""
      }
    },
    {
      "type": "Feature",
      "geometry": {
        "type": "Point",
        "coordinates": [
          141.582664,
          42.907941
        ]
      },
      "properties": {
        "NO": 1567,
        "共通ID": "E0123100031121",
        "都道府県名及び市町村名": "北海道恵庭市",
        "施設・場所名": "恵み野憩の家",
        "住所": "北海道恵庭市恵み野北2-1-3",
        "指定緊急避難場所との住所同一": "1",
        "その他市町村長が必要と認める事項": null,
        "受入対象者": null,
        "備考": ""
      }
    },
    {
      "type": "Feature",
      "geometry": {
        "type": "Point",
        "coordinates": [
          141.583114,
          42.907792
        ]
      },
      "properties": {
        "NO": 1568,
        "共通ID": "E0123100030111",
        "都道府県名及び市町村名": "北海道恵庭市",
        "施設・場所名": "恵み野会館",
        "住所": "北海道恵庭市恵み野北2-12-2",
        "指定緊急避難場所との住所同一": "1",
        "その他市町村長が必要と認める事項": null,
        "受入対象者": null,
        "備考": ""
      }
    },
    {
      "type": "Feature",
      "geometry": {
        "type": "Point",
        "coordinates": [
          141.591619,
          42.907962
        ]
      },
      "properties": {
        "NO": 1569,
        "共通ID": "E0123100033111",
        "都道府県名及び市町村名": "北海道恵庭市",
        "施設・場所名": "恵み野旭小学校",
        "住所": "北海道恵庭市恵み野北4-1-1",
        "指定緊急避難場所との住所同一": "1",
        "その他市町村長が必要と認める事項": null,
        "受入対象者": null,
        "備考": ""
      }
    },
    {
      "type": "Feature",
      "geometry": {
        "type": "Point",
        "coordinates": [
          141.577186,
          42.87364
        ]
      },
      "properties": {
        "NO": 1570,
        "共通ID": "E0123100041111",
        "都道府県名及び市町村名": "北海道恵庭市",
        "施設・場所名": "桜町会館",
        "住所": "北海道恵庭市桜町3-8-13",
        "指定緊急避難場所との住所同一": "1",
        "その他市町村長が必要と認める事項": null,
        "受入対象者": null,
        "備考": ""
      }
    },
    {
      "type": "Feature",
      "geometry": {
        "type": "Point",
        "coordinates": [
          141.625318,
          42.921382
        ]
      },
      "properties": {
        "NO": 1571,
        "共通ID": "E0123100044111",
        "都道府県名及び市町村名": "北海道恵庭市",
        "施設・場所名": "春日会館",
        "住所": "北海道恵庭市春日428",
        "指定緊急避難場所との住所同一": "1",
        "その他市町村長が必要と認める事項": null,
        "受入対象者": null,
        "備考": ""
      }
    },
    {
      "type": "Feature",
      "geometry": {
        "type": "Point",
        "coordinates": [
          141.576645,
          42.883277
        ]
      },
      "properties": {
        "NO": 1572,
        "共通ID": "E0123100046111",
        "都道府県名及び市町村名": "北海道恵庭市",
        "施設・場所名": "市民会館",
        "住所": "北海道恵庭市新町10",
        "指定緊急避難場所との住所同一": "1",
        "その他市町村長が必要と認める事項": null,
        "受入対象者": null,
        "備考": ""
      }
    },
    {
      "type": "Feature",
      "geometry": {
        "type": "Point",
        "coordinates": [
          141.55071,
          42.918745
        ]
      },
      "properties": {
        "NO": 1573,
        "共通ID": "E0123100047111",
        "都道府県名及び市町村名": "北海道恵庭市",
        "施設・場所名": "ルルマップ自然公園ふれらんどセンターハウス",
        "住所": "北海道恵庭市西島松275",
        "指定緊急避難場所との住所同一": "1",
        "その他市町村長が必要と認める事項": null,
        "受入対象者": null,
        "備考": ""
      }
    },
    {
      "type": "Feature",
      "geometry": {
        "type": "Point",
        "coordinates": [
          141.564625,
          42.926319
        ]
      },
      "properties": {
        "NO": 1574,
        "共通ID": "E0123100048111",
        "都道府県名及び市町村名": "北海道恵庭市",
        "施設・場所名": "農業活性化支援センター",
        "住所": "北海道恵庭市西島松４１－２の内",
        "指定緊急避難場所との住所同一": "1",
        "その他市町村長が必要と認める事項": null,
        "受入対象者": null,
        "備考": ""
      }
    },
    {
      "type": "Feature",
      "geometry": {
        "type": "Point",
        "coordinates": [
          141.566592,
          42.889074
        ]
      },
      "properties": {
        "NO": 1575,
        "共通ID": "E0123100052111",
        "都道府県名及び市町村名": "北海道恵庭市",
        "施設・場所名": "大町会館",
        "住所": "北海道恵庭市大町1-10-1",
        "指定緊急避難場所との住所同一": "1",
        "その他市町村長が必要と認める事項": null,
        "受入対象者": null,
        "備考": ""
      }
    },
    {
      "type": "Feature",
      "geometry": {
        "type": "Point",
        "coordinates": [
          141.568728,
          42.888159
        ]
      },
      "properties": {
        "NO": 1576,
        "共通ID": "E0123100053111",
        "都道府県名及び市町村名": "北海道恵庭市",
        "施設・場所名": "恵庭市生涯学習施設かしわのもり",
        "住所": "北海道恵庭市大町1-5-7",
        "指定緊急避難場所との住所同一": "1",
        "その他市町村長が必要と認める事項": null,
        "受入対象者": null,
        "備考": ""
      }
    },
    {
      "type": "Feature",
      "geometry": {
        "type": "Point",
        "coordinates": [
          141.569646,
          42.882954
        ]
      },
      "properties": {
        "NO": 1577,
        "共通ID": "E0123100055111",
        "都道府県名及び市町村名": "北海道恵庭市",
        "施設・場所名": "大町憩の家",
        "住所": "北海道恵庭市大町4-5-15",
        "指定緊急避難場所との住所同一": "1",
        "その他市町村長が必要と認める事項": null,
        "受入対象者": null,
        "備考": ""
      }
    },
    {
      "type": "Feature",
      "geometry": {
        "type": "Point",
        "coordinates": [
          141.569646,
          42.882954
        ]
      },
      "properties": {
        "NO": 1578,
        "共通ID": "E0123100055121",
        "都道府県名及び市町村名": "北海道恵庭市",
        "施設・場所名": "大町憩の家",
        "住所": "北海道恵庭市大町4-5-15",
        "指定緊急避難場所との住所同一": "1",
        "その他市町村長が必要と認める事項": null,
        "受入対象者": null,
        "備考": ""
      }
    },
    {
      "type": "Feature",
      "geometry": {
        "type": "Point",
        "coordinates": [
          141.605562,
          42.906754
        ]
      },
      "properties": {
        "NO": 1579,
        "共通ID": "E0123100056111",
        "都道府県名及び市町村名": "北海道恵庭市",
        "施設・場所名": "中恵庭会館",
        "住所": "北海道恵庭市中央382-2",
        "指定緊急避難場所との住所同一": "1",
        "その他市町村長が必要と認める事項": null,
        "受入対象者": null,
        "備考": ""
      }
    },
    {
      "type": "Feature",
      "geometry": {
        "type": "Point",
        "coordinates": [
          141.61364,
          42.90562
        ]
      },
      "properties": {
        "NO": 1580,
        "共通ID": "E0123100057111",
        "都道府県名及び市町村名": "北海道恵庭市",
        "施設・場所名": "東恵庭会館",
        "住所": "北海道恵庭市中央449-1",
        "指定緊急避難場所との住所同一": "1",
        "その他市町村長が必要と認める事項": null,
        "受入対象者": null,
        "備考": ""
      }
    },
    {
      "type": "Feature",
      "geometry": {
        "type": "Point",
        "coordinates": [
          141.614128,
          42.90624
        ]
      },
      "properties": {
        "NO": 1581,
        "共通ID": "E0123100058111",
        "都道府県名及び市町村名": "北海道恵庭市",
        "施設・場所名": "松恵小学校",
        "住所": "北海道恵庭市中央452-2",
        "指定緊急避難場所との住所同一": "1",
        "その他市町村長が必要と認める事項": null,
        "受入対象者": null,
        "備考": ""
      }
    },
    {
      "type": "Feature",
      "geometry": {
        "type": "Point",
        "coordinates": [
          141.613264,
          42.90549
        ]
      },
      "properties": {
        "NO": 1582,
        "共通ID": "E0123100059111",
        "都道府県名及び市町村名": "北海道恵庭市",
        "施設・場所名": "東恵庭憩の家",
        "住所": "北海道恵庭市中央452-3",
        "指定緊急避難場所との住所同一": "1",
        "その他市町村長が必要と認める事項": null,
        "受入対象者": null,
        "備考": ""
      }
    },
    {
      "type": "Feature",
      "geometry": {
        "type": "Point",
        "coordinates": [
          141.613264,
          42.90549
        ]
      },
      "properties": {
        "NO": 1583,
        "共通ID": "E0123100059121",
        "都道府県名及び市町村名": "北海道恵庭市",
        "施設・場所名": "東恵庭憩の家",
        "住所": "北海道恵庭市中央452-3",
        "指定緊急避難場所との住所同一": "1",
        "その他市町村長が必要と認める事項": null,
        "受入対象者": null,
        "備考": ""
      }
    },
    {
      "type": "Feature",
      "geometry": {
        "type": "Point",
        "coordinates": [
          141.594298,
          42.927726
        ]
      },
      "properties": {
        "NO": 1584,
        "共通ID": "E0123100060111",
        "都道府県名及び市町村名": "北海道恵庭市",
        "施設・場所名": "恵北中学校",
        "住所": "北海道恵庭市中島松230",
        "指定緊急避難場所との住所同一": "1",
        "その他市町村長が必要と認める事項": null,
        "受入対象者": null,
        "備考": ""
      }
    },
    {
      "type": "Feature",
      "geometry": {
        "type": "Point",
        "coordinates": [
          141.588698,
          42.924738
        ]
      },
      "properties": {
        "NO": 1585,
        "共通ID": "E0123100061111",
        "都道府県名及び市町村名": "北海道恵庭市",
        "施設・場所名": "島松小学校",
        "住所": "北海道恵庭市中島松418",
        "指定緊急避難場所との住所同一": "1",
        "その他市町村長が必要と認める事項": null,
        "受入対象者": null,
        "備考": ""
      }
    },
    {
      "type": "Feature",
      "geometry": {
        "type": "Point",
        "coordinates": [
          141.580483,
          42.89427
        ]
      },
      "properties": {
        "NO": 1586,
        "共通ID": "E0123100064111",
        "都道府県名及び市町村名": "北海道恵庭市",
        "施設・場所名": "中島会館",
        "住所": "北海道恵庭市中島町4-17-14",
        "指定緊急避難場所との住所同一": "1",
        "その他市町村長が必要と認める事項": null,
        "受入対象者": null,
        "備考": ""
      }
    },
    {
      "type": "Feature",
      "geometry": {
        "type": "Point",
        "coordinates": [
          141.578497,
          42.895888
        ]
      },
      "properties": {
        "NO": 1587,
        "共通ID": "E0123100065111",
        "都道府県名及び市町村名": "北海道恵庭市",
        "施設・場所名": "若草小学校",
        "住所": "北海道恵庭市中島町4-5-1",
        "指定緊急避難場所との住所同一": "1",
        "その他市町村長が必要と認める事項": null,
        "受入対象者": null,
        "備考": ""
      }
    },
    {
      "type": "Feature",
      "geometry": {
        "type": "Point",
        "coordinates": [
          141.569538,
          42.916032
        ]
      },
      "properties": {
        "NO": 1588,
        "共通ID": "E0123100070111",
        "都道府県名及び市町村名": "北海道恵庭市",
        "施設・場所名": "寿町会館",
        "住所": "北海道恵庭市島松寿町2-24-3",
        "指定緊急避難場所との住所同一": "1",
        "その他市町村長が必要と認める事項": null,
        "受入対象者": null,
        "備考": ""
      }
    },
    {
      "type": "Feature",
      "geometry": {
        "type": "Point",
        "coordinates": [
          141.579028,
          42.920416
        ]
      },
      "properties": {
        "NO": 1589,
        "共通ID": "E0123100074111",
        "都道府県名及び市町村名": "北海道恵庭市",
        "施設・場所名": "島松憩の家",
        "住所": "北海道恵庭市島松東町1-1-15",
        "指定緊急避難場所との住所同一": "1",
        "その他市町村長が必要と認める事項": null,
        "受入対象者": null,
        "備考": ""
      }
    },
    {
      "type": "Feature",
      "geometry": {
        "type": "Point",
        "coordinates": [
          141.579028,
          42.920416
        ]
      },
      "properties": {
        "NO": 1590,
        "共通ID": "E0123100074121",
        "都道府県名及び市町村名": "北海道恵庭市",
        "施設・場所名": "島松憩の家",
        "住所": "北海道恵庭市島松東町1-1-15",
        "指定緊急避難場所との住所同一": "1",
        "その他市町村長が必要と認める事項": null,
        "受入対象者": null,
        "備考": ""
      }
    },
    {
      "type": "Feature",
      "geometry": {
        "type": "Point",
        "coordinates": [
          141.577548,
          42.924901
        ]
      },
      "properties": {
        "NO": 1591,
        "共通ID": "E0123100078111",
        "都道府県名及び市町村名": "北海道恵庭市",
        "施設・場所名": "島松公民館",
        "住所": "北海道恵庭市島松本町3-12-20",
        "指定緊急避難場所との住所同一": "1",
        "その他市町村長が必要と認める事項": null,
        "受入対象者": null,
        "備考": ""
      }
    },
    {
      "type": "Feature",
      "geometry": {
        "type": "Point",
        "coordinates": [
          141.585973,
          42.917672
        ]
      },
      "properties": {
        "NO": 1592,
        "共通ID": "E0123100080111",
        "都道府県名及び市町村名": "北海道恵庭市",
        "施設・場所名": "恵庭北高校",
        "住所": "北海道恵庭市南島松359-1",
        "指定緊急避難場所との住所同一": "1",
        "その他市町村長が必要と認める事項": null,
        "受入対象者": null,
        "備考": ""
      }
    },
    {
      "type": "Feature",
      "geometry": {
        "type": "Point",
        "coordinates": [
          141.584194,
          42.917508
        ]
      },
      "properties": {
        "NO": 1593,
        "共通ID": "E0123100081111",
        "都道府県名及び市町村名": "北海道恵庭市",
        "施設・場所名": "島松体育館",
        "住所": "北海道恵庭市南島松389-3",
        "指定緊急避難場所との住所同一": "1",
        "その他市町村長が必要と認める事項": null,
        "受入対象者": null,
        "備考": ""
      }
    },
    {
      "type": "Feature",
      "geometry": {
        "type": "Point",
        "coordinates": [
          141.585717,
          42.897195
        ]
      },
      "properties": {
        "NO": 1594,
        "共通ID": "E0123100083111",
        "都道府県名及び市町村名": "北海道恵庭市",
        "施設・場所名": "道の駅花ロードえにわ",
        "住所": "北海道恵庭市南島松817-18",
        "指定緊急避難場所との住所同一": "1",
        "その他市町村長が必要と認める事項": null,
        "受入対象者": null,
        "備考": ""
      }
    },
    {
      "type": "Feature",
      "geometry": {
        "type": "Point",
        "coordinates": [
          141.569843,
          42.898873
        ]
      },
      "properties": {
        "NO": 1595,
        "共通ID": "E0123100087111",
        "都道府県名及び市町村名": "北海道恵庭市",
        "施設・場所名": "柏陽会館",
        "住所": "北海道恵庭市柏陽町1-26",
        "指定緊急避難場所との住所同一": "1",
        "その他市町村長が必要と認める事項": null,
        "受入対象者": null,
        "備考": ""
      }
    },
    {
      "type": "Feature",
      "geometry": {
        "type": "Point",
        "coordinates": [
          141.569521,
          42.899046
        ]
      },
      "properties": {
        "NO": 1596,
        "共通ID": "E0123100087112",
        "都道府県名及び市町村名": "北海道恵庭市",
        "施設・場所名": "柏陽憩の家",
        "住所": "北海道恵庭市柏陽町1-26",
        "指定緊急避難場所との住所同一": "1",
        "その他市町村長が必要と認める事項": null,
        "受入対象者": null,
        "備考": ""
      }
    },
    {
      "type": "Feature",
      "geometry": {
        "type": "Point",
        "coordinates": [
          141.569521,
          42.899046
        ]
      },
      "properties": {
        "NO": 1597,
        "共通ID": "E0123100087121",
        "都道府県名及び市町村名": "北海道恵庭市",
        "施設・場所名": "柏陽憩の家",
        "住所": "北海道恵庭市柏陽町1-26",
        "指定緊急避難場所との住所同一": "1",
        "その他市町村長が必要と認める事項": null,
        "受入対象者": null,
        "備考": ""
      }
    },
    {
      "type": "Feature",
      "geometry": {
        "type": "Point",
        "coordinates": [
          141.567924,
          42.900507
        ]
      },
      "properties": {
        "NO": 1598,
        "共通ID": "E0123100090111",
        "都道府県名及び市町村名": "北海道恵庭市",
        "施設・場所名": "柏陽中学校",
        "住所": "北海道恵庭市柏陽町3-265",
        "指定緊急避難場所との住所同一": "1",
        "その他市町村長が必要と認める事項": null,
        "受入対象者": null,
        "備考": ""
      }
    },
    {
      "type": "Feature",
      "geometry": {
        "type": "Point",
        "coordinates": [
          141.573205,
          42.86585
        ]
      },
      "properties": {
        "NO": 1599,
        "共通ID": "E0123100095111",
        "都道府県名及び市町村名": "北海道恵庭市",
        "施設・場所名": "恵庭南高等学校",
        "住所": "北海道恵庭市白樺町4-1-1",
        "指定緊急避難場所との住所同一": "1",
        "その他市町村長が必要と認める事項": null,
        "受入対象者": null,
        "備考": ""
      }
    },
    {
      "type": "Feature",
      "geometry": {
        "type": "Point",
        "coordinates": [
          141.575891,
          42.884743
        ]
      },
      "properties": {
        "NO": 1600,
        "共通ID": "E0123100102111",
        "都道府県名及び市町村名": "北海道恵庭市",
        "施設・場所名": "福住憩の家",
        "住所": "北海道恵庭市福住町1-21-29",
        "指定緊急避難場所との住所同一": "1",
        "その他市町村長が必要と認める事項": null,
        "受入対象者": null,
        "備考": ""
      }
    },
    {
      "type": "Feature",
      "geometry": {
        "type": "Point",
        "coordinates": [
          141.575891,
          42.884743
        ]
      },
      "properties": {
        "NO": 1601,
        "共通ID": "E0123100102121",
        "都道府県名及び市町村名": "北海道恵庭市",
        "施設・場所名": "福住憩の家",
        "住所": "北海道恵庭市福住町1-21-29",
        "指定緊急避難場所との住所同一": "1",
        "その他市町村長が必要と認める事項": null,
        "受入対象者": null,
        "備考": ""
      }
    },
    {
      "type": "Feature",
      "geometry": {
        "type": "Point",
        "coordinates": [
          141.578549,
          42.884046
        ]
      },
      "properties": {
        "NO": 1602,
        "共通ID": "E0123100106111",
        "都道府県名及び市町村名": "北海道恵庭市",
        "施設・場所名": "恵庭小学校",
        "住所": "北海道恵庭市福住町2-9-13",
        "指定緊急避難場所との住所同一": "1",
        "その他市町村長が必要と認める事項": null,
        "受入対象者": null,
        "備考": ""
      }
    },
    {
      "type": "Feature",
      "geometry": {
        "type": "Point",
        "coordinates": [
          141.56725,
          42.885178
        ]
      },
      "properties": {
        "NO": 1603,
        "共通ID": "E0123100108111",
        "都道府県名及び市町村名": "北海道恵庭市",
        "施設・場所名": "柏小学校",
        "住所": "北海道恵庭市文京町3-3-3",
        "指定緊急避難場所との住所同一": "1",
        "その他市町村長が必要と認める事項": null,
        "受入対象者": null,
        "備考": ""
      }
    },
    {
      "type": "Feature",
      "geometry": {
        "type": "Point",
        "coordinates": [
          141.565826,
          42.884141
        ]
      },
      "properties": {
        "NO": 1604,
        "共通ID": "E0123100109111",
        "都道府県名及び市町村名": "北海道恵庭市",
        "施設・場所名": "恵庭中学校",
        "住所": "北海道恵庭市文京町3-4-5",
        "指定緊急避難場所との住所同一": "1",
        "その他市町村長が必要と認める事項": null,
        "受入対象者": null,
        "備考": ""
      }
    },
    {
      "type": "Feature",
      "geometry": {
        "type": "Point",
        "coordinates": [
          141.597696,
          42.960093
        ]
      },
      "properties": {
        "NO": 1605,
        "共通ID": "E0123100110111",
        "都道府県名及び市町村名": "北海道恵庭市",
        "施設・場所名": "北栄会館",
        "住所": "北海道恵庭市北島215",
        "指定緊急避難場所との住所同一": "1",
        "その他市町村長が必要と認める事項": null,
        "受入対象者": null,
        "備考": ""
      }
    },
    {
      "type": "Feature",
      "geometry": {
        "type": "Point",
        "coordinates": [
          141.573343,
          42.888431
        ]
      },
      "properties": {
        "NO": 1606,
        "共通ID": "E0123100118111",
        "都道府県名及び市町村名": "北海道恵庭市",
        "施設・場所名": "有明会館",
        "住所": "北海道恵庭市有明町5-1-3",
        "指定緊急避難場所との住所同一": "1",
        "その他市町村長が必要と認める事項": null,
        "受入対象者": null,
        "備考": ""
      }
    },
    {
      "type": "Feature",
      "geometry": {
        "type": "Point",
        "coordinates": [
          141.582459,
          42.879166
        ]
      },
      "properties": {
        "NO": 1607,
        "共通ID": "E0123100121111",
        "都道府県名及び市町村名": "北海道恵庭市",
        "施設・場所名": "アルファコート緑と語らいの広場（えにあす）",
        "住所": "北海道恵庭市緑町2-1-1",
        "指定緊急避難場所との住所同一": "1",
        "その他市町村長が必要と認める事項": null,
        "受入対象者": null,
        "備考": ""
      }
    },
    {
      "type": "Feature",
      "geometry": {
        "type": "Point",
        "coordinates": [
          141.589963,
          42.874193
        ]
      },
      "properties": {
        "NO": 1608,
        "共通ID": "E0123100124111",
        "都道府県名及び市町村名": "北海道恵庭市",
        "施設・場所名": "和光小学校",
        "住所": "北海道恵庭市和光町2-10-1",
        "指定緊急避難場所との住所同一": "1",
        "その他市町村長が必要と認める事項": null,
        "受入対象者": null,
        "備考": ""
      }
    },
    {
      "type": "Feature",
      "geometry": {
        "type": "Point",
        "coordinates": [
          141.58971,
          42.876105
        ]
      },
      "properties": {
        "NO": 1609,
        "共通ID": "E0123100125111",
        "都道府県名及び市町村名": "北海道恵庭市",
        "施設・場所名": "和光会館",
        "住所": "北海道恵庭市和光町2-2-8",
        "指定緊急避難場所との住所同一": "1",
        "その他市町村長が必要と認める事項": null,
        "受入対象者": null,
        "備考": ""
      }
    },
    {
      "type": "Feature",
      "geometry": {
        "type": "Point",
        "coordinates": [
          141.59029,
          42.876584
        ]
      },
      "properties": {
        "NO": 1610,
        "共通ID": "E0123100126111",
        "都道府県名及び市町村名": "北海道恵庭市",
        "施設・場所名": "和光憩の家",
        "住所": "北海道恵庭市和光町3-1-1",
        "指定緊急避難場所との住所同一": "1",
        "その他市町村長が必要と認める事項": null,
        "受入対象者": null,
        "備考": ""
      }
    },
    {
      "type": "Feature",
      "geometry": {
        "type": "Point",
        "coordinates": [
          141.59029,
          42.876584
        ]
      },
      "properties": {
        "NO": 1611,
        "共通ID": "E0123100126121",
        "都道府県名及び市町村名": "北海道恵庭市",
        "施設・場所名": "和光憩の家",
        "住所": "北海道恵庭市和光町3-1-1",
        "指定緊急避難場所との住所同一": "1",
        "その他市町村長が必要と認める事項": null,
        "受入対象者": null,
        "備考": ""
      }
    }
  ]
}