{
  "type": "FeatureCollection",
  "name": "014044",
  "features": [
    {
      "type": "Feature",
      "geometry": {
        "type": "Point",
        "coordinates": [
          140.348385,
          43.197544
        ]
      },
      "properties": {
        "NO": 2478,
        "共通ID": "E0140400001111",
        "都道府県名及び市町村名": "北海道神恵内村",
        "施設・場所名": "日本郷土玩具館",
        "住所": "北海道神恵内村大字珊内村256",
        "指定緊急避難場所との住所同一": "1",
        "その他市町村長が必要と認める事項": null,
        "受入対象者": null,
        "備考": ""
      }
    },
    {
      "type": "Feature",
      "geometry": {
        "type": "Point",
        "coordinates": [
          140.348364,
          43.197069
        ]
      },
      "properties": {
        "NO": 2479,
        "共通ID": "E0140400002111",
        "都道府県名及び市町村名": "北海道神恵内村",
        "施設・場所名": "珊内集会所",
        "住所": "北海道神恵内村大字珊内村57-27",
        "指定緊急避難場所との住所同一": "1",
        "その他市町村長が必要と認める事項": null,
        "受入対象者": null,
        "備考": ""
      }
    },
    {
      "type": "Feature",
      "geometry": {
        "type": "Point",
        "coordinates": [
          140.326652,
          43.220232
        ]
      },
      "properties": {
        "NO": 2480,
        "共通ID": "E0140400004111",
        "都道府県名及び市町村名": "北海道神恵内村",
        "施設・場所名": "川白ふれあいセンター",
        "住所": "北海道神恵内村大字珊内村字川白",
        "指定緊急避難場所との住所同一": "1",
        "その他市町村長が必要と認める事項": null,
        "受入対象者": null,
        "備考": ""
      }
    },
    {
      "type": "Feature",
      "geometry": {
        "type": "Point",
        "coordinates": [
          140.327686,
          43.220388
        ]
      },
      "properties": {
        "NO": 2481,
        "共通ID": "E0140400005111",
        "都道府県名及び市町村名": "北海道神恵内村",
        "施設・場所名": "神恵内村生涯学習館",
        "住所": "北海道神恵内村大字珊内村字川白250-1",
        "指定緊急避難場所との住所同一": "1",
        "その他市町村長が必要と認める事項": null,
        "受入対象者": null,
        "備考": ""
      }
    },
    {
      "type": "Feature",
      "geometry": {
        "type": "Point",
        "coordinates": [
          140.43544,
          43.144608
        ]
      },
      "properties": {
        "NO": 2482,
        "共通ID": "E0140400007111",
        "都道府県名及び市町村名": "北海道神恵内村",
        "施設・場所名": "神恵内村漁村センター",
        "住所": "北海道神恵内村大字神恵内村65-4",
        "指定緊急避難場所との住所同一": "1",
        "その他市町村長が必要と認める事項": null,
        "受入対象者": null,
        "備考": ""
      }
    },
    {
      "type": "Feature",
      "geometry": {
        "type": "Point",
        "coordinates": [
          140.430919,
          43.138216
        ]
      },
      "properties": {
        "NO": 2483,
        "共通ID": "E0140400009111",
        "都道府県名及び市町村名": "北海道神恵内村",
        "施設・場所名": "神恵内村商工観光センター",
        "住所": "北海道神恵内村大字神恵内村字ヘルカイシ59",
        "指定緊急避難場所との住所同一": "",
        "その他市町村長が必要と認める事項": null,
        "受入対象者": null,
        "備考": ""
      }
    },
    {
      "type": "Feature",
      "geometry": {
        "type": "Point",
        "coordinates": [
          140.425131,
          43.14461
        ]
      },
      "properties": {
        "NO": 2484,
        "共通ID": "E0140400011111",
        "都道府県名及び市町村名": "北海道神恵内村",
        "施設・場所名": "神恵内中学校",
        "住所": "北海道神恵内村大字神恵内村字横澗11-7",
        "指定緊急避難場所との住所同一": "1",
        "その他市町村長が必要と認める事項": null,
        "受入対象者": null,
        "備考": ""
      }
    },
    {
      "type": "Feature",
      "geometry": {
        "type": "Point",
        "coordinates": [
          140.425984,
          43.144977
        ]
      },
      "properties": {
        "NO": 2485,
        "共通ID": "E0140400013111",
        "都道府県名及び市町村名": "北海道神恵内村",
        "施設・場所名": "神恵内小学校",
        "住所": "北海道神恵内村大字神恵内村字横澗154",
        "指定緊急避難場所との住所同一": "1",
        "その他市町村長が必要と認める事項": null,
        "受入対象者": null,
        "備考": ""
      }
    },
    {
      "type": "Feature",
      "geometry": {
        "type": "Point",
        "coordinates": [
          140.435419,
          43.143728
        ]
      },
      "properties": {
        "NO": 2486,
        "共通ID": "E0140400014111",
        "都道府県名及び市町村名": "北海道神恵内村",
        "施設・場所名": "神恵内保育所",
        "住所": "北海道神恵内村大字神恵内村字横澗20-4",
        "指定緊急避難場所との住所同一": "1",
        "その他市町村長が必要と認める事項": null,
        "受入対象者": null,
        "備考": ""
      }
    },
    {
      "type": "Feature",
      "geometry": {
        "type": "Point",
        "coordinates": [
          140.401994,
          43.158551
        ]
      },
      "properties": {
        "NO": 2487,
        "共通ID": "E0140400016111",
        "都道府県名及び市町村名": "北海道神恵内村",
        "施設・場所名": "赤石集会所",
        "住所": "北海道神恵内村大字赤石村23-1",
        "指定緊急避難場所との住所同一": "1",
        "その他市町村長が必要と認める事項": null,
        "受入対象者": null,
        "備考": ""
      }
    }
  ]
}