{
  "type": "FeatureCollection",
  "name": "014273",
  "features": [
    {
      "type": "Feature",
      "geometry": {
        "type": "Point",
        "coordinates": [
          141.795534,
          42.974619
        ]
      },
      "properties": {
        "NO": 2633,
        "共通ID": "E0142700001111",
        "都道府県名及び市町村名": "北海道由仁町",
        "施設・場所名": "コミュニティ消防センター",
        "住所": "北海道由仁町熊本274-3",
        "指定緊急避難場所との住所同一": "1",
        "その他市町村長が必要と認める事項": null,
        "受入対象者": null,
        "備考": ""
      }
    },
    {
      "type": "Feature",
      "geometry": {
        "type": "Point",
        "coordinates": [
          141.807982,
          42.943709
        ]
      },
      "properties": {
        "NO": 2634,
        "共通ID": "E0142700003111",
        "都道府県名及び市町村名": "北海道由仁町",
        "施設・場所名": "三川保育園",
        "住所": "北海道由仁町三川泉町201-7",
        "指定緊急避難場所との住所同一": "1",
        "その他市町村長が必要と認める事項": null,
        "受入対象者": null,
        "備考": ""
      }
    },
    {
      "type": "Feature",
      "geometry": {
        "type": "Point",
        "coordinates": [
          141.792549,
          43.005781
        ]
      },
      "properties": {
        "NO": 2635,
        "共通ID": "E0142700005111",
        "都道府県名及び市町村名": "北海道由仁町",
        "施設・場所名": "由仁小学校（講堂）",
        "住所": "北海道由仁町新光162",
        "指定緊急避難場所との住所同一": "1",
        "その他市町村長が必要と認める事項": null,
        "受入対象者": null,
        "備考": ""
      }
    },
    {
      "type": "Feature",
      "geometry": {
        "type": "Point",
        "coordinates": [
          141.791863,
          43.005567
        ]
      },
      "properties": {
        "NO": 2636,
        "共通ID": "E0142700005112",
        "都道府県名及び市町村名": "北海道由仁町",
        "施設・場所名": "由仁小学校（校舎）",
        "住所": "北海道由仁町新光162",
        "指定緊急避難場所との住所同一": "1",
        "その他市町村長が必要と認める事項": null,
        "受入対象者": null,
        "備考": ""
      }
    },
    {
      "type": "Feature",
      "geometry": {
        "type": "Point",
        "coordinates": [
          141.788468,
          43.005771
        ]
      },
      "properties": {
        "NO": 2637,
        "共通ID": "E0142700006111",
        "都道府県名及び市町村名": "北海道由仁町",
        "施設・場所名": "由仁中学校（体育館）",
        "住所": "北海道由仁町新光50-1",
        "指定緊急避難場所との住所同一": "1",
        "その他市町村長が必要と認める事項": null,
        "受入対象者": null,
        "備考": ""
      }
    },
    {
      "type": "Feature",
      "geometry": {
        "type": "Point",
        "coordinates": [
          141.788414,
          43.005375
        ]
      },
      "properties": {
        "NO": 2638,
        "共通ID": "E0142700006112",
        "都道府県名及び市町村名": "北海道由仁町",
        "施設・場所名": "由仁中学校（校舎）",
        "住所": "北海道由仁町新光50-1",
        "指定緊急避難場所との住所同一": "1",
        "その他市町村長が必要と認める事項": null,
        "受入対象者": null,
        "備考": ""
      }
    },
    {
      "type": "Feature",
      "geometry": {
        "type": "Point",
        "coordinates": [
          141.897185,
          42.91617
        ]
      },
      "properties": {
        "NO": 2639,
        "共通ID": "E0142700007111",
        "都道府県名及び市町村名": "北海道由仁町",
        "施設・場所名": "川端老人福祉センター",
        "住所": "北海道由仁町川端1034",
        "指定緊急避難場所との住所同一": "1",
        "その他市町村長が必要と認める事項": null,
        "受入対象者": null,
        "備考": ""
      }
    },
    {
      "type": "Feature",
      "geometry": {
        "type": "Point",
        "coordinates": [
          141.781667,
          43.010118
        ]
      },
      "properties": {
        "NO": 2640,
        "共通ID": "E0142700008111",
        "都道府県名及び市町村名": "北海道由仁町",
        "施設・場所名": "農村勤労センター",
        "住所": "北海道由仁町中央202",
        "指定緊急避難場所との住所同一": "1",
        "その他市町村長が必要と認める事項": null,
        "受入対象者": null,
        "備考": ""
      }
    },
    {
      "type": "Feature",
      "geometry": {
        "type": "Point",
        "coordinates": [
          141.787089,
          43.011898
        ]
      },
      "properties": {
        "NO": 2641,
        "共通ID": "E0142700009111",
        "都道府県名及び市町村名": "北海道由仁町",
        "施設・場所名": "文化交流館",
        "住所": "北海道由仁町東栄87-1",
        "指定緊急避難場所との住所同一": "1",
        "その他市町村長が必要と認める事項": null,
        "受入対象者": null,
        "備考": ""
      }
    },
    {
      "type": "Feature",
      "geometry": {
        "type": "Point",
        "coordinates": [
          141.787197,
          43.011313
        ]
      },
      "properties": {
        "NO": 2642,
        "共通ID": "E0142700009112",
        "都道府県名及び市町村名": "北海道由仁町",
        "施設・場所名": "健康元気づくり館",
        "住所": "北海道由仁町東栄87-1",
        "指定緊急避難場所との住所同一": "1",
        "その他市町村長が必要と認める事項": null,
        "受入対象者": null,
        "備考": ""
      }
    },
    {
      "type": "Feature",
      "geometry": {
        "type": "Point",
        "coordinates": [
          141.787197,
          43.011313
        ]
      },
      "properties": {
        "NO": 2643,
        "共通ID": "E0142700009121",
        "都道府県名及び市町村名": "北海道由仁町",
        "施設・場所名": "健康元気づくり館",
        "住所": "北海道由仁町東栄87-1",
        "指定緊急避難場所との住所同一": "1",
        "その他市町村長が必要と認める事項": null,
        "受入対象者": null,
        "備考": ""
      }
    },
    {
      "type": "Feature",
      "geometry": {
        "type": "Point",
        "coordinates": [
          141.810972,
          42.945758
        ]
      },
      "properties": {
        "NO": 2644,
        "共通ID": "E0142700010111",
        "都道府県名及び市町村名": "北海道由仁町",
        "施設・場所名": "株式会社チュプチニカ（旧三川小学校講堂）",
        "住所": "北海道由仁町本三川484-1",
        "指定緊急避難場所との住所同一": "1",
        "その他市町村長が必要と認める事項": null,
        "受入対象者": null,
        "備考": ""
      }
    },
    {
      "type": "Feature",
      "geometry": {
        "type": "Point",
        "coordinates": [
          141.783429,
          43.012684
        ]
      },
      "properties": {
        "NO": 2645,
        "共通ID": "E0142700012111",
        "都道府県名及び市町村名": "北海道由仁町",
        "施設・場所名": "由仁保育園",
        "住所": "北海道由仁町本町318",
        "指定緊急避難場所との住所同一": "1",
        "その他市町村長が必要と認める事項": null,
        "受入対象者": null,
        "備考": ""
      }
    }
  ]
}