{
  "type": "FeatureCollection",
  "name": "014371",
  "features": [
    {
      "type": "Feature",
      "geometry": {
        "type": "Point",
        "coordinates": [
          141.849311,
          43.725375
        ]
      },
      "properties": {
        "NO": 2756,
        "共通ID": "E0143700001111",
        "都道府県名及び市町村名": "北海道北竜町",
        "施設・場所名": "三谷地域コミュニティセンター",
        "住所": "北海道北竜町字三谷64-5",
        "指定緊急避難場所との住所同一": "1",
        "その他市町村長が必要と認める事項": null,
        "受入対象者": null,
        "備考": ""
      }
    },
    {
      "type": "Feature",
      "geometry": {
        "type": "Point",
        "coordinates": [
          141.87533,
          43.742846
        ]
      },
      "properties": {
        "NO": 2757,
        "共通ID": "E0143700002111",
        "都道府県名及び市町村名": "北海道北竜町",
        "施設・場所名": "北竜町立北竜中学校",
        "住所": "北海道北竜町字板谷150",
        "指定緊急避難場所との住所同一": "1",
        "その他市町村長が必要と認める事項": null,
        "受入対象者": null,
        "備考": ""
      }
    },
    {
      "type": "Feature",
      "geometry": {
        "type": "Point",
        "coordinates": [
          141.836354,
          43.803328
        ]
      },
      "properties": {
        "NO": 2758,
        "共通ID": "E0143700003111",
        "都道府県名及び市町村名": "北海道北竜町",
        "施設・場所名": "美葉牛地域農業研修センター",
        "住所": "北海道北竜町字美葉牛88-1",
        "指定緊急避難場所との住所同一": "1",
        "その他市町村長が必要と認める事項": null,
        "受入対象者": null,
        "備考": ""
      }
    },
    {
      "type": "Feature",
      "geometry": {
        "type": "Point",
        "coordinates": [
          141.875442,
          43.770032
        ]
      },
      "properties": {
        "NO": 2759,
        "共通ID": "E0143700004111",
        "都道府県名及び市町村名": "北海道北竜町",
        "施設・場所名": "碧水いきがいセンター",
        "住所": "北海道北竜町字碧水20-1",
        "指定緊急避難場所との住所同一": "1",
        "その他市町村長が必要と認める事項": null,
        "受入対象者": null,
        "備考": ""
      }
    },
    {
      "type": "Feature",
      "geometry": {
        "type": "Point",
        "coordinates": [
          141.878155,
          43.730327
        ]
      },
      "properties": {
        "NO": 2760,
        "共通ID": "E0143700005112",
        "都道府県名及び市町村名": "北海道北竜町",
        "施設・場所名": "農業農村改善センター",
        "住所": "北海道北竜町字和10-1",
        "指定緊急避難場所との住所同一": "1",
        "その他市町村長が必要と認める事項": null,
        "受入対象者": null,
        "備考": ""
      }
    },
    {
      "type": "Feature",
      "geometry": {
        "type": "Point",
        "coordinates": [
          141.877699,
          43.731222
        ]
      },
      "properties": {
        "NO": 2761,
        "共通ID": "E0143700005113",
        "都道府県名及び市町村名": "北海道北竜町",
        "施設・場所名": "北竜町立真竜小学校",
        "住所": "北海道北竜町字和10-1",
        "指定緊急避難場所との住所同一": "1",
        "その他市町村長が必要と認める事項": null,
        "受入対象者": null,
        "備考": ""
      }
    },
    {
      "type": "Feature",
      "geometry": {
        "type": "Point",
        "coordinates": [
          141.881868,
          43.727457
        ]
      },
      "properties": {
        "NO": 2762,
        "共通ID": "E0143700006111",
        "都道府県名及び市町村名": "北海道北竜町",
        "施設・場所名": "老人福祉センター",
        "住所": "北海道北竜町字和19-6",
        "指定緊急避難場所との住所同一": "1",
        "その他市町村長が必要と認める事項": null,
        "受入対象者": null,
        "備考": ""
      }
    },
    {
      "type": "Feature",
      "geometry": {
        "type": "Point",
        "coordinates": [
          141.881868,
          43.727457
        ]
      },
      "properties": {
        "NO": 2763,
        "共通ID": "E0143700006121",
        "都道府県名及び市町村名": "北海道北竜町",
        "施設・場所名": "老人福祉センター",
        "住所": "北海道北竜町字和19-6",
        "指定緊急避難場所との住所同一": "1",
        "その他市町村長が必要と認める事項": null,
        "受入対象者": null,
        "備考": ""
      }
    }
  ]
}