{
  "type": "FeatureCollection",
  "name": "014575",
  "features": [
    {
      "type": "Feature",
      "geometry": {
        "type": "Point",
        "coordinates": [
          142.766998,
          43.8543
        ]
      },
      "properties": {
        "NO": 2856,
        "共通ID": "E0145700005111",
        "都道府県名及び市町村名": "北海道上川町",
        "施設・場所名": "上川町総合体育館",
        "住所": "北海道上川町花園町3",
        "指定緊急避難場所との住所同一": "1",
        "その他市町村長が必要と認める事項": null,
        "受入対象者": null,
        "備考": ""
      }
    },
    {
      "type": "Feature",
      "geometry": {
        "type": "Point",
        "coordinates": [
          142.788709,
          43.830358
        ]
      },
      "properties": {
        "NO": 2857,
        "共通ID": "E0145700007111",
        "都道府県名及び市町村名": "北海道上川町",
        "施設・場所名": "旧青少年野外活動センター",
        "住所": "北海道上川町字菊水440",
        "指定緊急避難場所との住所同一": "",
        "その他市町村長が必要と認める事項": null,
        "受入対象者": null,
        "備考": ""
      }
    },
    {
      "type": "Feature",
      "geometry": {
        "type": "Point",
        "coordinates": [
          142.944021,
          43.725655
        ]
      },
      "properties": {
        "NO": 2858,
        "共通ID": "E0145700011111",
        "都道府県名及び市町村名": "北海道上川町",
        "施設・場所名": "層雲峡写真ミュージアム",
        "住所": "北海道上川町字層雲峡1-1",
        "指定緊急避難場所との住所同一": "",
        "その他市町村長が必要と認める事項": null,
        "受入対象者": null,
        "備考": ""
      }
    },
    {
      "type": "Feature",
      "geometry": {
        "type": "Point",
        "coordinates": [
          142.951672,
          43.725872
        ]
      },
      "properties": {
        "NO": 2859,
        "共通ID": "E0145700012111",
        "都道府県名及び市町村名": "北海道上川町",
        "施設・場所名": "層雲峡ホテル朝陽亭",
        "住所": "北海道上川町字層雲峡81",
        "指定緊急避難場所との住所同一": "",
        "その他市町村長が必要と認める事項": null,
        "受入対象者": null,
        "備考": ""
      }
    },
    {
      "type": "Feature",
      "geometry": {
        "type": "Point",
        "coordinates": [
          142.95062,
          43.725351
        ]
      },
      "properties": {
        "NO": 2860,
        "共通ID": "E0145700013111",
        "都道府県名及び市町村名": "北海道上川町",
        "施設・場所名": "ホテル大雪",
        "住所": "北海道上川町字層雲峡82",
        "指定緊急避難場所との住所同一": "",
        "その他市町村長が必要と認める事項": null,
        "受入対象者": null,
        "備考": ""
      }
    },
    {
      "type": "Feature",
      "geometry": {
        "type": "Point",
        "coordinates": [
          142.946602,
          43.726013
        ]
      },
      "properties": {
        "NO": 2861,
        "共通ID": "E0145700014111",
        "都道府県名及び市町村名": "北海道上川町",
        "施設・場所名": "層雲峡観光総合コミュニティセンター",
        "住所": "北海道上川町字層雲峡84",
        "指定緊急避難場所との住所同一": "1",
        "その他市町村長が必要と認める事項": null,
        "受入対象者": null,
        "備考": ""
      }
    },
    {
      "type": "Feature",
      "geometry": {
        "type": "Point",
        "coordinates": [
          142.942859,
          43.72899
        ]
      },
      "properties": {
        "NO": 2862,
        "共通ID": "E0145700015112",
        "都道府県名及び市町村名": "北海道上川町",
        "施設・場所名": "層雲峡温泉朝陽リゾートホテル",
        "住所": "北海道上川町字層雲峡87",
        "指定緊急避難場所との住所同一": "",
        "その他市町村長が必要と認める事項": null,
        "受入対象者": null,
        "備考": ""
      }
    },
    {
      "type": "Feature",
      "geometry": {
        "type": "Point",
        "coordinates": [
          142.944791,
          43.728369
        ]
      },
      "properties": {
        "NO": 2863,
        "共通ID": "E0145700015111",
        "都道府県名及び市町村名": "北海道上川町",
        "施設・場所名": "層雲峡観光ホテル",
        "住所": "北海道上川町字層雲峡87",
        "指定緊急避難場所との住所同一": "",
        "その他市町村長が必要と認める事項": null,
        "受入対象者": null,
        "備考": ""
      }
    },
    {
      "type": "Feature",
      "geometry": {
        "type": "Point",
        "coordinates": [
          142.953383,
          43.726684
        ]
      },
      "properties": {
        "NO": 2864,
        "共通ID": "E0145700016111",
        "都道府県名及び市町村名": "北海道上川町",
        "施設・場所名": "層雲閣グランドホテル",
        "住所": "北海道上川町字層雲峡92",
        "指定緊急避難場所との住所同一": "",
        "その他市町村長が必要と認める事項": null,
        "受入対象者": null,
        "備考": ""
      }
    },
    {
      "type": "Feature",
      "geometry": {
        "type": "Point",
        "coordinates": [
          142.711863,
          43.842729
        ]
      },
      "properties": {
        "NO": 2865,
        "共通ID": "E0145700017111",
        "都道府県名及び市町村名": "北海道上川町",
        "施設・場所名": "旧東雲小学校",
        "住所": "北海道上川町字東雲139-1",
        "指定緊急避難場所との住所同一": "1",
        "その他市町村長が必要と認める事項": null,
        "受入対象者": null,
        "備考": ""
      }
    },
    {
      "type": "Feature",
      "geometry": {
        "type": "Point",
        "coordinates": [
          142.77665,
          43.848195
        ]
      },
      "properties": {
        "NO": 2866,
        "共通ID": "E0145700020111",
        "都道府県名及び市町村名": "北海道上川町",
        "施設・場所名": "上川小学校",
        "住所": "北海道上川町新町379-1",
        "指定緊急避難場所との住所同一": "1",
        "その他市町村長が必要と認める事項": null,
        "受入対象者": null,
        "備考": ""
      }
    },
    {
      "type": "Feature",
      "geometry": {
        "type": "Point",
        "coordinates": [
          142.777902,
          43.84788
        ]
      },
      "properties": {
        "NO": 2867,
        "共通ID": "E0145700023111",
        "都道府県名及び市町村名": "北海道上川町",
        "施設・場所名": "上川高等学校",
        "住所": "北海道上川町東町148",
        "指定緊急避難場所との住所同一": "1",
        "その他市町村長が必要と認める事項": null,
        "受入対象者": null,
        "備考": ""
      }
    },
    {
      "type": "Feature",
      "geometry": {
        "type": "Point",
        "coordinates": [
          142.772049,
          43.851199
        ]
      },
      "properties": {
        "NO": 2868,
        "共通ID": "E0145700027111",
        "都道府県名及び市町村名": "北海道上川町",
        "施設・場所名": "かみんぐホール",
        "住所": "北海道上川町北町114-1",
        "指定緊急避難場所との住所同一": "",
        "その他市町村長が必要と認める事項": null,
        "受入対象者": null,
        "備考": ""
      }
    },
    {
      "type": "Feature",
      "geometry": {
        "type": "Point",
        "coordinates": [
          142.772049,
          43.851199
        ]
      },
      "properties": {
        "NO": 2869,
        "共通ID": "E0145700027121",
        "都道府県名及び市町村名": "北海道上川町",
        "施設・場所名": "かみんぐホール",
        "住所": "北海道上川町北町114-1",
        "指定緊急避難場所との住所同一": "",
        "その他市町村長が必要と認める事項": null,
        "受入対象者": "要配慮者",
        "備考": ""
      }
    },
    {
      "type": "Feature",
      "geometry": {
        "type": "Point",
        "coordinates": [
          142.772835,
          43.85139
        ]
      },
      "properties": {
        "NO": 2870,
        "共通ID": "E0145700028111",
        "都道府県名及び市町村名": "北海道上川町",
        "施設・場所名": "上川中学校",
        "住所": "北海道上川町北町45",
        "指定緊急避難場所との住所同一": "1",
        "その他市町村長が必要と認める事項": null,
        "受入対象者": null,
        "備考": ""
      }
    },
    {
      "type": "Feature",
      "geometry": {
        "type": "Point",
        "coordinates": [
          142.772356,
          43.848476
        ]
      },
      "properties": {
        "NO": 2871,
        "共通ID": "E0145700029111",
        "都道府県名及び市町村名": "北海道上川町",
        "施設・場所名": "上川町保健福祉センター",
        "住所": "北海道上川町本町2",
        "指定緊急避難場所との住所同一": "",
        "その他市町村長が必要と認める事項": null,
        "受入対象者": null,
        "備考": ""
      }
    }
  ]
}