{
  "type": "FeatureCollection",
  "name": "014681",
  "features": [
    {
      "type": "Feature",
      "geometry": {
        "type": "Point",
        "coordinates": [
          142.638118,
          44.300927
        ]
      },
      "properties": {
        "NO": 3065,
        "共通ID": "E0146800004111",
        "都道府県名及び市町村名": "北海道下川町",
        "施設・場所名": "下川町バスターミナル合同センター",
        "住所": "北海道下川町共栄町6",
        "指定緊急避難場所との住所同一": "",
        "その他市町村長が必要と認める事項": "",
        "受入対象者": "",
        "備考": ""
      }
    },
    {
      "type": "Feature",
      "geometry": {
        "type": "Point",
        "coordinates": [
          142.633067,
          44.301967
        ]
      },
      "properties": {
        "NO": 3066,
        "共通ID": "E0146800006112",
        "都道府県名及び市町村名": "北海道下川町",
        "施設・場所名": "下川町総合福祉センター",
        "住所": "北海道下川町幸町40-1",
        "指定緊急避難場所との住所同一": "",
        "その他市町村長が必要と認める事項": "",
        "受入対象者": "",
        "備考": ""
      }
    },
    {
      "type": "Feature",
      "geometry": {
        "type": "Point",
        "coordinates": [
          142.633067,
          44.301967
        ]
      },
      "properties": {
        "NO": 3067,
        "共通ID": "E0146800006122",
        "都道府県名及び市町村名": "北海道下川町",
        "施設・場所名": "下川町総合福祉センター",
        "住所": "北海道下川町幸町40-1",
        "指定緊急避難場所との住所同一": "",
        "その他市町村長が必要と認める事項": "",
        "受入対象者": "要配慮者",
        "備考": ""
      }
    },
    {
      "type": "Feature",
      "geometry": {
        "type": "Point",
        "coordinates": [
          142.578384,
          44.311783
        ]
      },
      "properties": {
        "NO": 3068,
        "共通ID": "E0146800009111",
        "都道府県名及び市町村名": "北海道下川町",
        "施設・場所名": "下川町農村活性化センター",
        "住所": "北海道下川町上名寄1181-1",
        "指定緊急避難場所との住所同一": "",
        "その他市町村長が必要と認める事項": "",
        "受入対象者": "",
        "備考": ""
      }
    },
    {
      "type": "Feature",
      "geometry": {
        "type": "Point",
        "coordinates": [
          142.594451,
          44.321307
        ]
      },
      "properties": {
        "NO": 3069,
        "共通ID": "E0146800010111",
        "都道府県名及び市町村名": "北海道下川町",
        "施設・場所名": "上名寄川向会館",
        "住所": "北海道下川町上名寄2858",
        "指定緊急避難場所との住所同一": "1",
        "その他市町村長が必要と認める事項": null,
        "受入対象者": null,
        "備考": ""
      }
    },
    {
      "type": "Feature",
      "geometry": {
        "type": "Point",
        "coordinates": [
          142.628005,
          44.294774
        ]
      },
      "properties": {
        "NO": 3070,
        "共通ID": "E0146800012111",
        "都道府県名及び市町村名": "北海道下川町",
        "施設・場所名": "下川町土間運動場「桜ヶ丘アリーナ」",
        "住所": "北海道下川町西町1026-2",
        "指定緊急避難場所との住所同一": "",
        "その他市町村長が必要と認める事項": "",
        "受入対象者": "",
        "備考": ""
      }
    },
    {
      "type": "Feature",
      "geometry": {
        "type": "Point",
        "coordinates": [
          142.627616,
          44.30331
        ]
      },
      "properties": {
        "NO": 3071,
        "共通ID": "E0146800032121",
        "都道府県名及び市町村名": "北海道下川町",
        "施設・場所名": "下川町立デイサービスセンター",
        "住所": "北海道下川町西町352",
        "指定緊急避難場所との住所同一": "",
        "その他市町村長が必要と認める事項": "",
        "受入対象者": "要配慮者",
        "備考": ""
      }
    },
    {
      "type": "Feature",
      "geometry": {
        "type": "Point",
        "coordinates": [
          142.641835,
          44.297247
        ]
      },
      "properties": {
        "NO": 3072,
        "共通ID": "E0146800014111",
        "都道府県名及び市町村名": "北海道下川町",
        "施設・場所名": "新町会館",
        "住所": "北海道下川町南町178",
        "指定緊急避難場所との住所同一": "1",
        "その他市町村長が必要と認める事項": "",
        "受入対象者": "",
        "備考": ""
      }
    },
    {
      "type": "Feature",
      "geometry": {
        "type": "Point",
        "coordinates": [
          142.633601,
          44.298883
        ]
      },
      "properties": {
        "NO": 3073,
        "共通ID": "E0146800017122",
        "都道府県名及び市町村名": "北海道下川町",
        "施設・場所名": "下川町民スポーツセンター",
        "住所": "北海道下川町南町351-1",
        "指定緊急避難場所との住所同一": "1",
        "その他市町村長が必要と認める事項": "",
        "受入対象者": "要配慮者",
        "備考": ""
      }
    },
    {
      "type": "Feature",
      "geometry": {
        "type": "Point",
        "coordinates": [
          142.633601,
          44.298883
        ]
      },
      "properties": {
        "NO": 3074,
        "共通ID": "E0146800017112",
        "都道府県名及び市町村名": "北海道下川町",
        "施設・場所名": "下川町民スポーツセンター",
        "住所": "北海道下川町南町351-1",
        "指定緊急避難場所との住所同一": "1",
        "その他市町村長が必要と認める事項": "",
        "受入対象者": "",
        "備考": ""
      }
    },
    {
      "type": "Feature",
      "geometry": {
        "type": "Point",
        "coordinates": [
          142.635894,
          44.297051
        ]
      },
      "properties": {
        "NO": 3075,
        "共通ID": "E0146800018111",
        "都道府県名及び市町村名": "北海道下川町",
        "施設・場所名": "下川町立下川中学校",
        "住所": "北海道下川町南町417",
        "指定緊急避難場所との住所同一": "1",
        "その他市町村長が必要と認める事項": "",
        "受入対象者": "",
        "備考": ""
      }
    },
    {
      "type": "Feature",
      "geometry": {
        "type": "Point",
        "coordinates": [
          142.638153,
          44.296251
        ]
      },
      "properties": {
        "NO": 3076,
        "共通ID": "E0146800020111",
        "都道府県名及び市町村名": "北海道下川町",
        "施設・場所名": "末広会館",
        "住所": "北海道下川町南町439-1",
        "指定緊急避難場所との住所同一": "",
        "その他市町村長が必要と認める事項": "",
        "受入対象者": "",
        "備考": ""
      }
    },
    {
      "type": "Feature",
      "geometry": {
        "type": "Point",
        "coordinates": [
          142.698979,
          44.311542
        ]
      },
      "properties": {
        "NO": 3077,
        "共通ID": "E0146800022112",
        "都道府県名及び市町村名": "北海道下川町",
        "施設・場所名": "二の橋会館",
        "住所": "北海道下川町二の橋630",
        "指定緊急避難場所との住所同一": "1",
        "その他市町村長が必要と認める事項": "",
        "受入対象者": "",
        "備考": ""
      }
    },
    {
      "type": "Feature",
      "geometry": {
        "type": "Point",
        "coordinates": [
          142.640298,
          44.308914
        ]
      },
      "properties": {
        "NO": 3078,
        "共通ID": "E0146800024111",
        "都道府県名及び市町村名": "北海道下川町",
        "施設・場所名": "北海道下川商業高等学校",
        "住所": "北海道下川町北町1371",
        "指定緊急避難場所との住所同一": "1",
        "その他市町村長が必要と認める事項": "",
        "受入対象者": "",
        "備考": ""
      }
    }
  ]
}