{
  "type": "FeatureCollection",
  "name": "014818",
  "features": [
    {
      "type": "Feature",
      "geometry": {
        "type": "Point",
        "coordinates": [
          141.605063,
          43.894023
        ]
      },
      "properties": {
        "NO": 3116,
        "共通ID": "E0148100001111",
        "都道府県名及び市町村名": "北海道増毛町",
        "施設・場所名": "旧阿分小学校",
        "住所": "北海道増毛町阿分116",
        "指定緊急避難場所との住所同一": "1",
        "その他市町村長が必要と認める事項": "",
        "受入対象者": "",
        "備考": ""
      }
    },
    {
      "type": "Feature",
      "geometry": {
        "type": "Point",
        "coordinates": [
          141.590797,
          43.877611
        ]
      },
      "properties": {
        "NO": 3117,
        "共通ID": "E0148100002111",
        "都道府県名及び市町村名": "北海道増毛町",
        "施設・場所名": "元阿分福祉会館",
        "住所": "北海道増毛町阿分226-10",
        "指定緊急避難場所との住所同一": "",
        "その他市町村長が必要と認める事項": "",
        "受入対象者": "",
        "備考": ""
      }
    },
    {
      "type": "Feature",
      "geometry": {
        "type": "Point",
        "coordinates": [
          141.368942,
          43.773413
        ]
      },
      "properties": {
        "NO": 3118,
        "共通ID": "E0148100004111",
        "都道府県名及び市町村名": "北海道増毛町",
        "施設・場所名": "岩尾へき地保健福祉館",
        "住所": "北海道増毛町岩老171",
        "指定緊急避難場所との住所同一": "",
        "その他市町村長が必要と認める事項": "",
        "受入対象者": "",
        "備考": ""
      }
    },
    {
      "type": "Feature",
      "geometry": {
        "type": "Point",
        "coordinates": [
          141.595152,
          43.844058
        ]
      },
      "properties": {
        "NO": 3119,
        "共通ID": "E0148100007111",
        "都道府県名及び市町村名": "北海道増毛町",
        "施設・場所名": "笹沼会館",
        "住所": "北海道増毛町舎熊1029-68",
        "指定緊急避難場所との住所同一": "",
        "その他市町村長が必要と認める事項": "",
        "受入対象者": "",
        "備考": ""
      }
    },
    {
      "type": "Feature",
      "geometry": {
        "type": "Point",
        "coordinates": [
          141.585316,
          43.874429
        ]
      },
      "properties": {
        "NO": 3120,
        "共通ID": "E0148100008111",
        "都道府県名及び市町村名": "北海道増毛町",
        "施設・場所名": "旧舎熊小学校",
        "住所": "北海道増毛町舎熊203-1",
        "指定緊急避難場所との住所同一": "1",
        "その他市町村長が必要と認める事項": "",
        "受入対象者": "",
        "備考": ""
      }
    },
    {
      "type": "Feature",
      "geometry": {
        "type": "Point",
        "coordinates": [
          141.602209,
          43.858315
        ]
      },
      "properties": {
        "NO": 3121,
        "共通ID": "E0148100010111",
        "都道府県名及び市町村名": "北海道増毛町",
        "施設・場所名": "信砂生活改善センター",
        "住所": "北海道増毛町信砂581-11",
        "指定緊急避難場所との住所同一": "",
        "その他市町村長が必要と認める事項": "",
        "受入対象者": "",
        "備考": ""
      }
    },
    {
      "type": "Feature",
      "geometry": {
        "type": "Point",
        "coordinates": [
          141.517807,
          43.850275
        ]
      },
      "properties": {
        "NO": 3122,
        "共通ID": "E0148100012111",
        "都道府県名及び市町村名": "北海道増毛町",
        "施設・場所名": "増毛中学校",
        "住所": "北海道増毛町南暑寒町5-330",
        "指定緊急避難場所との住所同一": "1",
        "その他市町村長が必要と認める事項": "",
        "受入対象者": "",
        "備考": ""
      }
    },
    {
      "type": "Feature",
      "geometry": {
        "type": "Point",
        "coordinates": [
          141.522679,
          43.85299
        ]
      },
      "properties": {
        "NO": 3123,
        "共通ID": "E0148100013111",
        "都道府県名及び市町村名": "北海道増毛町",
        "施設・場所名": "文化センター",
        "住所": "北海道増毛町南畠中町2-25",
        "指定緊急避難場所との住所同一": "",
        "その他市町村長が必要と認める事項": "",
        "受入対象者": "",
        "備考": ""
      }
    },
    {
      "type": "Feature",
      "geometry": {
        "type": "Point",
        "coordinates": [
          141.549735,
          43.859823
        ]
      },
      "properties": {
        "NO": 3124,
        "共通ID": "E0148100014111",
        "都道府県名及び市町村名": "北海道増毛町",
        "施設・場所名": "箸別生活館",
        "住所": "北海道増毛町箸別133-8",
        "指定緊急避難場所との住所同一": "",
        "その他市町村長が必要と認める事項": "",
        "受入対象者": "",
        "備考": ""
      }
    },
    {
      "type": "Feature",
      "geometry": {
        "type": "Point",
        "coordinates": [
          141.500037,
          43.840214
        ]
      },
      "properties": {
        "NO": 3125,
        "共通ID": "E0148100017111",
        "都道府県名及び市町村名": "北海道増毛町",
        "施設・場所名": "小樽間内会館",
        "住所": "北海道増毛町別苅149-4",
        "指定緊急避難場所との住所同一": "1",
        "その他市町村長が必要と認める事項": "",
        "受入対象者": "",
        "備考": ""
      }
    },
    {
      "type": "Feature",
      "geometry": {
        "type": "Point",
        "coordinates": [
          141.495444,
          43.833444
        ]
      },
      "properties": {
        "NO": 3126,
        "共通ID": "E0148100018111",
        "都道府県名及び市町村名": "北海道増毛町",
        "施設・場所名": "海音寺",
        "住所": "北海道増毛町別苅205",
        "指定緊急避難場所との住所同一": "",
        "その他市町村長が必要と認める事項": "",
        "受入対象者": "",
        "備考": ""
      }
    },
    {
      "type": "Feature",
      "geometry": {
        "type": "Point",
        "coordinates": [
          141.510088,
          43.853243
        ]
      },
      "properties": {
        "NO": 3127,
        "共通ID": "E0148100019111",
        "都道府県名及び市町村名": "北海道増毛町",
        "施設・場所名": "オーベルジュましけ",
        "住所": "北海道増毛町別苅217-1",
        "指定緊急避難場所との住所同一": "1",
        "その他市町村長が必要と認める事項": "",
        "受入対象者": "",
        "備考": ""
      }
    },
    {
      "type": "Feature",
      "geometry": {
        "type": "Point",
        "coordinates": [
          141.4791,
          43.833542
        ]
      },
      "properties": {
        "NO": 3128,
        "共通ID": "E0148100020111",
        "都道府県名及び市町村名": "北海道増毛町",
        "施設・場所名": "大別苅自治会館",
        "住所": "北海道増毛町別苅96",
        "指定緊急避難場所との住所同一": "",
        "その他市町村長が必要と認める事項": "",
        "受入対象者": "",
        "備考": ""
      }
    },
    {
      "type": "Feature",
      "geometry": {
        "type": "Point",
        "coordinates": [
          141.341599,
          43.738837
        ]
      },
      "properties": {
        "NO": 3129,
        "共通ID": "E0148100021111",
        "都道府県名及び市町村名": "北海道増毛町",
        "施設・場所名": "旧雄冬自然体験館",
        "住所": "北海道増毛町雄冬218",
        "指定緊急避難場所との住所同一": "1",
        "その他市町村長が必要と認める事項": "",
        "受入対象者": "",
        "備考": ""
      }
    }
  ]
}