{
  "type": "FeatureCollection",
  "name": "014869",
  "features": [
    {
      "type": "Feature",
      "geometry": {
        "type": "Point",
        "coordinates": [
          141.799722,
          44.721161
        ]
      },
      "properties": {
        "NO": 3209,
        "共通ID": "E0148600001111",
        "都道府県名及び市町村名": "北海道遠別町",
        "施設・場所名": "遠別町スポーツセンター",
        "住所": "北海道遠別町字幸和11-61",
        "指定緊急避難場所との住所同一": "",
        "その他市町村長が必要と認める事項": null,
        "受入対象者": null,
        "備考": ""
      }
    },
    {
      "type": "Feature",
      "geometry": {
        "type": "Point",
        "coordinates": [
          141.809779,
          44.721812
        ]
      },
      "properties": {
        "NO": 3210,
        "共通ID": "E0148600002111",
        "都道府県名及び市町村名": "北海道遠別町",
        "施設・場所名": "農業振興センター",
        "住所": "北海道遠別町字幸和81",
        "指定緊急避難場所との住所同一": "1",
        "その他市町村長が必要と認める事項": null,
        "受入対象者": null,
        "備考": ""
      }
    },
    {
      "type": "Feature",
      "geometry": {
        "type": "Point",
        "coordinates": [
          141.794785,
          44.726031
        ]
      },
      "properties": {
        "NO": 3211,
        "共通ID": "E0148600003111",
        "都道府県名及び市町村名": "北海道遠別町",
        "施設・場所名": "北海道遠別農業高等学校",
        "住所": "北海道遠別町字北浜74-1",
        "指定緊急避難場所との住所同一": "1",
        "その他市町村長が必要と認める事項": null,
        "受入対象者": null,
        "備考": ""
      }
    },
    {
      "type": "Feature",
      "geometry": {
        "type": "Point",
        "coordinates": [
          141.796619,
          44.724918
        ]
      },
      "properties": {
        "NO": 3212,
        "共通ID": "E0148600004111",
        "都道府県名及び市町村名": "北海道遠別町",
        "施設・場所名": "遠別小学校",
        "住所": "北海道遠別町字本町5-15",
        "指定緊急避難場所との住所同一": "1",
        "その他市町村長が必要と認める事項": null,
        "受入対象者": null,
        "備考": ""
      }
    },
    {
      "type": "Feature",
      "geometry": {
        "type": "Point",
        "coordinates": [
          141.796727,
          44.724427
        ]
      },
      "properties": {
        "NO": 3213,
        "共通ID": "E0148600005111",
        "都道府県名及び市町村名": "北海道遠別町",
        "施設・場所名": "幼児センター",
        "住所": "北海道遠別町字本町5-15-1",
        "指定緊急避難場所との住所同一": "1",
        "その他市町村長が必要と認める事項": null,
        "受入対象者": null,
        "備考": ""
      }
    },
    {
      "type": "Feature",
      "geometry": {
        "type": "Point",
        "coordinates": [
          141.796769,
          44.724431
        ]
      },
      "properties": {
        "NO": 3214,
        "共通ID": "E0148600005121",
        "都道府県名及び市町村名": "北海道遠別町",
        "施設・場所名": "幼児センター",
        "住所": "北海道遠別町字本町5-15-1",
        "指定緊急避難場所との住所同一": "1",
        "その他市町村長が必要と認める事項": null,
        "受入対象者": "要配慮者",
        "備考": ""
      }
    }
  ]
}