{
  "type": "FeatureCollection",
  "name": "015857",
  "features": [
    {
      "type": "Feature",
      "geometry": {
        "type": "Point",
        "coordinates": [
          141.829043,
          42.815491
        ]
      },
      "properties": {
        "NO": 3839,
        "共通ID": "E0158500001111",
        "都道府県名及び市町村名": "北海道安平町",
        "施設・場所名": "安平公民館",
        "住所": "北海道安平町安平165",
        "指定緊急避難場所との住所同一": "1",
        "その他市町村長が必要と認める事項": "",
        "受入対象者": "",
        "備考": ""
      }
    },
    {
      "type": "Feature",
      "geometry": {
        "type": "Point",
        "coordinates": [
          141.830064,
          42.815473
        ]
      },
      "properties": {
        "NO": 3840,
        "共通ID": "E0158500001112",
        "都道府県名及び市町村名": "北海道安平町",
        "施設・場所名": "旧安平小学校",
        "住所": "北海道安平町安平165",
        "指定緊急避難場所との住所同一": "1",
        "その他市町村長が必要と認める事項": "",
        "受入対象者": "",
        "備考": ""
      }
    },
    {
      "type": "Feature",
      "geometry": {
        "type": "Point",
        "coordinates": [
          141.829043,
          42.815491
        ]
      },
      "properties": {
        "NO": 3841,
        "共通ID": "E0158500001121",
        "都道府県名及び市町村名": "北海道安平町",
        "施設・場所名": "安平公民館",
        "住所": "北海道安平町安平165",
        "指定緊急避難場所との住所同一": "1",
        "その他市町村長が必要と認める事項": "",
        "受入対象者": "",
        "備考": ""
      }
    },
    {
      "type": "Feature",
      "geometry": {
        "type": "Point",
        "coordinates": [
          141.774855,
          42.729126
        ]
      },
      "properties": {
        "NO": 3842,
        "共通ID": "E0158500003111",
        "都道府県名及び市町村名": "北海道安平町",
        "施設・場所名": "遠浅公民館",
        "住所": "北海道安平町遠浅125-1",
        "指定緊急避難場所との住所同一": "1",
        "その他市町村長が必要と認める事項": "",
        "受入対象者": "",
        "備考": ""
      }
    },
    {
      "type": "Feature",
      "geometry": {
        "type": "Point",
        "coordinates": [
          141.774855,
          42.729126
        ]
      },
      "properties": {
        "NO": 3843,
        "共通ID": "E0158500003121",
        "都道府県名及び市町村名": "北海道安平町",
        "施設・場所名": "遠浅公民館",
        "住所": "北海道安平町遠浅125-1",
        "指定緊急避難場所との住所同一": "1",
        "その他市町村長が必要と認める事項": "",
        "受入対象者": "",
        "備考": ""
      }
    },
    {
      "type": "Feature",
      "geometry": {
        "type": "Point",
        "coordinates": [
          141.791981,
          42.732401
        ]
      },
      "properties": {
        "NO": 3844,
        "共通ID": "E0158500005111",
        "都道府県名及び市町村名": "北海道安平町",
        "施設・場所名": "東遠浅生活会館",
        "住所": "北海道安平町遠浅508",
        "指定緊急避難場所との住所同一": "1",
        "その他市町村長が必要と認める事項": "",
        "受入対象者": "",
        "備考": ""
      }
    },
    {
      "type": "Feature",
      "geometry": {
        "type": "Point",
        "coordinates": [
          141.788352,
          42.727353
        ]
      },
      "properties": {
        "NO": 3845,
        "共通ID": "E0158500006111",
        "都道府県名及び市町村名": "北海道安平町",
        "施設・場所名": "旧遠浅小学校",
        "住所": "北海道安平町遠浅580",
        "指定緊急避難場所との住所同一": "1",
        "その他市町村長が必要と認める事項": "",
        "受入対象者": "",
        "備考": "屋内体育館"
      }
    },
    {
      "type": "Feature",
      "geometry": {
        "type": "Point",
        "coordinates": [
          141.808528,
          42.759626
        ]
      },
      "properties": {
        "NO": 3846,
        "共通ID": "E0158500007111",
        "都道府県名及び市町村名": "北海道安平町",
        "施設・場所名": "さつき会館",
        "住所": "北海道安平町早来栄町109-5",
        "指定緊急避難場所との住所同一": "1",
        "その他市町村長が必要と認める事項": "",
        "受入対象者": "",
        "備考": ""
      }
    },
    {
      "type": "Feature",
      "geometry": {
        "type": "Point",
        "coordinates": [
          141.811734,
          42.759189
        ]
      },
      "properties": {
        "NO": 3847,
        "共通ID": "E0158500008111",
        "都道府県名及び市町村名": "北海道安平町",
        "施設・場所名": "デイサービスセンター",
        "住所": "北海道安平町早来栄町133-42",
        "指定緊急避難場所との住所同一": "1",
        "その他市町村長が必要と認める事項": "",
        "受入対象者": "",
        "備考": ""
      }
    },
    {
      "type": "Feature",
      "geometry": {
        "type": "Point",
        "coordinates": [
          141.8095,
          42.726214
        ]
      },
      "properties": {
        "NO": 3848,
        "共通ID": "E0158500009111",
        "都道府県名及び市町村名": "北海道安平町",
        "施設・場所名": "源武会館",
        "住所": "北海道安平町早来源武81",
        "指定緊急避難場所との住所同一": "1",
        "その他市町村長が必要と認める事項": "",
        "受入対象者": "",
        "備考": ""
      }
    },
    {
      "type": "Feature",
      "geometry": {
        "type": "Point",
        "coordinates": [
          141.853302,
          42.784974
        ]
      },
      "properties": {
        "NO": 3849,
        "共通ID": "E0158500010111",
        "都道府県名及び市町村名": "北海道安平町",
        "施設・場所名": "守田会館",
        "住所": "北海道安平町早来守田123-2",
        "指定緊急避難場所との住所同一": "1",
        "その他市町村長が必要と認める事項": "",
        "受入対象者": "",
        "備考": ""
      }
    },
    {
      "type": "Feature",
      "geometry": {
        "type": "Point",
        "coordinates": [
          141.791806,
          42.741554
        ]
      },
      "properties": {
        "NO": 3850,
        "共通ID": "E0158500011111",
        "都道府県名及び市町村名": "北海道安平町",
        "施設・場所名": "新栄第二会館",
        "住所": "北海道安平町早来新栄164",
        "指定緊急避難場所との住所同一": "1",
        "その他市町村長が必要と認める事項": "",
        "受入対象者": "",
        "備考": ""
      }
    },
    {
      "type": "Feature",
      "geometry": {
        "type": "Point",
        "coordinates": [
          141.804134,
          42.742892
        ]
      },
      "properties": {
        "NO": 3851,
        "共通ID": "E0158500012111",
        "都道府県名及び市町村名": "北海道安平町",
        "施設・場所名": "新栄第一会館",
        "住所": "北海道安平町早来新栄312",
        "指定緊急避難場所との住所同一": "1",
        "その他市町村長が必要と認める事項": "",
        "受入対象者": "",
        "備考": ""
      }
    },
    {
      "type": "Feature",
      "geometry": {
        "type": "Point",
        "coordinates": [
          141.862693,
          42.824188
        ]
      },
      "properties": {
        "NO": 3852,
        "共通ID": "E0158500013111",
        "都道府県名及び市町村名": "北海道安平町",
        "施設・場所名": "みずほ館",
        "住所": "北海道安平町早来瑞穂1211-1",
        "指定緊急避難場所との住所同一": "1",
        "その他市町村長が必要と認める事項": "",
        "受入対象者": "",
        "備考": ""
      }
    },
    {
      "type": "Feature",
      "geometry": {
        "type": "Point",
        "coordinates": [
          141.827105,
          42.769271
        ]
      },
      "properties": {
        "NO": 3853,
        "共通ID": "E0158500016111",
        "都道府県名及び市町村名": "北海道安平町",
        "施設・場所名": "しらかば会館",
        "住所": "北海道安平町早来大町156-1",
        "指定緊急避難場所との住所同一": "1",
        "その他市町村長が必要と認める事項": "",
        "受入対象者": "",
        "備考": ""
      }
    },
    {
      "type": "Feature",
      "geometry": {
        "type": "Point",
        "coordinates": [
          141.826492,
          42.767864
        ]
      },
      "properties": {
        "NO": 3854,
        "共通ID": "E0158500053111",
        "都道府県名及び市町村名": "北海道安平町",
        "施設・場所名": "早来学園",
        "住所": "北海道安平町早来大町169-1",
        "指定緊急避難場所との住所同一": "1",
        "その他市町村長が必要と認める事項": "",
        "受入対象者": "",
        "備考": ""
      }
    },
    {
      "type": "Feature",
      "geometry": {
        "type": "Point",
        "coordinates": [
          141.77437,
          42.764468
        ]
      },
      "properties": {
        "NO": 3855,
        "共通ID": "E0158500019111",
        "都道府県名及び市町村名": "北海道安平町",
        "施設・場所名": "富岡会館",
        "住所": "北海道安平町早来富岡245-1",
        "指定緊急避難場所との住所同一": "1",
        "その他市町村長が必要と認める事項": "",
        "受入対象者": "",
        "備考": ""
      }
    },
    {
      "type": "Feature",
      "geometry": {
        "type": "Point",
        "coordinates": [
          141.822365,
          42.765419
        ]
      },
      "properties": {
        "NO": 3856,
        "共通ID": "E0158500020111",
        "都道府県名及び市町村名": "北海道安平町",
        "施設・場所名": "町民センター",
        "住所": "北海道安平町早来北進102-4",
        "指定緊急避難場所との住所同一": "1",
        "その他市町村長が必要と認める事項": "",
        "受入対象者": "",
        "備考": ""
      }
    },
    {
      "type": "Feature",
      "geometry": {
        "type": "Point",
        "coordinates": [
          141.822365,
          42.765419
        ]
      },
      "properties": {
        "NO": 3857,
        "共通ID": "E0158500020121",
        "都道府県名及び市町村名": "北海道安平町",
        "施設・場所名": "町民センター",
        "住所": "北海道安平町早来北進102-4",
        "指定緊急避難場所との住所同一": "1",
        "その他市町村長が必要と認める事項": "",
        "受入対象者": "",
        "備考": ""
      }
    },
    {
      "type": "Feature",
      "geometry": {
        "type": "Point",
        "coordinates": [
          141.831594,
          42.772061
        ]
      },
      "properties": {
        "NO": 3858,
        "共通ID": "E0158500021111",
        "都道府県名及び市町村名": "北海道安平町",
        "施設・場所名": "北進会館",
        "住所": "北海道安平町早来北進85-5",
        "指定緊急避難場所との住所同一": "1",
        "その他市町村長が必要と認める事項": "",
        "受入対象者": "",
        "備考": ""
      }
    },
    {
      "type": "Feature",
      "geometry": {
        "type": "Point",
        "coordinates": [
          141.805731,
          42.761941
        ]
      },
      "properties": {
        "NO": 3859,
        "共通ID": "E0158500023111",
        "都道府県名及び市町村名": "北海道安平町",
        "施設・場所名": "北町会館",
        "住所": "北海道安平町早来北町51-2",
        "指定緊急避難場所との住所同一": "1",
        "その他市町村長が必要と認める事項": "",
        "受入対象者": "",
        "備考": ""
      }
    },
    {
      "type": "Feature",
      "geometry": {
        "type": "Point",
        "coordinates": [
          141.860372,
          42.803298
        ]
      },
      "properties": {
        "NO": 3860,
        "共通ID": "E0158500024111",
        "都道府県名及び市町村名": "北海道安平町",
        "施設・場所名": "緑丘会館",
        "住所": "北海道安平町早来緑丘80-7",
        "指定緊急避難場所との住所同一": "1",
        "その他市町村長が必要と認める事項": "",
        "受入対象者": "",
        "備考": ""
      }
    },
    {
      "type": "Feature",
      "geometry": {
        "type": "Point",
        "coordinates": [
          141.857155,
          42.901877
        ]
      },
      "properties": {
        "NO": 3861,
        "共通ID": "E0158500026111",
        "都道府県名及び市町村名": "北海道安平町",
        "施設・場所名": "旭陽会館",
        "住所": "北海道安平町追分向陽865",
        "指定緊急避難場所との住所同一": "1",
        "その他市町村長が必要と認める事項": "",
        "受入対象者": "",
        "備考": ""
      }
    },
    {
      "type": "Feature",
      "geometry": {
        "type": "Point",
        "coordinates": [
          141.817792,
          42.866381
        ]
      },
      "properties": {
        "NO": 3862,
        "共通ID": "E0158500027111",
        "都道府県名及び市町村名": "北海道安平町",
        "施設・場所名": "花園若草会館",
        "住所": "北海道安平町追分若草1-35",
        "指定緊急避難場所との住所同一": "1",
        "その他市町村長が必要と認める事項": "",
        "受入対象者": "",
        "備考": ""
      }
    },
    {
      "type": "Feature",
      "geometry": {
        "type": "Point",
        "coordinates": [
          141.810659,
          42.874985
        ]
      },
      "properties": {
        "NO": 3863,
        "共通ID": "E0158500031111",
        "都道府県名及び市町村名": "北海道安平町",
        "施設・場所名": "ぬくもりセンター",
        "住所": "北海道安平町追分中央1-40",
        "指定緊急避難場所との住所同一": "1",
        "その他市町村長が必要と認める事項": "",
        "受入対象者": "",
        "備考": ""
      }
    },
    {
      "type": "Feature",
      "geometry": {
        "type": "Point",
        "coordinates": [
          141.809344,
          42.878452
        ]
      },
      "properties": {
        "NO": 3864,
        "共通ID": "E0158500032111",
        "都道府県名及び市町村名": "北海道安平町",
        "施設・場所名": "多目的スポーツセンター",
        "住所": "北海道安平町追分中央1-49",
        "指定緊急避難場所との住所同一": "1",
        "その他市町村長が必要と認める事項": "",
        "受入対象者": "",
        "備考": ""
      }
    },
    {
      "type": "Feature",
      "geometry": {
        "type": "Point",
        "coordinates": [
          141.816255,
          42.874737
        ]
      },
      "properties": {
        "NO": 3865,
        "共通ID": "E0158500033111",
        "都道府県名及び市町村名": "北海道安平町",
        "施設・場所名": "追分小学校",
        "住所": "北海道安平町追分柏が丘22",
        "指定緊急避難場所との住所同一": "1",
        "その他市町村長が必要と認める事項": "",
        "受入対象者": "",
        "備考": ""
      }
    },
    {
      "type": "Feature",
      "geometry": {
        "type": "Point",
        "coordinates": [
          141.805104,
          42.876581
        ]
      },
      "properties": {
        "NO": 3866,
        "共通ID": "E0158500039111",
        "都道府県名及び市町村名": "北海道安平町",
        "施設・場所名": "青葉会館",
        "住所": "北海道安平町追分白樺2-3-1",
        "指定緊急避難場所との住所同一": "1",
        "その他市町村長が必要と認める事項": "",
        "受入対象者": "",
        "備考": ""
      }
    },
    {
      "type": "Feature",
      "geometry": {
        "type": "Point",
        "coordinates": [
          141.81416,
          42.88698
        ]
      },
      "properties": {
        "NO": 3867,
        "共通ID": "E0158500041111",
        "都道府県名及び市町村名": "北海道安平町",
        "施設・場所名": "農村文化センター",
        "住所": "北海道安平町追分美園161",
        "指定緊急避難場所との住所同一": "1",
        "その他市町村長が必要と認める事項": null,
        "受入対象者": null,
        "備考": ""
      }
    },
    {
      "type": "Feature",
      "geometry": {
        "type": "Point",
        "coordinates": [
          141.817749,
          42.850205
        ]
      },
      "properties": {
        "NO": 3868,
        "共通ID": "E0158500042111",
        "都道府県名及び市町村名": "北海道安平町",
        "施設・場所名": "豊栄会館",
        "住所": "北海道安平町追分豊栄563",
        "指定緊急避難場所との住所同一": "1",
        "その他市町村長が必要と認める事項": "",
        "受入対象者": "",
        "備考": ""
      }
    },
    {
      "type": "Feature",
      "geometry": {
        "type": "Point",
        "coordinates": [
          141.813924,
          42.874761
        ]
      },
      "properties": {
        "NO": 3869,
        "共通ID": "E0158500043111",
        "都道府県名及び市町村名": "北海道安平町",
        "施設・場所名": "憩の家",
        "住所": "北海道安平町追分本町3-64",
        "指定緊急避難場所との住所同一": "1",
        "その他市町村長が必要と認める事項": "",
        "受入対象者": "",
        "備考": ""
      }
    },
    {
      "type": "Feature",
      "geometry": {
        "type": "Point",
        "coordinates": [
          141.812698,
          42.872393
        ]
      },
      "properties": {
        "NO": 3870,
        "共通ID": "E0158500044111",
        "都道府県名及び市町村名": "北海道安平町",
        "施設・場所名": "ふれあいセンターい・ぶ・き",
        "住所": "北海道安平町追分本町5-7",
        "指定緊急避難場所との住所同一": "1",
        "その他市町村長が必要と認める事項": "",
        "受入対象者": "",
        "備考": ""
      }
    },
    {
      "type": "Feature",
      "geometry": {
        "type": "Point",
        "coordinates": [
          141.815527,
          42.871962
        ]
      },
      "properties": {
        "NO": 3871,
        "共通ID": "E0158500045111",
        "都道府県名及び市町村名": "北海道安平町",
        "施設・場所名": "追分中学校",
        "住所": "北海道安平町追分本町6-56",
        "指定緊急避難場所との住所同一": "1",
        "その他市町村長が必要と認める事項": "",
        "受入対象者": "",
        "備考": ""
      }
    },
    {
      "type": "Feature",
      "geometry": {
        "type": "Point",
        "coordinates": [
          141.81612,
          42.872295
        ]
      },
      "properties": {
        "NO": 3872,
        "共通ID": "E0158500046111",
        "都道府県名及び市町村名": "北海道安平町",
        "施設・場所名": "労働会館",
        "住所": "北海道安平町追分本町7-3",
        "指定緊急避難場所との住所同一": "1",
        "その他市町村長が必要と認める事項": "",
        "受入対象者": "",
        "備考": "2階以上"
      }
    },
    {
      "type": "Feature",
      "geometry": {
        "type": "Point",
        "coordinates": [
          141.817748,
          42.871197
        ]
      },
      "properties": {
        "NO": 3873,
        "共通ID": "E0158500047111",
        "都道府県名及び市町村名": "北海道安平町",
        "施設・場所名": "追分高等学校",
        "住所": "北海道安平町追分本町7-8",
        "指定緊急避難場所との住所同一": "1",
        "その他市町村長が必要と認める事項": "",
        "受入対象者": "",
        "備考": ""
      }
    },
    {
      "type": "Feature",
      "geometry": {
        "type": "Point",
        "coordinates": [
          141.837489,
          42.843061
        ]
      },
      "properties": {
        "NO": 3874,
        "共通ID": "E0158500048111",
        "都道府県名及び市町村名": "北海道安平町",
        "施設・場所名": "明春辺会館",
        "住所": "北海道安平町追分弥生496",
        "指定緊急避難場所との住所同一": "1",
        "その他市町村長が必要と認める事項": "",
        "受入対象者": "",
        "備考": ""
      }
    },
    {
      "type": "Feature",
      "geometry": {
        "type": "Point",
        "coordinates": [
          141.81391,
          42.87824
        ]
      },
      "properties": {
        "NO": 3875,
        "共通ID": "E0158500049111",
        "都道府県名及び市町村名": "北海道安平町",
        "施設・場所名": "追分公民館",
        "住所": "北海道安平町追分緑が丘200-2",
        "指定緊急避難場所との住所同一": "1",
        "その他市町村長が必要と認める事項": "",
        "受入対象者": "",
        "備考": ""
      }
    },
    {
      "type": "Feature",
      "geometry": {
        "type": "Point",
        "coordinates": [
          141.81391,
          42.87824
        ]
      },
      "properties": {
        "NO": 3876,
        "共通ID": "E0158500049121",
        "都道府県名及び市町村名": "北海道安平町",
        "施設・場所名": "追分公民館",
        "住所": "北海道安平町追分緑が丘200-2",
        "指定緊急避難場所との住所同一": "1",
        "その他市町村長が必要と認める事項": "",
        "受入対象者": "",
        "備考": ""
      }
    },
    {
      "type": "Feature",
      "geometry": {
        "type": "Point",
        "coordinates": [
          141.82219,
          42.781234
        ]
      },
      "properties": {
        "NO": 3877,
        "共通ID": "E0158500051111",
        "都道府県名及び市町村名": "北海道安平町",
        "施設・場所名": "東早来会館",
        "住所": "北海道安平町東早来109-2",
        "指定緊急避難場所との住所同一": "1",
        "その他市町村長が必要と認める事項": "",
        "受入対象者": "",
        "備考": ""
      }
    }
  ]
}