{
  "type": "FeatureCollection",
  "name": "016314",
  "features": [
    {
      "type": "Feature",
      "geometry": {
        "type": "Point",
        "coordinates": [
          143.184222,
          42.9549
        ]
      },
      "properties": {
        "NO": 4162,
        "共通ID": "E0163100001111",
        "都道府県名及び市町村名": "北海道音更町",
        "施設・場所名": "鈴蘭小学校",
        "住所": "北海道音更町すずらん台北町2-1",
        "指定緊急避難場所との住所同一": "1",
        "その他市町村長が必要と認める事項": "",
        "受入対象者": "",
        "備考": ""
      }
    },
    {
      "type": "Feature",
      "geometry": {
        "type": "Point",
        "coordinates": [
          143.184222,
          42.9549
        ]
      },
      "properties": {
        "NO": 4163,
        "共通ID": "E0163100001121",
        "都道府県名及び市町村名": "北海道音更町",
        "施設・場所名": "鈴蘭小学校",
        "住所": "北海道音更町すずらん台北町2-1",
        "指定緊急避難場所との住所同一": "1",
        "その他市町村長が必要と認める事項": "",
        "受入対象者": "要配慮者",
        "備考": ""
      }
    },
    {
      "type": "Feature",
      "geometry": {
        "type": "Point",
        "coordinates": [
          143.181469,
          42.975273
        ]
      },
      "properties": {
        "NO": 4164,
        "共通ID": "E0163100042111",
        "都道府県名及び市町村名": "北海道音更町",
        "施設・場所名": "道の駅おとふけ",
        "住所": "北海道音更町なつぞら2",
        "指定緊急避難場所との住所同一": "1",
        "その他市町村長が必要と認める事項": "",
        "受入対象者": "",
        "備考": ""
      }
    },
    {
      "type": "Feature",
      "geometry": {
        "type": "Point",
        "coordinates": [
          143.195703,
          42.98983
        ]
      },
      "properties": {
        "NO": 4165,
        "共通ID": "E0163100047121",
        "都道府県名及び市町村名": "北海道音更町",
        "施設・場所名": "帯広大谷短期大学",
        "住所": "北海道音更町希望が丘3-3",
        "指定緊急避難場所との住所同一": "",
        "その他市町村長が必要と認める事項": "",
        "受入対象者": "要配慮者",
        "備考": ""
      }
    },
    {
      "type": "Feature",
      "geometry": {
        "type": "Point",
        "coordinates": [
          143.185863,
          43.042374
        ]
      },
      "properties": {
        "NO": 4166,
        "共通ID": "E0163100004121",
        "都道府県名及び市町村名": "北海道音更町",
        "施設・場所名": "駒場中学校",
        "住所": "北海道音更町駒場南1",
        "指定緊急避難場所との住所同一": "1",
        "その他市町村長が必要と認める事項": "",
        "受入対象者": "要配慮者",
        "備考": ""
      }
    },
    {
      "type": "Feature",
      "geometry": {
        "type": "Point",
        "coordinates": [
          143.185863,
          43.042374
        ]
      },
      "properties": {
        "NO": 4167,
        "共通ID": "E0163100004111",
        "都道府県名及び市町村名": "北海道音更町",
        "施設・場所名": "駒場中学校",
        "住所": "北海道音更町駒場南1",
        "指定緊急避難場所との住所同一": "1",
        "その他市町村長が必要と認める事項": "",
        "受入対象者": "",
        "備考": ""
      }
    },
    {
      "type": "Feature",
      "geometry": {
        "type": "Point",
        "coordinates": [
          143.182556,
          43.052126
        ]
      },
      "properties": {
        "NO": 4168,
        "共通ID": "E0163100005121",
        "都道府県名及び市町村名": "北海道音更町",
        "施設・場所名": "駒場小学校",
        "住所": "北海道音更町駒場北町2",
        "指定緊急避難場所との住所同一": "1",
        "その他市町村長が必要と認める事項": "",
        "受入対象者": "要配慮者",
        "備考": ""
      }
    },
    {
      "type": "Feature",
      "geometry": {
        "type": "Point",
        "coordinates": [
          143.182556,
          43.052126
        ]
      },
      "properties": {
        "NO": 4169,
        "共通ID": "E0163100005111",
        "都道府県名及び市町村名": "北海道音更町",
        "施設・場所名": "駒場小学校",
        "住所": "北海道音更町駒場北町2",
        "指定緊急避難場所との住所同一": "1",
        "その他市町村長が必要と認める事項": "",
        "受入対象者": "",
        "備考": ""
      }
    },
    {
      "type": "Feature",
      "geometry": {
        "type": "Point",
        "coordinates": [
          143.197001,
          42.995603
        ]
      },
      "properties": {
        "NO": 4170,
        "共通ID": "E0163100006121",
        "都道府県名及び市町村名": "北海道音更町",
        "施設・場所名": "音更小学校",
        "住所": "北海道音更町元町1",
        "指定緊急避難場所との住所同一": "1",
        "その他市町村長が必要と認める事項": "",
        "受入対象者": "要配慮者",
        "備考": ""
      }
    },
    {
      "type": "Feature",
      "geometry": {
        "type": "Point",
        "coordinates": [
          143.197001,
          42.995603
        ]
      },
      "properties": {
        "NO": 4171,
        "共通ID": "E0163100006111",
        "都道府県名及び市町村名": "北海道音更町",
        "施設・場所名": "音更小学校",
        "住所": "北海道音更町元町1",
        "指定緊急避難場所との住所同一": "1",
        "その他市町村長が必要と認める事項": "",
        "受入対象者": "",
        "備考": ""
      }
    },
    {
      "type": "Feature",
      "geometry": {
        "type": "Point",
        "coordinates": [
          143.191044,
          42.967903
        ]
      },
      "properties": {
        "NO": 4172,
        "共通ID": "E0163100007121",
        "都道府県名及び市町村名": "北海道音更町",
        "施設・場所名": "緑陽台小学校",
        "住所": "北海道音更町字下音更北７線西7",
        "指定緊急避難場所との住所同一": "1",
        "その他市町村長が必要と認める事項": "",
        "受入対象者": "要配慮者",
        "備考": ""
      }
    },
    {
      "type": "Feature",
      "geometry": {
        "type": "Point",
        "coordinates": [
          143.191044,
          42.967903
        ]
      },
      "properties": {
        "NO": 4173,
        "共通ID": "E0163100007111",
        "都道府県名及び市町村名": "北海道音更町",
        "施設・場所名": "緑陽台小学校",
        "住所": "北海道音更町字下音更北７線西7",
        "指定緊急避難場所との住所同一": "1",
        "その他市町村長が必要と認める事項": "",
        "受入対象者": "",
        "備考": ""
      }
    },
    {
      "type": "Feature",
      "geometry": {
        "type": "Point",
        "coordinates": [
          143.231471,
          42.94494
        ]
      },
      "properties": {
        "NO": 4174,
        "共通ID": "E0163100008121",
        "都道府県名及び市町村名": "北海道音更町",
        "施設・場所名": "緑南中学校",
        "住所": "北海道音更町字下士幌北２線東25",
        "指定緊急避難場所との住所同一": "1",
        "その他市町村長が必要と認める事項": "",
        "受入対象者": "要配慮者",
        "備考": ""
      }
    },
    {
      "type": "Feature",
      "geometry": {
        "type": "Point",
        "coordinates": [
          143.231471,
          42.94494
        ]
      },
      "properties": {
        "NO": 4175,
        "共通ID": "E0163100008111",
        "都道府県名及び市町村名": "北海道音更町",
        "施設・場所名": "緑南中学校",
        "住所": "北海道音更町字下士幌北２線東25",
        "指定緊急避難場所との住所同一": "1",
        "その他市町村長が必要と認める事項": "",
        "受入対象者": "",
        "備考": ""
      }
    },
    {
      "type": "Feature",
      "geometry": {
        "type": "Point",
        "coordinates": [
          143.260102,
          42.947537
        ]
      },
      "properties": {
        "NO": 4176,
        "共通ID": "E0163100009121",
        "都道府県名及び市町村名": "北海道音更町",
        "施設・場所名": "下士幌小学校",
        "住所": "北海道音更町字下士幌北２線東51",
        "指定緊急避難場所との住所同一": "1",
        "その他市町村長が必要と認める事項": "",
        "受入対象者": "要配慮者",
        "備考": ""
      }
    },
    {
      "type": "Feature",
      "geometry": {
        "type": "Point",
        "coordinates": [
          143.260102,
          42.947537
        ]
      },
      "properties": {
        "NO": 4177,
        "共通ID": "E0163100009111",
        "都道府県名及び市町村名": "北海道音更町",
        "施設・場所名": "下士幌小学校",
        "住所": "北海道音更町字下士幌北２線東51",
        "指定緊急避難場所との住所同一": "1",
        "その他市町村長が必要と認める事項": "",
        "受入対象者": "",
        "備考": ""
      }
    },
    {
      "type": "Feature",
      "geometry": {
        "type": "Point",
        "coordinates": [
          143.097608,
          43.051161
        ]
      },
      "properties": {
        "NO": 4178,
        "共通ID": "E0163100010111",
        "都道府県名及び市町村名": "北海道音更町",
        "施設・場所名": "集団研修施設",
        "住所": "北海道音更町字上然別西４線98",
        "指定緊急避難場所との住所同一": "1",
        "その他市町村長が必要と認める事項": "",
        "受入対象者": "",
        "備考": ""
      }
    },
    {
      "type": "Feature",
      "geometry": {
        "type": "Point",
        "coordinates": [
          143.097608,
          43.051161
        ]
      },
      "properties": {
        "NO": 4179,
        "共通ID": "E0163100010121",
        "都道府県名及び市町村名": "北海道音更町",
        "施設・場所名": "集団研修施設",
        "住所": "北海道音更町字上然別西４線98",
        "指定緊急避難場所との住所同一": "1",
        "その他市町村長が必要と認める事項": "",
        "受入対象者": "要配慮者",
        "備考": ""
      }
    },
    {
      "type": "Feature",
      "geometry": {
        "type": "Point",
        "coordinates": [
          143.098195,
          43.137336
        ]
      },
      "properties": {
        "NO": 4180,
        "共通ID": "E0163100011111",
        "都道府県名及び市町村名": "北海道音更町",
        "施設・場所名": "西中音更小学校",
        "住所": "北海道音更町字西中音更北１５線7",
        "指定緊急避難場所との住所同一": "1",
        "その他市町村長が必要と認める事項": "",
        "受入対象者": "",
        "備考": ""
      }
    },
    {
      "type": "Feature",
      "geometry": {
        "type": "Point",
        "coordinates": [
          143.098195,
          43.137336
        ]
      },
      "properties": {
        "NO": 4181,
        "共通ID": "E0163100011121",
        "都道府県名及び市町村名": "北海道音更町",
        "施設・場所名": "西中音更小学校",
        "住所": "北海道音更町字西中音更北１５線7",
        "指定緊急避難場所との住所同一": "1",
        "その他市町村長が必要と認める事項": "",
        "受入対象者": "要配慮者",
        "備考": ""
      }
    },
    {
      "type": "Feature",
      "geometry": {
        "type": "Point",
        "coordinates": [
          143.148706,
          42.968907
        ]
      },
      "properties": {
        "NO": 4182,
        "共通ID": "E0163100012111",
        "都道府県名及び市町村名": "北海道音更町",
        "施設・場所名": "然別公民館",
        "住所": "北海道音更町字然別北８線西45",
        "指定緊急避難場所との住所同一": "1",
        "その他市町村長が必要と認める事項": "",
        "受入対象者": "",
        "備考": ""
      }
    },
    {
      "type": "Feature",
      "geometry": {
        "type": "Point",
        "coordinates": [
          143.177703,
          43.122085
        ]
      },
      "properties": {
        "NO": 4183,
        "共通ID": "E0163100013111",
        "都道府県名及び市町村名": "北海道音更町",
        "施設・場所名": "中音更会館",
        "住所": "北海道音更町字中音更西３線6",
        "指定緊急避難場所との住所同一": "1",
        "その他市町村長が必要と認める事項": "",
        "受入対象者": "",
        "備考": ""
      }
    },
    {
      "type": "Feature",
      "geometry": {
        "type": "Point",
        "coordinates": [
          143.319215,
          42.994338
        ]
      },
      "properties": {
        "NO": 4184,
        "共通ID": "E0163100014111",
        "都道府県名及び市町村名": "北海道音更町",
        "施設・場所名": "長流枝寿の家",
        "住所": "北海道音更町字長流枝幹線70",
        "指定緊急避難場所との住所同一": "1",
        "その他市町村長が必要と認める事項": "",
        "受入対象者": "",
        "備考": ""
      }
    },
    {
      "type": "Feature",
      "geometry": {
        "type": "Point",
        "coordinates": [
          143.221127,
          43.05541
        ]
      },
      "properties": {
        "NO": 4185,
        "共通ID": "E0163100015111",
        "都道府県名及び市町村名": "北海道音更町",
        "施設・場所名": "教育支援センター",
        "住所": "北海道音更町字東音更西２線25",
        "指定緊急避難場所との住所同一": "1",
        "その他市町村長が必要と認める事項": "",
        "受入対象者": "",
        "備考": ""
      }
    },
    {
      "type": "Feature",
      "geometry": {
        "type": "Point",
        "coordinates": [
          143.260039,
          43.042678
        ]
      },
      "properties": {
        "NO": 4186,
        "共通ID": "E0163100016121",
        "都道府県名及び市町村名": "北海道音更町",
        "施設・場所名": "東士幌小学校",
        "住所": "北海道音更町字東音更東４線15",
        "指定緊急避難場所との住所同一": "1",
        "その他市町村長が必要と認める事項": "",
        "受入対象者": "要配慮者",
        "備考": ""
      }
    },
    {
      "type": "Feature",
      "geometry": {
        "type": "Point",
        "coordinates": [
          143.260039,
          43.042678
        ]
      },
      "properties": {
        "NO": 4187,
        "共通ID": "E0163100016111",
        "都道府県名及び市町村名": "北海道音更町",
        "施設・場所名": "東士幌小学校",
        "住所": "北海道音更町字東音更東４線15",
        "指定緊急避難場所との住所同一": "1",
        "その他市町村長が必要と認める事項": "",
        "受入対象者": "",
        "備考": ""
      }
    },
    {
      "type": "Feature",
      "geometry": {
        "type": "Point",
        "coordinates": [
          143.147466,
          43.016526
        ]
      },
      "properties": {
        "NO": 4188,
        "共通ID": "E0163100017111",
        "都道府県名及び市町村名": "北海道音更町",
        "施設・場所名": "東士狩小学校",
        "住所": "北海道音更町字東士狩西７線52",
        "指定緊急避難場所との住所同一": "1",
        "その他市町村長が必要と認める事項": "",
        "受入対象者": "",
        "備考": ""
      }
    },
    {
      "type": "Feature",
      "geometry": {
        "type": "Point",
        "coordinates": [
          143.147466,
          43.016526
        ]
      },
      "properties": {
        "NO": 4189,
        "共通ID": "E0163100017121",
        "都道府県名及び市町村名": "北海道音更町",
        "施設・場所名": "東士狩小学校",
        "住所": "北海道音更町字東士狩西７線52",
        "指定緊急避難場所との住所同一": "1",
        "その他市町村長が必要と認める事項": "",
        "受入対象者": "要配慮者",
        "備考": ""
      }
    },
    {
      "type": "Feature",
      "geometry": {
        "type": "Point",
        "coordinates": [
          143.219666,
          43.022884
        ]
      },
      "properties": {
        "NO": 4190,
        "共通ID": "E0163100018111",
        "都道府県名及び市町村名": "北海道音更町",
        "施設・場所名": "共和地域会館",
        "住所": "北海道音更町字東和西２線54",
        "指定緊急避難場所との住所同一": "1",
        "その他市町村長が必要と認める事項": "",
        "受入対象者": "",
        "備考": ""
      }
    },
    {
      "type": "Feature",
      "geometry": {
        "type": "Point",
        "coordinates": [
          143.242207,
          42.995774
        ]
      },
      "properties": {
        "NO": 4191,
        "共通ID": "E0163100019111",
        "都道府県名及び市町村名": "北海道音更町",
        "施設・場所名": "昭和公民館（旧昭和小学校）",
        "住所": "北海道音更町字東和東１線19",
        "指定緊急避難場所との住所同一": "1",
        "その他市町村長が必要と認める事項": "",
        "受入対象者": "",
        "備考": ""
      }
    },
    {
      "type": "Feature",
      "geometry": {
        "type": "Point",
        "coordinates": [
          143.242156,
          42.995773
        ]
      },
      "properties": {
        "NO": 4192,
        "共通ID": "E0163100019121",
        "都道府県名及び市町村名": "北海道音更町",
        "施設・場所名": "昭和公民館（旧昭和小学校）",
        "住所": "北海道音更町字東和東１線19",
        "指定緊急避難場所との住所同一": "1",
        "その他市町村長が必要と認める事項": "",
        "受入対象者": "要配慮者",
        "備考": ""
      }
    },
    {
      "type": "Feature",
      "geometry": {
        "type": "Point",
        "coordinates": [
          143.076035,
          43.088423
        ]
      },
      "properties": {
        "NO": 4193,
        "共通ID": "E0163100020121",
        "都道府県名及び市町村名": "北海道音更町",
        "施設・場所名": "南中音更公民館（旧南中音更小学校）",
        "住所": "北海道音更町字南中音更北４線8",
        "指定緊急避難場所との住所同一": "1",
        "その他市町村長が必要と認める事項": "",
        "受入対象者": "要配慮者",
        "備考": ""
      }
    },
    {
      "type": "Feature",
      "geometry": {
        "type": "Point",
        "coordinates": [
          143.076035,
          43.088423
        ]
      },
      "properties": {
        "NO": 4194,
        "共通ID": "E0163100020111",
        "都道府県名及び市町村名": "北海道音更町",
        "施設・場所名": "南中音更公民館（旧南中音更小学校）",
        "住所": "北海道音更町字南中音更北４線8",
        "指定緊急避難場所との住所同一": "1",
        "その他市町村長が必要と認める事項": "",
        "受入対象者": "",
        "備考": ""
      }
    },
    {
      "type": "Feature",
      "geometry": {
        "type": "Point",
        "coordinates": [
          143.273396,
          43.093756
        ]
      },
      "properties": {
        "NO": 4195,
        "共通ID": "E0163100021111",
        "都道府県名及び市町村名": "北海道音更町",
        "施設・場所名": "豊田公民館",
        "住所": "北海道音更町字豊田東４線27",
        "指定緊急避難場所との住所同一": "1",
        "その他市町村長が必要と認める事項": "",
        "受入対象者": "",
        "備考": ""
      }
    },
    {
      "type": "Feature",
      "geometry": {
        "type": "Point",
        "coordinates": [
          143.273457,
          43.093747
        ]
      },
      "properties": {
        "NO": 4196,
        "共通ID": "E0163100021121",
        "都道府県名及び市町村名": "北海道音更町",
        "施設・場所名": "豊田公民館",
        "住所": "北海道音更町字豊田東４線27",
        "指定緊急避難場所との住所同一": "1",
        "その他市町村長が必要と認める事項": "",
        "受入対象者": "要配慮者",
        "備考": ""
      }
    },
    {
      "type": "Feature",
      "geometry": {
        "type": "Point",
        "coordinates": [
          143.296958,
          42.932841
        ]
      },
      "properties": {
        "NO": 4197,
        "共通ID": "E0163100051121",
        "都道府県名及び市町村名": "北海道音更町",
        "施設・場所名": "第一ホテル豊洲亭・豆陽亭",
        "住所": "北海道音更町十勝川温泉南12",
        "指定緊急避難場所との住所同一": "",
        "その他市町村長が必要と認める事項": "",
        "受入対象者": "要配慮者及びその支援者",
        "備考": ""
      }
    },
    {
      "type": "Feature",
      "geometry": {
        "type": "Point",
        "coordinates": [
          143.299668,
          42.930401
        ]
      },
      "properties": {
        "NO": 4198,
        "共通ID": "E0163100049121",
        "都道府県名及び市町村名": "北海道音更町",
        "施設・場所名": "観月苑",
        "住所": "北海道音更町十勝川温泉南14-2",
        "指定緊急避難場所との住所同一": "",
        "その他市町村長が必要と認める事項": "",
        "受入対象者": "要配慮者及びその支援者",
        "備考": ""
      }
    },
    {
      "type": "Feature",
      "geometry": {
        "type": "Point",
        "coordinates": [
          143.30304,
          42.931017
        ]
      },
      "properties": {
        "NO": 4199,
        "共通ID": "E0163100052121",
        "都道府県名及び市町村名": "北海道音更町",
        "施設・場所名": "ホテル大平原",
        "住所": "北海道音更町十勝川温泉南15-1",
        "指定緊急避難場所との住所同一": "",
        "その他市町村長が必要と認める事項": "",
        "受入対象者": "要配慮者及びその支援者",
        "備考": ""
      }
    },
    {
      "type": "Feature",
      "geometry": {
        "type": "Point",
        "coordinates": [
          143.299788,
          42.935684
        ]
      },
      "properties": {
        "NO": 4200,
        "共通ID": "E0163100022111",
        "都道府県名及び市町村名": "北海道音更町",
        "施設・場所名": "十勝川温泉湯の里会館",
        "住所": "北海道音更町十勝川温泉北14-2",
        "指定緊急避難場所との住所同一": "1",
        "その他市町村長が必要と認める事項": "",
        "受入対象者": "",
        "備考": ""
      }
    },
    {
      "type": "Feature",
      "geometry": {
        "type": "Point",
        "coordinates": [
          143.299788,
          42.935684
        ]
      },
      "properties": {
        "NO": 4201,
        "共通ID": "E0163100022121",
        "都道府県名及び市町村名": "北海道音更町",
        "施設・場所名": "十勝川温泉湯の里会館",
        "住所": "北海道音更町十勝川温泉北14-2",
        "指定緊急避難場所との住所同一": "1",
        "その他市町村長が必要と認める事項": "",
        "受入対象者": "要配慮者",
        "備考": ""
      }
    },
    {
      "type": "Feature",
      "geometry": {
        "type": "Point",
        "coordinates": [
          143.302547,
          42.933211
        ]
      },
      "properties": {
        "NO": 4202,
        "共通ID": "E0163100050121",
        "都道府県名及び市町村名": "北海道音更町",
        "施設・場所名": "笹井ホテル",
        "住所": "北海道音更町十勝川温泉北15-1",
        "指定緊急避難場所との住所同一": "",
        "その他市町村長が必要と認める事項": "",
        "受入対象者": "要配慮者及びその支援者",
        "備考": ""
      }
    },
    {
      "type": "Feature",
      "geometry": {
        "type": "Point",
        "coordinates": [
          143.206405,
          42.977828
        ]
      },
      "properties": {
        "NO": 4203,
        "共通ID": "E0163100023111",
        "都道府県名及び市町村名": "北海道音更町",
        "施設・場所名": "開進生活館",
        "住所": "北海道音更町新通20-1",
        "指定緊急避難場所との住所同一": "1",
        "その他市町村長が必要と認める事項": "",
        "受入対象者": "",
        "備考": ""
      }
    },
    {
      "type": "Feature",
      "geometry": {
        "type": "Point",
        "coordinates": [
          143.203778,
          42.996133
        ]
      },
      "properties": {
        "NO": 4204,
        "共通ID": "E0163100024121",
        "都道府県名及び市町村名": "北海道音更町",
        "施設・場所名": "保健センター",
        "住所": "北海道音更町新通8-5",
        "指定緊急避難場所との住所同一": "",
        "その他市町村長が必要と認める事項": "",
        "受入対象者": "要配慮者",
        "備考": ""
      }
    },
    {
      "type": "Feature",
      "geometry": {
        "type": "Point",
        "coordinates": [
          143.202149,
          42.992651
        ]
      },
      "properties": {
        "NO": 4205,
        "共通ID": "E0163100025121",
        "都道府県名及び市町村名": "北海道音更町",
        "施設・場所名": "総合福祉センター",
        "住所": "北海道音更町大通11-1",
        "指定緊急避難場所との住所同一": "",
        "その他市町村長が必要と認める事項": "",
        "受入対象者": "要配慮者",
        "備考": ""
      }
    },
    {
      "type": "Feature",
      "geometry": {
        "type": "Point",
        "coordinates": [
          143.194963,
          42.95407
        ]
      },
      "properties": {
        "NO": 4206,
        "共通ID": "E0163100026111",
        "都道府県名及び市町村名": "北海道音更町",
        "施設・場所名": "下音更中学校",
        "住所": "北海道音更町中鈴蘭南1-4",
        "指定緊急避難場所との住所同一": "1",
        "その他市町村長が必要と認める事項": "",
        "受入対象者": "",
        "備考": ""
      }
    },
    {
      "type": "Feature",
      "geometry": {
        "type": "Point",
        "coordinates": [
          143.194963,
          42.95407
        ]
      },
      "properties": {
        "NO": 4207,
        "共通ID": "E0163100026121",
        "都道府県名及び市町村名": "北海道音更町",
        "施設・場所名": "下音更中学校",
        "住所": "北海道音更町中鈴蘭南1-4",
        "指定緊急避難場所との住所同一": "1",
        "その他市町村長が必要と認める事項": "",
        "受入対象者": "要配慮者",
        "備考": ""
      }
    },
    {
      "type": "Feature",
      "geometry": {
        "type": "Point",
        "coordinates": [
          143.19349,
          43.003672
        ]
      },
      "properties": {
        "NO": 4208,
        "共通ID": "E0163100027121",
        "都道府県名及び市町村名": "北海道音更町",
        "施設・場所名": "特別養護老人ホーム寿楽園",
        "住所": "北海道音更町柏寿台1",
        "指定緊急避難場所との住所同一": "",
        "その他市町村長が必要と認める事項": "",
        "受入対象者": "要配慮者",
        "備考": ""
      }
    },
    {
      "type": "Feature",
      "geometry": {
        "type": "Point",
        "coordinates": [
          143.201935,
          42.958845
        ]
      },
      "properties": {
        "NO": 4209,
        "共通ID": "E0163100028111",
        "都道府県名及び市町村名": "北海道音更町",
        "施設・場所名": "下音更小学校",
        "住所": "北海道音更町木野西通12-8",
        "指定緊急避難場所との住所同一": "1",
        "その他市町村長が必要と認める事項": "",
        "受入対象者": "",
        "備考": ""
      }
    },
    {
      "type": "Feature",
      "geometry": {
        "type": "Point",
        "coordinates": [
          143.201935,
          42.958845
        ]
      },
      "properties": {
        "NO": 4210,
        "共通ID": "E0163100028121",
        "都道府県名及び市町村名": "北海道音更町",
        "施設・場所名": "下音更小学校",
        "住所": "北海道音更町木野西通12-8",
        "指定緊急避難場所との住所同一": "1",
        "その他市町村長が必要と認める事項": "",
        "受入対象者": "要配慮者",
        "備考": ""
      }
    },
    {
      "type": "Feature",
      "geometry": {
        "type": "Point",
        "coordinates": [
          143.200718,
          42.96497
        ]
      },
      "properties": {
        "NO": 4211,
        "共通ID": "E0163100029113",
        "都道府県名及び市町村名": "北海道音更町",
        "施設・場所名": "音更町図書館",
        "住所": "北海道音更町木野西通15-7",
        "指定緊急避難場所との住所同一": "1",
        "その他市町村長が必要と認める事項": "",
        "受入対象者": "",
        "備考": ""
      }
    },
    {
      "type": "Feature",
      "geometry": {
        "type": "Point",
        "coordinates": [
          143.20052,
          42.966051
        ]
      },
      "properties": {
        "NO": 4212,
        "共通ID": "E0163100039113",
        "都道府県名及び市町村名": "北海道音更町",
        "施設・場所名": "音更町文化センター",
        "住所": "北海道音更町木野西通15-8",
        "指定緊急避難場所との住所同一": "1",
        "その他市町村長が必要と認める事項": "",
        "受入対象者": "",
        "備考": ""
      }
    },
    {
      "type": "Feature",
      "geometry": {
        "type": "Point",
        "coordinates": [
          143.202676,
          42.968217
        ]
      },
      "properties": {
        "NO": 4213,
        "共通ID": "E0163100031121",
        "都道府県名及び市町村名": "北海道音更町",
        "施設・場所名": "共栄中学校",
        "住所": "北海道音更町木野西通16-2",
        "指定緊急避難場所との住所同一": "1",
        "その他市町村長が必要と認める事項": "",
        "受入対象者": "要配慮者",
        "備考": ""
      }
    },
    {
      "type": "Feature",
      "geometry": {
        "type": "Point",
        "coordinates": [
          143.202676,
          42.968217
        ]
      },
      "properties": {
        "NO": 4214,
        "共通ID": "E0163100031111",
        "都道府県名及び市町村名": "北海道音更町",
        "施設・場所名": "共栄中学校",
        "住所": "北海道音更町木野西通16-2",
        "指定緊急避難場所との住所同一": "1",
        "その他市町村長が必要と認める事項": "",
        "受入対象者": "",
        "備考": ""
      }
    },
    {
      "type": "Feature",
      "geometry": {
        "type": "Point",
        "coordinates": [
          143.204659,
          42.971347
        ]
      },
      "properties": {
        "NO": 4215,
        "共通ID": "E0163100032121",
        "都道府県名及び市町村名": "北海道音更町",
        "施設・場所名": "音更町民斎場",
        "住所": "北海道音更町木野西通17-1",
        "指定緊急避難場所との住所同一": "1",
        "その他市町村長が必要と認める事項": "",
        "受入対象者": "要配慮者",
        "備考": ""
      }
    },
    {
      "type": "Feature",
      "geometry": {
        "type": "Point",
        "coordinates": [
          143.204906,
          42.970275
        ]
      },
      "properties": {
        "NO": 4216,
        "共通ID": "E0163100032112",
        "都道府県名及び市町村名": "北海道音更町",
        "施設・場所名": "共栄コミュニティセンター",
        "住所": "北海道音更町木野西通17-1",
        "指定緊急避難場所との住所同一": "1",
        "その他市町村長が必要と認める事項": "",
        "受入対象者": "",
        "備考": ""
      }
    },
    {
      "type": "Feature",
      "geometry": {
        "type": "Point",
        "coordinates": [
          143.204906,
          42.970275
        ]
      },
      "properties": {
        "NO": 4217,
        "共通ID": "E0163100032122",
        "都道府県名及び市町村名": "北海道音更町",
        "施設・場所名": "共栄コミュニティセンター",
        "住所": "北海道音更町木野西通17-1",
        "指定緊急避難場所との住所同一": "1",
        "その他市町村長が必要と認める事項": "",
        "受入対象者": "要配慮者",
        "備考": ""
      }
    },
    {
      "type": "Feature",
      "geometry": {
        "type": "Point",
        "coordinates": [
          143.202031,
          42.951604
        ]
      },
      "properties": {
        "NO": 4218,
        "共通ID": "E0163100033121",
        "都道府県名及び市町村名": "北海道音更町",
        "施設・場所名": "木野コミュニティセンター",
        "住所": "北海道音更町木野西通8-2",
        "指定緊急避難場所との住所同一": "1",
        "その他市町村長が必要と認める事項": "",
        "受入対象者": "要配慮者",
        "備考": ""
      }
    },
    {
      "type": "Feature",
      "geometry": {
        "type": "Point",
        "coordinates": [
          143.202031,
          42.951604
        ]
      },
      "properties": {
        "NO": 4219,
        "共通ID": "E0163100033111",
        "都道府県名及び市町村名": "北海道音更町",
        "施設・場所名": "木野コミュニティセンター",
        "住所": "北海道音更町木野西通8-2",
        "指定緊急避難場所との住所同一": "1",
        "その他市町村長が必要と認める事項": "",
        "受入対象者": "",
        "備考": ""
      }
    },
    {
      "type": "Feature",
      "geometry": {
        "type": "Point",
        "coordinates": [
          143.200248,
          42.951562
        ]
      },
      "properties": {
        "NO": 4220,
        "共通ID": "E0163100048111",
        "都道府県名及び市町村名": "北海道音更町",
        "施設・場所名": "株式会社オカモトホールディングス",
        "住所": "北海道音更町木野西通8-3-9",
        "指定緊急避難場所との住所同一": "",
        "その他市町村長が必要と認める事項": "指定避難所である木野コミュニティセンターを補完する避難所",
        "受入対象者": "",
        "備考": ""
      }
    },
    {
      "type": "Feature",
      "geometry": {
        "type": "Point",
        "coordinates": [
          143.208262,
          42.946104
        ]
      },
      "properties": {
        "NO": 4221,
        "共通ID": "E0163100034111",
        "都道府県名及び市町村名": "北海道音更町",
        "施設・場所名": "木野東小学校",
        "住所": "北海道音更町木野東通5-6",
        "指定緊急避難場所との住所同一": "1",
        "その他市町村長が必要と認める事項": "",
        "受入対象者": "",
        "備考": ""
      }
    },
    {
      "type": "Feature",
      "geometry": {
        "type": "Point",
        "coordinates": [
          143.208262,
          42.946104
        ]
      },
      "properties": {
        "NO": 4222,
        "共通ID": "E0163100034121",
        "都道府県名及び市町村名": "北海道音更町",
        "施設・場所名": "木野東小学校",
        "住所": "北海道音更町木野東通5-6",
        "指定緊急避難場所との住所同一": "1",
        "その他市町村長が必要と認める事項": "",
        "受入対象者": "要配慮者",
        "備考": ""
      }
    },
    {
      "type": "Feature",
      "geometry": {
        "type": "Point",
        "coordinates": [
          143.211498,
          42.968766
        ]
      },
      "properties": {
        "NO": 4223,
        "共通ID": "E0163100035111",
        "都道府県名及び市町村名": "北海道音更町",
        "施設・場所名": "柳町小学校",
        "住所": "北海道音更町柳町南区14",
        "指定緊急避難場所との住所同一": "1",
        "その他市町村長が必要と認める事項": "",
        "受入対象者": "",
        "備考": ""
      }
    },
    {
      "type": "Feature",
      "geometry": {
        "type": "Point",
        "coordinates": [
          143.211498,
          42.968766
        ]
      },
      "properties": {
        "NO": 4224,
        "共通ID": "E0163100035121",
        "都道府県名及び市町村名": "北海道音更町",
        "施設・場所名": "柳町小学校",
        "住所": "北海道音更町柳町南区14",
        "指定緊急避難場所との住所同一": "1",
        "その他市町村長が必要と認める事項": "",
        "受入対象者": "要配慮者",
        "備考": ""
      }
    },
    {
      "type": "Feature",
      "geometry": {
        "type": "Point",
        "coordinates": [
          143.193741,
          42.995588
        ]
      },
      "properties": {
        "NO": 4225,
        "共通ID": "E0163100036111",
        "都道府県名及び市町村名": "北海道音更町",
        "施設・場所名": "音更中学校",
        "住所": "北海道音更町雄飛が丘1",
        "指定緊急避難場所との住所同一": "1",
        "その他市町村長が必要と認める事項": "",
        "受入対象者": "",
        "備考": ""
      }
    },
    {
      "type": "Feature",
      "geometry": {
        "type": "Point",
        "coordinates": [
          143.193741,
          42.995588
        ]
      },
      "properties": {
        "NO": 4226,
        "共通ID": "E0163100036121",
        "都道府県名及び市町村名": "北海道音更町",
        "施設・場所名": "音更中学校",
        "住所": "北海道音更町雄飛が丘1",
        "指定緊急避難場所との住所同一": "1",
        "その他市町村長が必要と認める事項": "",
        "受入対象者": "要配慮者",
        "備考": ""
      }
    },
    {
      "type": "Feature",
      "geometry": {
        "type": "Point",
        "coordinates": [
          143.1937,
          42.993
        ]
      },
      "properties": {
        "NO": 4227,
        "共通ID": "E0163100037111",
        "都道府県名及び市町村名": "北海道音更町",
        "施設・場所名": "武道館",
        "住所": "北海道音更町雄飛が丘3",
        "指定緊急避難場所との住所同一": "1",
        "その他市町村長が必要と認める事項": "",
        "受入対象者": "",
        "備考": ""
      }
    },
    {
      "type": "Feature",
      "geometry": {
        "type": "Point",
        "coordinates": [
          143.1939,
          42.9922
        ]
      },
      "properties": {
        "NO": 4228,
        "共通ID": "E0163100037112",
        "都道府県名及び市町村名": "北海道音更町",
        "施設・場所名": "総合体育館",
        "住所": "北海道音更町雄飛が丘3",
        "指定緊急避難場所との住所同一": "1",
        "その他市町村長が必要と認める事項": "",
        "受入対象者": "",
        "備考": ""
      }
    }
  ]
}