{
  "type": "FeatureCollection",
  "name": "016365",
  "features": [
    {
      "type": "Feature",
      "geometry": {
        "type": "Point",
        "coordinates": [
          142.94234,
          42.945639
        ]
      },
      "properties": {
        "NO": 4308,
        "共通ID": "E0163600001111",
        "都道府県名及び市町村名": "北海道清水町",
        "施設・場所名": "御影公民館",
        "住所": "北海道清水町御影東一条5-1-1",
        "指定緊急避難場所との住所同一": "1",
        "その他市町村長が必要と認める事項": "",
        "受入対象者": "",
        "備考": ""
      }
    },
    {
      "type": "Feature",
      "geometry": {
        "type": "Point",
        "coordinates": [
          142.940286,
          42.943244
        ]
      },
      "properties": {
        "NO": 4309,
        "共通ID": "E0163600003111",
        "都道府県名及び市町村名": "北海道清水町",
        "施設・場所名": "御影小学校",
        "住所": "北海道清水町御影東二条3-2",
        "指定緊急避難場所との住所同一": "1",
        "その他市町村長が必要と認める事項": "",
        "受入対象者": "",
        "備考": ""
      }
    },
    {
      "type": "Feature",
      "geometry": {
        "type": "Point",
        "coordinates": [
          142.915201,
          42.902588
        ]
      },
      "properties": {
        "NO": 4310,
        "共通ID": "E0163600004111",
        "都道府県名及び市町村名": "北海道清水町",
        "施設・場所名": "剣の郷創造館",
        "住所": "北海道清水町字旭山31",
        "指定緊急避難場所との住所同一": "1",
        "その他市町村長が必要と認める事項": "",
        "受入対象者": "",
        "備考": ""
      }
    },
    {
      "type": "Feature",
      "geometry": {
        "type": "Point",
        "coordinates": [
          142.875811,
          42.927509
        ]
      },
      "properties": {
        "NO": 4311,
        "共通ID": "E0163600005111",
        "都道府県名及び市町村名": "北海道清水町",
        "施設・場所名": "少年自然の家",
        "住所": "北海道清水町字羽帯南１０線94",
        "指定緊急避難場所との住所同一": "1",
        "その他市町村長が必要と認める事項": "",
        "受入対象者": "",
        "備考": ""
      }
    },
    {
      "type": "Feature",
      "geometry": {
        "type": "Point",
        "coordinates": [
          142.908787,
          42.960856
        ]
      },
      "properties": {
        "NO": 4312,
        "共通ID": "E0163600006111",
        "都道府県名及び市町村名": "北海道清水町",
        "施設・場所名": "羽帯福祉館",
        "住所": "北海道清水町字羽帯南２線97",
        "指定緊急避難場所との住所同一": "1",
        "その他市町村長が必要と認める事項": "",
        "受入対象者": "",
        "備考": ""
      }
    },
    {
      "type": "Feature",
      "geometry": {
        "type": "Point",
        "coordinates": [
          142.892635,
          43.045886
        ]
      },
      "properties": {
        "NO": 4313,
        "共通ID": "E0163600007111",
        "都道府県名及び市町村名": "北海道清水町",
        "施設・場所名": "下佐幌福祉館",
        "住所": "北海道清水町字下佐幌基線97-4",
        "指定緊急避難場所との住所同一": "",
        "その他市町村長が必要と認める事項": "",
        "受入対象者": "",
        "備考": ""
      }
    },
    {
      "type": "Feature",
      "geometry": {
        "type": "Point",
        "coordinates": [
          142.890973,
          43.045705
        ]
      },
      "properties": {
        "NO": 4314,
        "共通ID": "E0163600008111",
        "都道府県名及び市町村名": "北海道清水町",
        "施設・場所名": "旧下佐幌小学校（さくらさくら）",
        "住所": "北海道清水町字下佐幌基線98",
        "指定緊急避難場所との住所同一": "1",
        "その他市町村長が必要と認める事項": "",
        "受入対象者": "",
        "備考": ""
      }
    },
    {
      "type": "Feature",
      "geometry": {
        "type": "Point",
        "coordinates": [
          142.978406,
          42.976829
        ]
      },
      "properties": {
        "NO": 4315,
        "共通ID": "E0163600009111",
        "都道府県名及び市町村名": "北海道清水町",
        "施設・場所名": "旧松沢小学校（松沢の郷）",
        "住所": "北海道清水町字熊牛11",
        "指定緊急避難場所との住所同一": "1",
        "その他市町村長が必要と認める事項": "",
        "受入対象者": "",
        "備考": ""
      }
    },
    {
      "type": "Feature",
      "geometry": {
        "type": "Point",
        "coordinates": [
          142.935687,
          43.068634
        ]
      },
      "properties": {
        "NO": 4316,
        "共通ID": "E0163600010111",
        "都道府県名及び市町村名": "北海道清水町",
        "施設・場所名": "きたくま文化蔵",
        "住所": "北海道清水町字熊牛125",
        "指定緊急避難場所との住所同一": "1",
        "その他市町村長が必要と認める事項": "",
        "受入対象者": "",
        "備考": ""
      }
    },
    {
      "type": "Feature",
      "geometry": {
        "type": "Point",
        "coordinates": [
          142.952391,
          43.013905
        ]
      },
      "properties": {
        "NO": 4317,
        "共通ID": "E0163600011111",
        "都道府県名及び市町村名": "北海道清水町",
        "施設・場所名": "熊牛福祉館",
        "住所": "北海道清水町字熊牛68",
        "指定緊急避難場所との住所同一": "1",
        "その他市町村長が必要と認める事項": "",
        "受入対象者": "",
        "備考": ""
      }
    },
    {
      "type": "Feature",
      "geometry": {
        "type": "Point",
        "coordinates": [
          142.929727,
          42.949695
        ]
      },
      "properties": {
        "NO": 4318,
        "共通ID": "E0163600012111",
        "都道府県名及び市町村名": "北海道清水町",
        "施設・場所名": "御影中学校",
        "住所": "北海道清水町字御影南２線73",
        "指定緊急避難場所との住所同一": "1",
        "その他市町村長が必要と認める事項": "",
        "受入対象者": "",
        "備考": ""
      }
    },
    {
      "type": "Feature",
      "geometry": {
        "type": "Point",
        "coordinates": [
          142.928363,
          43.013233
        ]
      },
      "properties": {
        "NO": 4319,
        "共通ID": "E0163600013111",
        "都道府県名及び市町村名": "北海道清水町",
        "施設・場所名": "下人舞福祉館",
        "住所": "北海道清水町字人舞169",
        "指定緊急避難場所との住所同一": "1",
        "その他市町村長が必要と認める事項": "",
        "受入対象者": "",
        "備考": ""
      }
    },
    {
      "type": "Feature",
      "geometry": {
        "type": "Point",
        "coordinates": [
          142.92771,
          43.012993
        ]
      },
      "properties": {
        "NO": 4320,
        "共通ID": "E0163600013112",
        "都道府県名及び市町村名": "北海道清水町",
        "施設・場所名": "旧下人舞小学校",
        "住所": "北海道清水町字人舞169",
        "指定緊急避難場所との住所同一": "1",
        "その他市町村長が必要と認める事項": "",
        "受入対象者": "",
        "備考": ""
      }
    },
    {
      "type": "Feature",
      "geometry": {
        "type": "Point",
        "coordinates": [
          142.91357,
          43.065995
        ]
      },
      "properties": {
        "NO": 4321,
        "共通ID": "E0163600014111",
        "都道府県名及び市町村名": "北海道清水町",
        "施設・場所名": "人舞福祉館",
        "住所": "北海道清水町字人舞289",
        "指定緊急避難場所との住所同一": "1",
        "その他市町村長が必要と認める事項": "",
        "受入対象者": "",
        "備考": ""
      }
    },
    {
      "type": "Feature",
      "geometry": {
        "type": "Point",
        "coordinates": [
          142.87409,
          43.018982
        ]
      },
      "properties": {
        "NO": 4322,
        "共通ID": "E0163600015111",
        "都道府県名及び市町村名": "北海道清水町",
        "施設・場所名": "清水小学校",
        "住所": "北海道清水町字清水第２線71",
        "指定緊急避難場所との住所同一": "1",
        "その他市町村長が必要と認める事項": "",
        "受入対象者": "",
        "備考": ""
      }
    },
    {
      "type": "Feature",
      "geometry": {
        "type": "Point",
        "coordinates": [
          142.896729,
          42.989756
        ]
      },
      "properties": {
        "NO": 4323,
        "共通ID": "E0163600016111",
        "都道府県名及び市町村名": "北海道清水町",
        "施設・場所名": "上清水福祉館",
        "住所": "北海道清水町字清水第３線32",
        "指定緊急避難場所との住所同一": "1",
        "その他市町村長が必要と認める事項": "",
        "受入対象者": "",
        "備考": ""
      }
    },
    {
      "type": "Feature",
      "geometry": {
        "type": "Point",
        "coordinates": [
          142.872845,
          43.005429
        ]
      },
      "properties": {
        "NO": 4324,
        "共通ID": "E0163600017111",
        "都道府県名及び市町村名": "北海道清水町",
        "施設・場所名": "農業研修会館",
        "住所": "北海道清水町字清水第４線59",
        "指定緊急避難場所との住所同一": "1",
        "その他市町村長が必要と認める事項": "",
        "受入対象者": "",
        "備考": ""
      }
    },
    {
      "type": "Feature",
      "geometry": {
        "type": "Point",
        "coordinates": [
          142.972777,
          43.037713
        ]
      },
      "properties": {
        "NO": 4325,
        "共通ID": "E0163600018111",
        "都道府県名及び市町村名": "北海道清水町",
        "施設・場所名": "美蔓福祉館",
        "住所": "北海道清水町字美蔓西２３線85",
        "指定緊急避難場所との住所同一": "1",
        "その他市町村長が必要と認める事項": "",
        "受入対象者": "",
        "備考": ""
      }
    },
    {
      "type": "Feature",
      "geometry": {
        "type": "Point",
        "coordinates": [
          142.882613,
          43.010978
        ]
      },
      "properties": {
        "NO": 4326,
        "共通ID": "E0163600022121",
        "都道府県名及び市町村名": "北海道清水町",
        "施設・場所名": "特別養護老人ホームせせらぎ荘",
        "住所": "北海道清水町南三条1-1",
        "指定緊急避難場所との住所同一": "",
        "その他市町村長が必要と認める事項": null,
        "受入対象者": "要配慮者",
        "備考": ""
      }
    },
    {
      "type": "Feature",
      "geometry": {
        "type": "Point",
        "coordinates": [
          142.885614,
          43.01205
        ]
      },
      "properties": {
        "NO": 4327,
        "共通ID": "E0163600023111",
        "都道府県名及び市町村名": "北海道清水町",
        "施設・場所名": "文化センター",
        "住所": "北海道清水町南三条3-1",
        "指定緊急避難場所との住所同一": "1",
        "その他市町村長が必要と認める事項": "",
        "受入対象者": "",
        "備考": ""
      }
    },
    {
      "type": "Feature",
      "geometry": {
        "type": "Point",
        "coordinates": [
          142.888293,
          43.015853
        ]
      },
      "properties": {
        "NO": 4328,
        "共通ID": "E0163600020111",
        "都道府県名及び市町村名": "北海道清水町",
        "施設・場所名": "老人福祉センター",
        "住所": "北海道清水町南二条7-1",
        "指定緊急避難場所との住所同一": "1",
        "その他市町村長が必要と認める事項": "",
        "受入対象者": "",
        "備考": ""
      }
    },
    {
      "type": "Feature",
      "geometry": {
        "type": "Point",
        "coordinates": [
          142.874013,
          43.01406
        ]
      },
      "properties": {
        "NO": 4329,
        "共通ID": "E0163600027111",
        "都道府県名及び市町村名": "北海道清水町",
        "施設・場所名": "清水高等学校",
        "住所": "北海道清水町北二条西2-2",
        "指定緊急避難場所との住所同一": "1",
        "その他市町村長が必要と認める事項": "",
        "受入対象者": "",
        "備考": ""
      }
    },
    {
      "type": "Feature",
      "geometry": {
        "type": "Point",
        "coordinates": [
          142.888712,
          43.021681
        ]
      },
      "properties": {
        "NO": 4330,
        "共通ID": "E0163600028111",
        "都道府県名及び市町村名": "北海道清水町",
        "施設・場所名": "清水中学校",
        "住所": "北海道清水町本通11-2",
        "指定緊急避難場所との住所同一": "1",
        "その他市町村長が必要と認める事項": "",
        "受入対象者": "",
        "備考": ""
      }
    }
  ]
}