{
  "type": "FeatureCollection",
  "name": "016357",
  "features": [
    {
      "type": "Feature",
      "geometry": {
        "type": "Point",
        "coordinates": [
          142.907368,
          43.09997
        ]
      },
      "properties": {
        "NO": 4287,
        "共通ID": "E0163500005121",
        "都道府県名及び市町村名": "北海道新得町",
        "施設・場所名": "社会福祉法人厚生協会屈足わかふじ園",
        "住所": "北海道新得町屈足旭町1-46-3",
        "指定緊急避難場所との住所同一": "",
        "その他市町村長が必要と認める事項": null,
        "受入対象者": "要配慮者",
        "備考": ""
      }
    },
    {
      "type": "Feature",
      "geometry": {
        "type": "Point",
        "coordinates": [
          142.906324,
          43.099522
        ]
      },
      "properties": {
        "NO": 4288,
        "共通ID": "E0163500006121",
        "都道府県名及び市町村名": "北海道新得町",
        "施設・場所名": "社会福祉法人新得町社会福祉協議会小規模多機能センターらら",
        "住所": "北海道新得町屈足旭町2-85-1",
        "指定緊急避難場所との住所同一": "",
        "その他市町村長が必要と認める事項": null,
        "受入対象者": "要配慮者",
        "備考": ""
      }
    },
    {
      "type": "Feature",
      "geometry": {
        "type": "Point",
        "coordinates": [
          142.908074,
          43.101017
        ]
      },
      "properties": {
        "NO": 4289,
        "共通ID": "E0163500007111",
        "都道府県名及び市町村名": "北海道新得町",
        "施設・場所名": "屈足保育園",
        "住所": "北海道新得町屈足旭町東1-7-7",
        "指定緊急避難場所との住所同一": "",
        "その他市町村長が必要と認める事項": null,
        "受入対象者": null,
        "備考": ""
      }
    },
    {
      "type": "Feature",
      "geometry": {
        "type": "Point",
        "coordinates": [
          142.904708,
          43.104118
        ]
      },
      "properties": {
        "NO": 4290,
        "共通ID": "E0163500010111",
        "都道府県名及び市町村名": "北海道新得町",
        "施設・場所名": "屈足南小学校",
        "住所": "北海道新得町屈足柏町2-63",
        "指定緊急避難場所との住所同一": "1",
        "その他市町村長が必要と認める事項": null,
        "受入対象者": null,
        "備考": ""
      }
    },
    {
      "type": "Feature",
      "geometry": {
        "type": "Point",
        "coordinates": [
          142.903731,
          43.104056
        ]
      },
      "properties": {
        "NO": 4291,
        "共通ID": "E0163500011111",
        "都道府県名及び市町村名": "北海道新得町",
        "施設・場所名": "屈足総合会館",
        "住所": "北海道新得町屈足柏町3",
        "指定緊急避難場所との住所同一": "",
        "その他市町村長が必要と認める事項": null,
        "受入対象者": null,
        "備考": ""
      }
    },
    {
      "type": "Feature",
      "geometry": {
        "type": "Point",
        "coordinates": [
          142.897148,
          43.105709
        ]
      },
      "properties": {
        "NO": 4292,
        "共通ID": "E0163500013111",
        "都道府県名及び市町村名": "北海道新得町",
        "施設・場所名": "屈足中学校",
        "住所": "北海道新得町屈足緑町西4-5",
        "指定緊急避難場所との住所同一": "1",
        "その他市町村長が必要と認める事項": null,
        "受入対象者": null,
        "備考": ""
      }
    },
    {
      "type": "Feature",
      "geometry": {
        "type": "Point",
        "coordinates": [
          142.836333,
          43.084741
        ]
      },
      "properties": {
        "NO": 4293,
        "共通ID": "E0163500015111",
        "都道府県名及び市町村名": "北海道新得町",
        "施設・場所名": "新得幼稚園",
        "住所": "北海道新得町元町98",
        "指定緊急避難場所との住所同一": "",
        "その他市町村長が必要と認める事項": null,
        "受入対象者": null,
        "備考": ""
      }
    },
    {
      "type": "Feature",
      "geometry": {
        "type": "Point",
        "coordinates": [
          142.837469,
          43.080426
        ]
      },
      "properties": {
        "NO": 4294,
        "共通ID": "E0163500002111",
        "都道府県名及び市町村名": "北海道新得町",
        "施設・場所名": "保健福祉センター",
        "住所": "北海道新得町三条南3-5",
        "指定緊急避難場所との住所同一": "",
        "その他市町村長が必要と認める事項": null,
        "受入対象者": null,
        "備考": ""
      }
    },
    {
      "type": "Feature",
      "geometry": {
        "type": "Point",
        "coordinates": [
          142.839586,
          43.07995
        ]
      },
      "properties": {
        "NO": 4295,
        "共通ID": "E0163500003111",
        "都道府県名及び市町村名": "北海道新得町",
        "施設・場所名": "町公民館",
        "住所": "北海道新得町四条南4-9",
        "指定緊急避難場所との住所同一": "",
        "その他市町村長が必要と認める事項": null,
        "受入対象者": null,
        "備考": ""
      }
    },
    {
      "type": "Feature",
      "geometry": {
        "type": "Point",
        "coordinates": [
          142.946785,
          43.333927
        ]
      },
      "properties": {
        "NO": 4296,
        "共通ID": "E0163500017111",
        "都道府県名及び市町村名": "北海道新得町",
        "施設・場所名": "富村牛小中学校",
        "住所": "北海道新得町字屈足トムラウシ257",
        "指定緊急避難場所との住所同一": "",
        "その他市町村長が必要と認める事項": null,
        "受入対象者": null,
        "備考": ""
      }
    },
    {
      "type": "Feature",
      "geometry": {
        "type": "Point",
        "coordinates": [
          142.897792,
          43.123257
        ]
      },
      "properties": {
        "NO": 4297,
        "共通ID": "E0163500018111",
        "都道府県名及び市町村名": "北海道新得町",
        "施設・場所名": "屈足農村環境改善センター",
        "住所": "北海道新得町字屈足基線39",
        "指定緊急避難場所との住所同一": "1",
        "その他市町村長が必要と認める事項": null,
        "受入対象者": null,
        "備考": ""
      }
    },
    {
      "type": "Feature",
      "geometry": {
        "type": "Point",
        "coordinates": [
          142.870166,
          43.085972
        ]
      },
      "properties": {
        "NO": 4298,
        "共通ID": "E0163500019111",
        "都道府県名及び市町村名": "北海道新得町",
        "施設・場所名": "佐幌農業会館",
        "住所": "北海道新得町字上佐幌基線25",
        "指定緊急避難場所との住所同一": "1",
        "その他市町村長が必要と認める事項": null,
        "受入対象者": null,
        "備考": ""
      }
    },
    {
      "type": "Feature",
      "geometry": {
        "type": "Point",
        "coordinates": [
          142.861548,
          43.132406
        ]
      },
      "properties": {
        "NO": 4299,
        "共通ID": "E0163500020111",
        "都道府県名及び市町村名": "北海道新得町",
        "施設・場所名": "レディースファームスクール",
        "住所": "北海道新得町字上佐幌基線84",
        "指定緊急避難場所との住所同一": "",
        "その他市町村長が必要と認める事項": null,
        "受入対象者": null,
        "備考": ""
      }
    },
    {
      "type": "Feature",
      "geometry": {
        "type": "Point",
        "coordinates": [
          142.834388,
          43.102429
        ]
      },
      "properties": {
        "NO": 4300,
        "共通ID": "E0163500023111",
        "都道府県名及び市町村名": "北海道新得町",
        "施設・場所名": "北新得農業会館",
        "住所": "北海道新得町字新得基線167",
        "指定緊急避難場所との住所同一": "",
        "その他市町村長が必要と認める事項": null,
        "受入対象者": null,
        "備考": ""
      }
    },
    {
      "type": "Feature",
      "geometry": {
        "type": "Point",
        "coordinates": [
          142.831635,
          43.071249
        ]
      },
      "properties": {
        "NO": 4301,
        "共通ID": "E0163500024111",
        "都道府県名及び市町村名": "北海道新得町",
        "施設・場所名": "新得はなや葬祭ホール",
        "住所": "北海道新得町字新得西１線35",
        "指定緊急避難場所との住所同一": "",
        "その他市町村長が必要と認める事項": null,
        "受入対象者": null,
        "備考": ""
      }
    },
    {
      "type": "Feature",
      "geometry": {
        "type": "Point",
        "coordinates": [
          142.805971,
          43.068745
        ]
      },
      "properties": {
        "NO": 4302,
        "共通ID": "E0163500025111",
        "都道府県名及び市町村名": "北海道新得町",
        "施設・場所名": "畜産試験場",
        "住所": "北海道新得町字新得西５線39-1",
        "指定緊急避難場所との住所同一": "",
        "その他市町村長が必要と認める事項": null,
        "受入対象者": null,
        "備考": ""
      }
    },
    {
      "type": "Feature",
      "geometry": {
        "type": "Point",
        "coordinates": [
          142.822867,
          43.080652
        ]
      },
      "properties": {
        "NO": 4303,
        "共通ID": "E0163500030121",
        "都道府県名及び市町村名": "北海道新得町",
        "施設・場所名": "社会福祉法人厚生協会わかふじ寮",
        "住所": "北海道新得町西三条北1-5-3",
        "指定緊急避難場所との住所同一": "",
        "その他市町村長が必要と認める事項": null,
        "受入対象者": "要配慮者",
        "備考": ""
      }
    },
    {
      "type": "Feature",
      "geometry": {
        "type": "Point",
        "coordinates": [
          142.822004,
          43.07985
        ]
      },
      "properties": {
        "NO": 4304,
        "共通ID": "E0163500031111",
        "都道府県名及び市町村名": "北海道新得町",
        "施設・場所名": "新得中学校",
        "住所": "北海道新得町西四条南1-1",
        "指定緊急避難場所との住所同一": "1",
        "その他市町村長が必要と認める事項": null,
        "受入対象者": null,
        "備考": ""
      }
    },
    {
      "type": "Feature",
      "geometry": {
        "type": "Point",
        "coordinates": [
          142.829253,
          43.075559
        ]
      },
      "properties": {
        "NO": 4305,
        "共通ID": "E0163500027121",
        "都道府県名及び市町村名": "北海道新得町",
        "施設・場所名": "社会福祉法人輔心会特別養護老人ホームひろね",
        "住所": "北海道新得町西二条南5-5-1",
        "指定緊急避難場所との住所同一": "",
        "その他市町村長が必要と認める事項": null,
        "受入対象者": "要配慮者",
        "備考": ""
      }
    },
    {
      "type": "Feature",
      "geometry": {
        "type": "Point",
        "coordinates": [
          142.833584,
          43.072625
        ]
      },
      "properties": {
        "NO": 4306,
        "共通ID": "E0163500028111",
        "都道府県名及び市町村名": "北海道新得町",
        "施設・場所名": "新得高等支援学校",
        "住所": "北海道新得町西二条南7-2",
        "指定緊急避難場所との住所同一": "1",
        "その他市町村長が必要と認める事項": null,
        "受入対象者": null,
        "備考": ""
      }
    },
    {
      "type": "Feature",
      "geometry": {
        "type": "Point",
        "coordinates": [
          142.826824,
          43.081868
        ]
      },
      "properties": {
        "NO": 4307,
        "共通ID": "E0163500029111",
        "都道府県名及び市町村名": "北海道新得町",
        "施設・場所名": "新得小学校",
        "住所": "北海道新得町西二条北1-1",
        "指定緊急避難場所との住所同一": "1",
        "その他市町村長が必要と認める事項": null,
        "受入対象者": null,
        "備考": ""
      }
    }
  ]
}