{
  "type": "FeatureCollection",
  "name": "016489",
  "features": [
    {
      "type": "Feature",
      "geometry": {
        "type": "Point",
        "coordinates": [
          143.68274,
          43.468145
        ]
      },
      "properties": {
        "NO": 4736,
        "共通ID": "E0164800001111",
        "都道府県名及び市町村名": "北海道陸別町",
        "施設・場所名": "中斗満交流センター",
        "住所": "北海道陸別町字トマム幹線49-3",
        "指定緊急避難場所との住所同一": "",
        "その他市町村長が必要と認める事項": null,
        "受入対象者": null,
        "備考": ""
      }
    },
    {
      "type": "Feature",
      "geometry": {
        "type": "Point",
        "coordinates": [
          143.651444,
          43.487986
        ]
      },
      "properties": {
        "NO": 4737,
        "共通ID": "E0164800002111",
        "都道府県名及び市町村名": "北海道陸別町",
        "施設・場所名": "苫務交流センター",
        "住所": "北海道陸別町字トマム幹線86-2",
        "指定緊急避難場所との住所同一": "",
        "その他市町村長が必要と認める事項": null,
        "受入対象者": null,
        "備考": ""
      }
    },
    {
      "type": "Feature",
      "geometry": {
        "type": "Point",
        "coordinates": [
          143.632616,
          43.480015
        ]
      },
      "properties": {
        "NO": 4738,
        "共通ID": "E0164800003111",
        "都道府県名及び市町村名": "北海道陸別町",
        "施設・場所名": "上斗満交流センター",
        "住所": "北海道陸別町字トマム南３線92-1",
        "指定緊急避難場所との住所同一": "",
        "その他市町村長が必要と認める事項": null,
        "受入対象者": null,
        "備考": ""
      }
    },
    {
      "type": "Feature",
      "geometry": {
        "type": "Point",
        "coordinates": [
          143.630718,
          43.479539
        ]
      },
      "properties": {
        "NO": 4739,
        "共通ID": "E0164800004121",
        "都道府県名及び市町村名": "北海道陸別町",
        "施設・場所名": "とまむ園　地域交流ホームふらっと",
        "住所": "北海道陸別町字トマム南３線94-3",
        "指定緊急避難場所との住所同一": "",
        "その他市町村長が必要と認める事項": null,
        "受入対象者": "要配慮者",
        "備考": ""
      }
    },
    {
      "type": "Feature",
      "geometry": {
        "type": "Point",
        "coordinates": [
          143.685471,
          43.388295
        ]
      },
      "properties": {
        "NO": 4740,
        "共通ID": "E0164800005111",
        "都道府県名及び市町村名": "北海道陸別町",
        "施設・場所名": "トラリ農作業準備休憩室",
        "住所": "北海道陸別町字上利別原野東１線212-4",
        "指定緊急避難場所との住所同一": "",
        "その他市町村長が必要と認める事項": null,
        "受入対象者": null,
        "備考": ""
      }
    },
    {
      "type": "Feature",
      "geometry": {
        "type": "Point",
        "coordinates": [
          143.679687,
          43.588137
        ]
      },
      "properties": {
        "NO": 4741,
        "共通ID": "E0164800006111",
        "都道府県名及び市町村名": "北海道陸別町",
        "施設・場所名": "小利別集会所",
        "住所": "北海道陸別町字利別川上原野基線94",
        "指定緊急避難場所との住所同一": "",
        "その他市町村長が必要と認める事項": null,
        "受入対象者": null,
        "備考": ""
      }
    },
    {
      "type": "Feature",
      "geometry": {
        "type": "Point",
        "coordinates": [
          143.747809,
          43.469315
        ]
      },
      "properties": {
        "NO": 4742,
        "共通ID": "E0164800018111",
        "都道府県名及び市町村名": "北海道陸別町",
        "施設・場所名": "高齢者交流センター",
        "住所": "北海道陸別町字陸別",
        "指定緊急避難場所との住所同一": "",
        "その他市町村長が必要と認める事項": "",
        "受入対象者": "",
        "備考": ""
      }
    },
    {
      "type": "Feature",
      "geometry": {
        "type": "Point",
        "coordinates": [
          143.738733,
          43.461254
        ]
      },
      "properties": {
        "NO": 4743,
        "共通ID": "E0164800007111",
        "都道府県名及び市町村名": "北海道陸別町",
        "施設・場所名": "新町交流館",
        "住所": "北海道陸別町字陸別基線314-96",
        "指定緊急避難場所との住所同一": "",
        "その他市町村長が必要と認める事項": null,
        "受入対象者": null,
        "備考": ""
      }
    },
    {
      "type": "Feature",
      "geometry": {
        "type": "Point",
        "coordinates": [
          143.747592,
          43.465008
        ]
      },
      "properties": {
        "NO": 4744,
        "共通ID": "E0164800008121",
        "都道府県名及び市町村名": "北海道陸別町",
        "施設・場所名": "陸別町デイサービスセンター",
        "住所": "北海道陸別町字陸別原野基線321-5",
        "指定緊急避難場所との住所同一": "",
        "その他市町村長が必要と認める事項": null,
        "受入対象者": "要配慮者",
        "備考": ""
      }
    },
    {
      "type": "Feature",
      "geometry": {
        "type": "Point",
        "coordinates": [
          143.75169,
          43.467573
        ]
      },
      "properties": {
        "NO": 4745,
        "共通ID": "E0164800009111",
        "都道府県名及び市町村名": "北海道陸別町",
        "施設・場所名": "若葉生きがい交流館",
        "住所": "北海道陸別町字陸別原野基線325-7",
        "指定緊急避難場所との住所同一": "",
        "その他市町村長が必要と認める事項": null,
        "受入対象者": null,
        "備考": ""
      }
    },
    {
      "type": "Feature",
      "geometry": {
        "type": "Point",
        "coordinates": [
          143.753848,
          43.472507
        ]
      },
      "properties": {
        "NO": 4746,
        "共通ID": "E0164800010111",
        "都道府県名及び市町村名": "北海道陸別町",
        "施設・場所名": "陸別小学校",
        "住所": "北海道陸別町字陸別原野基線331",
        "指定緊急避難場所との住所同一": "",
        "その他市町村長が必要と認める事項": null,
        "受入対象者": null,
        "備考": ""
      }
    },
    {
      "type": "Feature",
      "geometry": {
        "type": "Point",
        "coordinates": [
          143.754749,
          43.473252
        ]
      },
      "properties": {
        "NO": 4747,
        "共通ID": "E0164800011111",
        "都道府県名及び市町村名": "北海道陸別町",
        "施設・場所名": "陸別保育所",
        "住所": "北海道陸別町字陸別原野基線333-1",
        "指定緊急避難場所との住所同一": "",
        "その他市町村長が必要と認める事項": null,
        "受入対象者": null,
        "備考": ""
      }
    },
    {
      "type": "Feature",
      "geometry": {
        "type": "Point",
        "coordinates": [
          143.754689,
          43.474328
        ]
      },
      "properties": {
        "NO": 4748,
        "共通ID": "E0164800012111",
        "都道府県名及び市町村名": "北海道陸別町",
        "施設・場所名": "陸別中学校",
        "住所": "北海道陸別町字陸別原野基線334",
        "指定緊急避難場所との住所同一": "",
        "その他市町村長が必要と認める事項": null,
        "受入対象者": null,
        "備考": ""
      }
    },
    {
      "type": "Feature",
      "geometry": {
        "type": "Point",
        "coordinates": [
          143.742429,
          43.467658
        ]
      },
      "properties": {
        "NO": 4749,
        "共通ID": "E0164800013111",
        "都道府県名及び市町村名": "北海道陸別町",
        "施設・場所名": "ふるさと交流センター",
        "住所": "北海道陸別町字陸別原野基線69-1",
        "指定緊急避難場所との住所同一": "",
        "その他市町村長が必要と認める事項": null,
        "受入対象者": null,
        "備考": ""
      }
    },
    {
      "type": "Feature",
      "geometry": {
        "type": "Point",
        "coordinates": [
          143.737254,
          43.469623
        ]
      },
      "properties": {
        "NO": 4750,
        "共通ID": "E0164800014121",
        "都道府県名及び市町村名": "北海道陸別町",
        "施設・場所名": "みどりの園　みどーむ（機能訓練棟）",
        "住所": "北海道陸別町字陸別原野分線8-232",
        "指定緊急避難場所との住所同一": "",
        "その他市町村長が必要と認める事項": null,
        "受入対象者": "要配慮者",
        "備考": ""
      }
    },
    {
      "type": "Feature",
      "geometry": {
        "type": "Point",
        "coordinates": [
          143.747262,
          43.46893
        ]
      },
      "properties": {
        "NO": 4751,
        "共通ID": "E0164800015111",
        "都道府県名及び市町村名": "北海道陸別町",
        "施設・場所名": "タウンホール",
        "住所": "北海道陸別町字陸別東一条3-1",
        "指定緊急避難場所との住所同一": "1",
        "その他市町村長が必要と認める事項": null,
        "受入対象者": null,
        "備考": ""
      }
    },
    {
      "type": "Feature",
      "geometry": {
        "type": "Point",
        "coordinates": [
          143.748646,
          43.469157
        ]
      },
      "properties": {
        "NO": 4752,
        "共通ID": "E0164800016111",
        "都道府県名及び市町村名": "北海道陸別町",
        "施設・場所名": "陸別町公民館",
        "住所": "北海道陸別町字陸別東一条4-2",
        "指定緊急避難場所との住所同一": "",
        "その他市町村長が必要と認める事項": null,
        "受入対象者": null,
        "備考": ""
      }
    },
    {
      "type": "Feature",
      "geometry": {
        "type": "Point",
        "coordinates": [
          143.748386,
          43.468552
        ]
      },
      "properties": {
        "NO": 4753,
        "共通ID": "E0164800017111",
        "都道府県名及び市町村名": "北海道陸別町",
        "施設・場所名": "保健センター",
        "住所": "北海道陸別町字陸別東二条3-2",
        "指定緊急避難場所との住所同一": "1",
        "その他市町村長が必要と認める事項": null,
        "受入対象者": null,
        "備考": ""
      }
    },
    {
      "type": "Feature",
      "geometry": {
        "type": "Point",
        "coordinates": [
          143.748386,
          43.468552
        ]
      },
      "properties": {
        "NO": 4754,
        "共通ID": "E0164800017121",
        "都道府県名及び市町村名": "北海道陸別町",
        "施設・場所名": "保健センター",
        "住所": "北海道陸別町字陸別東二条3-2",
        "指定緊急避難場所との住所同一": "1",
        "その他市町村長が必要と認める事項": null,
        "受入対象者": "要配慮者",
        "備考": ""
      }
    }
  ]
}