{
  "type": "FeatureCollection",
  "name": "016446",
  "features": [
    {
      "type": "Feature",
      "geometry": {
        "type": "Point",
        "coordinates": [
          143.455003,
          43.005398
        ]
      },
      "properties": {
        "NO": 4579,
        "共通ID": "E0164400014111",
        "都道府県名及び市町村名": "北海道池田町",
        "施設・場所名": "近牛地区コミュニティセンター",
        "住所": "北海道池田町字近牛20",
        "指定緊急避難場所との住所同一": "1",
        "その他市町村長が必要と認める事項": null,
        "受入対象者": null,
        "備考": ""
      }
    },
    {
      "type": "Feature",
      "geometry": {
        "type": "Point",
        "coordinates": [
          143.441137,
          43.02241
        ]
      },
      "properties": {
        "NO": 4580,
        "共通ID": "E0164400015111",
        "都道府県名及び市町村名": "北海道池田町",
        "施設・場所名": "旧高島小学校",
        "住所": "北海道池田町字高島141",
        "指定緊急避難場所との住所同一": "1",
        "その他市町村長が必要と認める事項": null,
        "受入対象者": null,
        "備考": ""
      }
    },
    {
      "type": "Feature",
      "geometry": {
        "type": "Point",
        "coordinates": [
          143.458559,
          43.02837
        ]
      },
      "properties": {
        "NO": 4581,
        "共通ID": "E0164400016111",
        "都道府県名及び市町村名": "北海道池田町",
        "施設・場所名": "北部地域コミュニティセンター",
        "住所": "北海道池田町字高島40",
        "指定緊急避難場所との住所同一": "1",
        "その他市町村長が必要と認める事項": null,
        "受入対象者": null,
        "備考": ""
      }
    },
    {
      "type": "Feature",
      "geometry": {
        "type": "Point",
        "coordinates": [
          143.458559,
          43.02837
        ]
      },
      "properties": {
        "NO": 4582,
        "共通ID": "E0164400016121",
        "都道府県名及び市町村名": "北海道池田町",
        "施設・場所名": "北部地域コミュニティセンター",
        "住所": "北海道池田町字高島40",
        "指定緊急避難場所との住所同一": "1",
        "その他市町村長が必要と認める事項": null,
        "受入対象者": "要配慮者",
        "備考": ""
      }
    },
    {
      "type": "Feature",
      "geometry": {
        "type": "Point",
        "coordinates": [
          143.472595,
          42.888454
        ]
      },
      "properties": {
        "NO": 4583,
        "共通ID": "E0164400018111",
        "都道府県名及び市町村名": "北海道池田町",
        "施設・場所名": "昭栄地区コミュニティセンター",
        "住所": "北海道池田町字昭栄112",
        "指定緊急避難場所との住所同一": "1",
        "その他市町村長が必要と認める事項": null,
        "受入対象者": null,
        "備考": ""
      }
    },
    {
      "type": "Feature",
      "geometry": {
        "type": "Point",
        "coordinates": [
          143.457827,
          42.918994
        ]
      },
      "properties": {
        "NO": 4584,
        "共通ID": "E0164400022111",
        "都道府県名及び市町村名": "北海道池田町",
        "施設・場所名": "ワイン城",
        "住所": "北海道池田町字清見83",
        "指定緊急避難場所との住所同一": "1",
        "その他市町村長が必要と認める事項": null,
        "受入対象者": null,
        "備考": ""
      }
    },
    {
      "type": "Feature",
      "geometry": {
        "type": "Point",
        "coordinates": [
          143.458672,
          42.921455
        ]
      },
      "properties": {
        "NO": 4585,
        "共通ID": "E0164400022112",
        "都道府県名及び市町村名": "北海道池田町",
        "施設・場所名": "農業技術研究所",
        "住所": "北海道池田町字清見83",
        "指定緊急避難場所との住所同一": "1",
        "その他市町村長が必要と認める事項": null,
        "受入対象者": null,
        "備考": ""
      }
    },
    {
      "type": "Feature",
      "geometry": {
        "type": "Point",
        "coordinates": [
          143.459514,
          42.929218
        ]
      },
      "properties": {
        "NO": 4586,
        "共通ID": "E0164400025111",
        "都道府県名及び市町村名": "北海道池田町",
        "施設・場所名": "池田高校",
        "住所": "北海道池田町字清見ケ丘13",
        "指定緊急避難場所との住所同一": "",
        "その他市町村長が必要と認める事項": null,
        "受入対象者": null,
        "備考": ""
      }
    },
    {
      "type": "Feature",
      "geometry": {
        "type": "Point",
        "coordinates": [
          143.459514,
          42.929218
        ]
      },
      "properties": {
        "NO": 4587,
        "共通ID": "E0164400025121",
        "都道府県名及び市町村名": "北海道池田町",
        "施設・場所名": "池田高校",
        "住所": "北海道池田町字清見ケ丘13",
        "指定緊急避難場所との住所同一": "",
        "その他市町村長が必要と認める事項": null,
        "受入対象者": "要配慮者",
        "備考": ""
      }
    },
    {
      "type": "Feature",
      "geometry": {
        "type": "Point",
        "coordinates": [
          143.448936,
          42.920988
        ]
      },
      "properties": {
        "NO": 4588,
        "共通ID": "E0164400026111",
        "都道府県名及び市町村名": "北海道池田町",
        "施設・場所名": "総合体育館・図書館",
        "住所": "北海道池田町字西一条１地先",
        "指定緊急避難場所との住所同一": "1",
        "その他市町村長が必要と認める事項": null,
        "受入対象者": null,
        "備考": ""
      }
    },
    {
      "type": "Feature",
      "geometry": {
        "type": "Point",
        "coordinates": [
          143.449487,
          42.920063
        ]
      },
      "properties": {
        "NO": 4589,
        "共通ID": "E0164400026112",
        "都道府県名及び市町村名": "北海道池田町",
        "施設・場所名": "田園ホール",
        "住所": "北海道池田町字西一条１地先",
        "指定緊急避難場所との住所同一": "1",
        "その他市町村長が必要と認める事項": null,
        "受入対象者": null,
        "備考": ""
      }
    },
    {
      "type": "Feature",
      "geometry": {
        "type": "Point",
        "coordinates": [
          143.448936,
          42.920988
        ]
      },
      "properties": {
        "NO": 4590,
        "共通ID": "E0164400026121",
        "都道府県名及び市町村名": "北海道池田町",
        "施設・場所名": "総合体育館・図書館",
        "住所": "北海道池田町字西一条１地先",
        "指定緊急避難場所との住所同一": "1",
        "その他市町村長が必要と認める事項": null,
        "受入対象者": "要配慮者",
        "備考": ""
      }
    },
    {
      "type": "Feature",
      "geometry": {
        "type": "Point",
        "coordinates": [
          143.449487,
          42.920063
        ]
      },
      "properties": {
        "NO": 4591,
        "共通ID": "E0164400026122",
        "都道府県名及び市町村名": "北海道池田町",
        "施設・場所名": "田園ホール",
        "住所": "北海道池田町字西一条１地先",
        "指定緊急避難場所との住所同一": "1",
        "その他市町村長が必要と認める事項": null,
        "受入対象者": "要配慮者",
        "備考": ""
      }
    },
    {
      "type": "Feature",
      "geometry": {
        "type": "Point",
        "coordinates": [
          143.445852,
          42.925853
        ]
      },
      "properties": {
        "NO": 4592,
        "共通ID": "E0164400031121",
        "都道府県名及び市町村名": "北海道池田町",
        "施設・場所名": "池田町保健センター",
        "住所": "北海道池田町字西三条5-2",
        "指定緊急避難場所との住所同一": "",
        "その他市町村長が必要と認める事項": null,
        "受入対象者": "要配慮者",
        "備考": ""
      }
    },
    {
      "type": "Feature",
      "geometry": {
        "type": "Point",
        "coordinates": [
          143.445526,
          42.928864
        ]
      },
      "properties": {
        "NO": 4593,
        "共通ID": "E0164400032111",
        "都道府県名及び市町村名": "北海道池田町",
        "施設・場所名": "池田小学校",
        "住所": "北海道池田町字西三条7-3",
        "指定緊急避難場所との住所同一": "1",
        "その他市町村長が必要と認める事項": null,
        "受入対象者": null,
        "備考": ""
      }
    },
    {
      "type": "Feature",
      "geometry": {
        "type": "Point",
        "coordinates": [
          143.44399,
          42.932835
        ]
      },
      "properties": {
        "NO": 4594,
        "共通ID": "E0164400033111",
        "都道府県名及び市町村名": "北海道池田町",
        "施設・場所名": "池田中学校",
        "住所": "北海道池田町字西三条9-1",
        "指定緊急避難場所との住所同一": "1",
        "その他市町村長が必要と認める事項": null,
        "受入対象者": null,
        "備考": ""
      }
    },
    {
      "type": "Feature",
      "geometry": {
        "type": "Point",
        "coordinates": [
          143.443625,
          42.935825
        ]
      },
      "properties": {
        "NO": 4595,
        "共通ID": "E0164400029121",
        "都道府県名及び市町村名": "北海道池田町",
        "施設・場所名": "特別養護老人ホーム池田光寿苑",
        "住所": "北海道池田町字西二条10-2-20",
        "指定緊急避難場所との住所同一": "",
        "その他市町村長が必要と認める事項": null,
        "受入対象者": "要配慮者",
        "備考": ""
      }
    },
    {
      "type": "Feature",
      "geometry": {
        "type": "Point",
        "coordinates": [
          143.443391,
          42.936291
        ]
      },
      "properties": {
        "NO": 4596,
        "共通ID": "E0164400029122",
        "都道府県名及び市町村名": "北海道池田町",
        "施設・場所名": "池田町デイサービスセンター",
        "住所": "北海道池田町字西二条10-2-20",
        "指定緊急避難場所との住所同一": "",
        "その他市町村長が必要と認める事項": null,
        "受入対象者": "要配慮者",
        "備考": ""
      }
    },
    {
      "type": "Feature",
      "geometry": {
        "type": "Point",
        "coordinates": [
          143.436322,
          42.989294
        ]
      },
      "properties": {
        "NO": 4597,
        "共通ID": "E0164400034111",
        "都道府県名及び市町村名": "北海道池田町",
        "施設・場所名": "青山地区コミュニティセンター",
        "住所": "北海道池田町字青山302",
        "指定緊急避難場所との住所同一": "1",
        "その他市町村長が必要と認める事項": null,
        "受入対象者": null,
        "備考": ""
      }
    },
    {
      "type": "Feature",
      "geometry": {
        "type": "Point",
        "coordinates": [
          143.387276,
          42.944613
        ]
      },
      "properties": {
        "NO": 4598,
        "共通ID": "E0164400035111",
        "都道府県名及び市町村名": "北海道池田町",
        "施設・場所名": "千代田地区コミュニティセンター",
        "住所": "北海道池田町字千代田574",
        "指定緊急避難場所との住所同一": "1",
        "その他市町村長が必要と認める事項": null,
        "受入対象者": null,
        "備考": ""
      }
    },
    {
      "type": "Feature",
      "geometry": {
        "type": "Point",
        "coordinates": [
          143.447852,
          42.891511
        ]
      },
      "properties": {
        "NO": 4599,
        "共通ID": "E0164400036111",
        "都道府県名及び市町村名": "北海道池田町",
        "施設・場所名": "川合地区コミュニティセンター",
        "住所": "北海道池田町字川合212",
        "指定緊急避難場所との住所同一": "1",
        "その他市町村長が必要と認める事項": null,
        "受入対象者": null,
        "備考": ""
      }
    },
    {
      "type": "Feature",
      "geometry": {
        "type": "Point",
        "coordinates": [
          143.519975,
          42.947207
        ]
      },
      "properties": {
        "NO": 4600,
        "共通ID": "E0164400039111",
        "都道府県名及び市町村名": "北海道池田町",
        "施設・場所名": "東台自治会館",
        "住所": "北海道池田町字東台586",
        "指定緊急避難場所との住所同一": "1",
        "その他市町村長が必要と認める事項": null,
        "受入対象者": null,
        "備考": ""
      }
    },
    {
      "type": "Feature",
      "geometry": {
        "type": "Point",
        "coordinates": [
          143.551043,
          43.011667
        ]
      },
      "properties": {
        "NO": 4601,
        "共通ID": "E0164400040111",
        "都道府県名及び市町村名": "北海道池田町",
        "施設・場所名": "富岡地区コミュニティセンター",
        "住所": "北海道池田町字富岡102",
        "指定緊急避難場所との住所同一": "1",
        "その他市町村長が必要と認める事項": null,
        "受入対象者": null,
        "備考": ""
      }
    },
    {
      "type": "Feature",
      "geometry": {
        "type": "Point",
        "coordinates": [
          143.426692,
          42.93071
        ]
      },
      "properties": {
        "NO": 4602,
        "共通ID": "E0164400042111",
        "都道府県名及び市町村名": "北海道池田町",
        "施設・場所名": "旧利別小学校",
        "住所": "北海道池田町字利別西町20",
        "指定緊急避難場所との住所同一": "1",
        "その他市町村長が必要と認める事項": null,
        "受入対象者": null,
        "備考": ""
      }
    },
    {
      "type": "Feature",
      "geometry": {
        "type": "Point",
        "coordinates": [
          143.434134,
          42.927945
        ]
      },
      "properties": {
        "NO": 4603,
        "共通ID": "E0164400045111",
        "都道府県名及び市町村名": "北海道池田町",
        "施設・場所名": "西部地域コミュニティセンター",
        "住所": "北海道池田町字利別東町12",
        "指定緊急避難場所との住所同一": "1",
        "その他市町村長が必要と認める事項": null,
        "受入対象者": null,
        "備考": ""
      }
    },
    {
      "type": "Feature",
      "geometry": {
        "type": "Point",
        "coordinates": [
          143.434134,
          42.927945
        ]
      },
      "properties": {
        "NO": 4604,
        "共通ID": "E0164400045121",
        "都道府県名及び市町村名": "北海道池田町",
        "施設・場所名": "西部地域コミュニティセンター",
        "住所": "北海道池田町字利別東町12",
        "指定緊急避難場所との住所同一": "1",
        "その他市町村長が必要と認める事項": null,
        "受入対象者": "要配慮者",
        "備考": ""
      }
    },
    {
      "type": "Feature",
      "geometry": {
        "type": "Point",
        "coordinates": [
          143.427049,
          42.925739
        ]
      },
      "properties": {
        "NO": 4605,
        "共通ID": "E0164400046121",
        "都道府県名及び市町村名": "北海道池田町",
        "施設・場所名": "生活介護事業所こんぱす",
        "住所": "北海道池田町字利別南町6-6",
        "指定緊急避難場所との住所同一": "",
        "その他市町村長が必要と認める事項": null,
        "受入対象者": "要配慮者",
        "備考": ""
      }
    }
  ]
}