{
  "type": "FeatureCollection",
  "name": "016420",
  "features": [
    {
      "type": "Feature",
      "geometry": {
        "type": "Point",
        "coordinates": [
          143.307224,
          42.293892
        ]
      },
      "properties": {
        "NO": 4449,
        "共通ID": "E0164200001111",
        "都道府県名及び市町村名": "北海道広尾町",
        "施設・場所名": "丸山３丁目集会所",
        "住所": "北海道広尾町丸山通南3-1",
        "指定緊急避難場所との住所同一": "",
        "その他市町村長が必要と認める事項": null,
        "受入対象者": null,
        "備考": ""
      }
    },
    {
      "type": "Feature",
      "geometry": {
        "type": "Point",
        "coordinates": [
          143.299378,
          42.296365
        ]
      },
      "properties": {
        "NO": 4450,
        "共通ID": "E0164200002111",
        "都道府県名及び市町村名": "北海道広尾町",
        "施設・場所名": "丸山寿の家",
        "住所": "北海道広尾町丸山通南6-1",
        "指定緊急避難場所との住所同一": "",
        "その他市町村長が必要と認める事項": null,
        "受入対象者": null,
        "備考": ""
      }
    },
    {
      "type": "Feature",
      "geometry": {
        "type": "Point",
        "coordinates": [
          143.306493,
          42.297156
        ]
      },
      "properties": {
        "NO": 4451,
        "共通ID": "E0164200003111",
        "都道府県名及び市町村名": "北海道広尾町",
        "施設・場所名": "広北児童館",
        "住所": "北海道広尾町丸山通北4-31",
        "指定緊急避難場所との住所同一": "",
        "その他市町村長が必要と認める事項": null,
        "受入対象者": null,
        "備考": ""
      }
    },
    {
      "type": "Feature",
      "geometry": {
        "type": "Point",
        "coordinates": [
          143.314639,
          42.301368
        ]
      },
      "properties": {
        "NO": 4452,
        "共通ID": "E0164200004111",
        "都道府県名及び市町村名": "北海道広尾町",
        "施設・場所名": "錦町寿の家",
        "住所": "北海道広尾町錦通南2-5",
        "指定緊急避難場所との住所同一": "",
        "その他市町村長が必要と認める事項": null,
        "受入対象者": null,
        "備考": ""
      }
    },
    {
      "type": "Feature",
      "geometry": {
        "type": "Point",
        "coordinates": [
          143.306472,
          42.298552
        ]
      },
      "properties": {
        "NO": 4453,
        "共通ID": "E0164200005121",
        "都道府県名及び市町村名": "北海道広尾町",
        "施設・場所名": "健康管理センター",
        "住所": "北海道広尾町公園通南4-1",
        "指定緊急避難場所との住所同一": "",
        "その他市町村長が必要と認める事項": null,
        "受入対象者": "乳幼児、妊産婦、病弱者",
        "備考": ""
      }
    },
    {
      "type": "Feature",
      "geometry": {
        "type": "Point",
        "coordinates": [
          143.305884,
          42.299194
        ]
      },
      "properties": {
        "NO": 4454,
        "共通ID": "E0164200005122",
        "都道府県名及び市町村名": "北海道広尾町",
        "施設・場所名": "デイサービスセンター",
        "住所": "北海道広尾町公園通南4-1",
        "指定緊急避難場所との住所同一": "",
        "その他市町村長が必要と認める事項": null,
        "受入対象者": "高齢者、障がい者",
        "備考": ""
      }
    },
    {
      "type": "Feature",
      "geometry": {
        "type": "Point",
        "coordinates": [
          143.305813,
          42.298328
        ]
      },
      "properties": {
        "NO": 4455,
        "共通ID": "E0164200005123",
        "都道府県名及び市町村名": "北海道広尾町",
        "施設・場所名": "養護老人ホーム",
        "住所": "北海道広尾町公園通南4-1",
        "指定緊急避難場所との住所同一": "",
        "その他市町村長が必要と認める事項": null,
        "受入対象者": "高齢者、障がい者",
        "備考": ""
      }
    },
    {
      "type": "Feature",
      "geometry": {
        "type": "Point",
        "coordinates": [
          143.305682,
          42.298965
        ]
      },
      "properties": {
        "NO": 4456,
        "共通ID": "E0164200005124",
        "都道府県名及び市町村名": "北海道広尾町",
        "施設・場所名": "特別養護老人ホーム",
        "住所": "北海道広尾町公園通南4-1",
        "指定緊急避難場所との住所同一": "",
        "その他市町村長が必要と認める事項": null,
        "受入対象者": "高齢者、障がい者",
        "備考": ""
      }
    },
    {
      "type": "Feature",
      "geometry": {
        "type": "Point",
        "coordinates": [
          143.303754,
          42.298687
        ]
      },
      "properties": {
        "NO": 4457,
        "共通ID": "E0164200006121",
        "都道府県名及び市町村名": "北海道広尾町",
        "施設・場所名": "多機能型事業所「ゆうゆう舎」",
        "住所": "北海道広尾町公園通南4-10-1",
        "指定緊急避難場所との住所同一": "",
        "その他市町村長が必要と認める事項": null,
        "受入対象者": "障がい者",
        "備考": ""
      }
    },
    {
      "type": "Feature",
      "geometry": {
        "type": "Point",
        "coordinates": [
          143.30504,
          42.298627
        ]
      },
      "properties": {
        "NO": 4458,
        "共通ID": "E0164200007121",
        "都道府県名及び市町村名": "北海道広尾町",
        "施設・場所名": "生活支援ハウス",
        "住所": "北海道広尾町公園通南4-5",
        "指定緊急避難場所との住所同一": "",
        "その他市町村長が必要と認める事項": null,
        "受入対象者": "高齢者",
        "備考": ""
      }
    },
    {
      "type": "Feature",
      "geometry": {
        "type": "Point",
        "coordinates": [
          143.303803,
          42.300479
        ]
      },
      "properties": {
        "NO": 4459,
        "共通ID": "E0164200008111",
        "都道府県名及び市町村名": "北海道広尾町",
        "施設・場所名": "広尾小学校",
        "住所": "北海道広尾町公園通南4-9",
        "指定緊急避難場所との住所同一": "1",
        "その他市町村長が必要と認める事項": null,
        "受入対象者": null,
        "備考": ""
      }
    },
    {
      "type": "Feature",
      "geometry": {
        "type": "Point",
        "coordinates": [
          143.312999,
          42.30046
        ]
      },
      "properties": {
        "NO": 4460,
        "共通ID": "E0164200009111",
        "都道府県名及び市町村名": "北海道広尾町",
        "施設・場所名": "青少年研修センター",
        "住所": "北海道広尾町公園通北2-51",
        "指定緊急避難場所との住所同一": "1",
        "その他市町村長が必要と認める事項": null,
        "受入対象者": null,
        "備考": ""
      }
    },
    {
      "type": "Feature",
      "geometry": {
        "type": "Point",
        "coordinates": [
          143.314198,
          42.300606
        ]
      },
      "properties": {
        "NO": 4461,
        "共通ID": "E0164200010111",
        "都道府県名及び市町村名": "北海道広尾町",
        "施設・場所名": "ひろお保育園",
        "住所": "北海道広尾町公園通北2-51-2",
        "指定緊急避難場所との住所同一": "",
        "その他市町村長が必要と認める事項": null,
        "受入対象者": null,
        "備考": ""
      }
    },
    {
      "type": "Feature",
      "geometry": {
        "type": "Point",
        "coordinates": [
          143.317996,
          42.221862
        ]
      },
      "properties": {
        "NO": 4462,
        "共通ID": "E0164200011111",
        "都道府県名及び市町村名": "北海道広尾町",
        "施設・場所名": "音調津総合センター",
        "住所": "北海道広尾町字音調津117",
        "指定緊急避難場所との住所同一": "",
        "その他市町村長が必要と認める事項": null,
        "受入対象者": null,
        "備考": ""
      }
    },
    {
      "type": "Feature",
      "geometry": {
        "type": "Point",
        "coordinates": [
          143.316499,
          42.21511
        ]
      },
      "properties": {
        "NO": 4463,
        "共通ID": "E0164200012111",
        "都道府県名及び市町村名": "北海道広尾町",
        "施設・場所名": "音調津避難施設",
        "住所": "北海道広尾町字音調津153-1",
        "指定緊急避難場所との住所同一": "1",
        "その他市町村長が必要と認める事項": "",
        "受入対象者": "",
        "備考": ""
      }
    },
    {
      "type": "Feature",
      "geometry": {
        "type": "Point",
        "coordinates": [
          143.290634,
          42.264336
        ]
      },
      "properties": {
        "NO": 4464,
        "共通ID": "E0164200049111",
        "都道府県名及び市町村名": "北海道広尾町",
        "施設・場所名": "広尾町葬斎場",
        "住所": "北海道広尾町字茂寄南１号18-2",
        "指定緊急避難場所との住所同一": "",
        "その他市町村長が必要と認める事項": "",
        "受入対象者": "",
        "備考": ""
      }
    },
    {
      "type": "Feature",
      "geometry": {
        "type": "Point",
        "coordinates": [
          143.318724,
          42.41116
        ]
      },
      "properties": {
        "NO": 4465,
        "共通ID": "E0164200018111",
        "都道府県名及び市町村名": "北海道広尾町",
        "施設・場所名": "東豊似農業センター",
        "住所": "北海道広尾町字紋別１５線46",
        "指定緊急避難場所との住所同一": "",
        "その他市町村長が必要と認める事項": null,
        "受入対象者": null,
        "備考": ""
      }
    },
    {
      "type": "Feature",
      "geometry": {
        "type": "Point",
        "coordinates": [
          143.304503,
          42.39994
        ]
      },
      "properties": {
        "NO": 4466,
        "共通ID": "E0164200019111",
        "都道府県名及び市町村名": "北海道広尾町",
        "施設・場所名": "豊似小学校",
        "住所": "北海道広尾町字紋別１８線50",
        "指定緊急避難場所との住所同一": "",
        "その他市町村長が必要と認める事項": null,
        "受入対象者": null,
        "備考": ""
      }
    },
    {
      "type": "Feature",
      "geometry": {
        "type": "Point",
        "coordinates": [
          143.305068,
          42.395936
        ]
      },
      "properties": {
        "NO": 4467,
        "共通ID": "E0164200020111",
        "都道府県名及び市町村名": "北海道広尾町",
        "施設・場所名": "豊似寿の家",
        "住所": "北海道広尾町字紋別１９線42",
        "指定緊急避難場所との住所同一": "",
        "その他市町村長が必要と認める事項": null,
        "受入対象者": null,
        "備考": ""
      }
    },
    {
      "type": "Feature",
      "geometry": {
        "type": "Point",
        "coordinates": [
          143.301479,
          42.398911
        ]
      },
      "properties": {
        "NO": 4468,
        "共通ID": "E0164200021111",
        "都道府県名及び市町村名": "北海道広尾町",
        "施設・場所名": "農村環境改善センター",
        "住所": "北海道広尾町字紋別１９線51-12",
        "指定緊急避難場所との住所同一": "",
        "その他市町村長が必要と認める事項": null,
        "受入対象者": null,
        "備考": ""
      }
    },
    {
      "type": "Feature",
      "geometry": {
        "type": "Point",
        "coordinates": [
          143.301776,
          42.398178
        ]
      },
      "properties": {
        "NO": 4469,
        "共通ID": "E0164200022111",
        "都道府県名及び市町村名": "北海道広尾町",
        "施設・場所名": "豊似保育所",
        "住所": "北海道広尾町字紋別１９線51-27",
        "指定緊急避難場所との住所同一": "",
        "その他市町村長が必要と認める事項": null,
        "受入対象者": null,
        "備考": ""
      }
    },
    {
      "type": "Feature",
      "geometry": {
        "type": "Point",
        "coordinates": [
          143.23894,
          42.415341
        ]
      },
      "properties": {
        "NO": 4470,
        "共通ID": "E0164200023111",
        "都道府県名及び市町村名": "北海道広尾町",
        "施設・場所名": "紋別研修センター",
        "住所": "北海道広尾町字紋別２０線110-1",
        "指定緊急避難場所との住所同一": "",
        "その他市町村長が必要と認める事項": "",
        "受入対象者": "",
        "備考": ""
      }
    },
    {
      "type": "Feature",
      "geometry": {
        "type": "Point",
        "coordinates": [
          143.28538,
          42.347049
        ]
      },
      "properties": {
        "NO": 4471,
        "共通ID": "E0164200024111",
        "都道府県名及び市町村名": "北海道広尾町",
        "施設・場所名": "担い手会館",
        "住所": "北海道広尾町字野塚１１線44-1",
        "指定緊急避難場所との住所同一": "",
        "その他市町村長が必要と認める事項": null,
        "受入対象者": null,
        "備考": ""
      }
    },
    {
      "type": "Feature",
      "geometry": {
        "type": "Point",
        "coordinates": [
          143.289769,
          42.3628
        ]
      },
      "properties": {
        "NO": 4472,
        "共通ID": "E0164200025111",
        "都道府県名及び市町村名": "北海道広尾町",
        "施設・場所名": "野塚農業センター",
        "住所": "北海道広尾町字野塚８線44-1",
        "指定緊急避難場所との住所同一": "",
        "その他市町村長が必要と認める事項": null,
        "受入対象者": null,
        "備考": ""
      }
    },
    {
      "type": "Feature",
      "geometry": {
        "type": "Point",
        "coordinates": [
          143.293191,
          42.354682
        ]
      },
      "properties": {
        "NO": 4473,
        "共通ID": "E0164200026111",
        "都道府県名及び市町村名": "北海道広尾町",
        "施設・場所名": "旧野塚小学校",
        "住所": "北海道広尾町字野塚９線40",
        "指定緊急避難場所との住所同一": "",
        "その他市町村長が必要と認める事項": null,
        "受入対象者": null,
        "備考": ""
      }
    },
    {
      "type": "Feature",
      "geometry": {
        "type": "Point",
        "coordinates": [
          143.292773,
          42.357033
        ]
      },
      "properties": {
        "NO": 4474,
        "共通ID": "E0164200027111",
        "都道府県名及び市町村名": "北海道広尾町",
        "施設・場所名": "野塚公民館",
        "住所": "北海道広尾町字野塚９線97",
        "指定緊急避難場所との住所同一": "",
        "その他市町村長が必要と認める事項": null,
        "受入対象者": null,
        "備考": ""
      }
    },
    {
      "type": "Feature",
      "geometry": {
        "type": "Point",
        "coordinates": [
          143.293088,
          42.357103
        ]
      },
      "properties": {
        "NO": 4475,
        "共通ID": "E0164200028111",
        "都道府県名及び市町村名": "北海道広尾町",
        "施設・場所名": "野塚寿の家",
        "住所": "北海道広尾町字野塚９線98",
        "指定緊急避難場所との住所同一": "",
        "その他市町村長が必要と認める事項": null,
        "受入対象者": null,
        "備考": ""
      }
    },
    {
      "type": "Feature",
      "geometry": {
        "type": "Point",
        "coordinates": [
          143.317782,
          42.282642
        ]
      },
      "properties": {
        "NO": 4476,
        "共通ID": "E0164200029111",
        "都道府県名及び市町村名": "北海道広尾町",
        "施設・場所名": "東地区集会所たんぽぽ会館",
        "住所": "北海道広尾町西一条1-2",
        "指定緊急避難場所との住所同一": "",
        "その他市町村長が必要と認める事項": null,
        "受入対象者": null,
        "備考": ""
      }
    },
    {
      "type": "Feature",
      "geometry": {
        "type": "Point",
        "coordinates": [
          143.311814,
          42.28603
        ]
      },
      "properties": {
        "NO": 4477,
        "共通ID": "E0164200030111",
        "都道府県名及び市町村名": "北海道広尾町",
        "施設・場所名": "コミュニティセンター",
        "住所": "北海道広尾町西三条7-2-1",
        "指定緊急避難場所との住所同一": "1",
        "その他市町村長が必要と認める事項": null,
        "受入対象者": null,
        "備考": ""
      }
    },
    {
      "type": "Feature",
      "geometry": {
        "type": "Point",
        "coordinates": [
          143.314366,
          42.291383
        ]
      },
      "properties": {
        "NO": 4478,
        "共通ID": "E0164200032111",
        "都道府県名及び市町村名": "北海道広尾町",
        "施設・場所名": "老人福祉センター",
        "住所": "北海道広尾町東一条11-12",
        "指定緊急避難場所との住所同一": "",
        "その他市町村長が必要と認める事項": null,
        "受入対象者": null,
        "備考": ""
      }
    },
    {
      "type": "Feature",
      "geometry": {
        "type": "Point",
        "coordinates": [
          143.316849,
          42.291258
        ]
      },
      "properties": {
        "NO": 4479,
        "共通ID": "E0164200033111",
        "都道府県名及び市町村名": "北海道広尾町",
        "施設・場所名": "児童福祉会館",
        "住所": "北海道広尾町東二条10-1",
        "指定緊急避難場所との住所同一": "",
        "その他市町村長が必要と認める事項": null,
        "受入対象者": null,
        "備考": ""
      }
    },
    {
      "type": "Feature",
      "geometry": {
        "type": "Point",
        "coordinates": [
          143.314913,
          42.297101
        ]
      },
      "properties": {
        "NO": 4480,
        "共通ID": "E0164200035111",
        "都道府県名及び市町村名": "北海道広尾町",
        "施設・場所名": "広尾高校",
        "住所": "北海道広尾町並木通東1-10",
        "指定緊急避難場所との住所同一": "1",
        "その他市町村長が必要と認める事項": null,
        "受入対象者": null,
        "備考": ""
      }
    },
    {
      "type": "Feature",
      "geometry": {
        "type": "Point",
        "coordinates": [
          143.315731,
          42.294585
        ]
      },
      "properties": {
        "NO": 4481,
        "共通ID": "E0164200036111",
        "都道府県名及び市町村名": "北海道広尾町",
        "施設・場所名": "広尾中学校",
        "住所": "北海道広尾町並木通東1-11",
        "指定緊急避難場所との住所同一": "",
        "その他市町村長が必要と認める事項": null,
        "受入対象者": null,
        "備考": ""
      }
    },
    {
      "type": "Feature",
      "geometry": {
        "type": "Point",
        "coordinates": [
          143.318556,
          42.302909
        ]
      },
      "properties": {
        "NO": 4482,
        "共通ID": "E0164200037111",
        "都道府県名及び市町村名": "北海道広尾町",
        "施設・場所名": "並木町寿の家",
        "住所": "北海道広尾町並木通東3-1-2",
        "指定緊急避難場所との住所同一": "",
        "その他市町村長が必要と認める事項": null,
        "受入対象者": null,
        "備考": ""
      }
    },
    {
      "type": "Feature",
      "geometry": {
        "type": "Point",
        "coordinates": [
          143.320034,
          42.307298
        ]
      },
      "properties": {
        "NO": 4483,
        "共通ID": "E0164200038111",
        "都道府県名及び市町村名": "北海道広尾町",
        "施設・場所名": "広尾町消防総合庁舎",
        "住所": "北海道広尾町並木通東4-4",
        "指定緊急避難場所との住所同一": "",
        "その他市町村長が必要と認める事項": null,
        "受入対象者": null,
        "備考": ""
      }
    },
    {
      "type": "Feature",
      "geometry": {
        "type": "Point",
        "coordinates": [
          143.318664,
          42.284724
        ]
      },
      "properties": {
        "NO": 4484,
        "共通ID": "E0164200039111",
        "都道府県名及び市町村名": "北海道広尾町",
        "施設・場所名": "本通３丁目集会所",
        "住所": "北海道広尾町本通3-1-6",
        "指定緊急避難場所との住所同一": "",
        "その他市町村長が必要と認める事項": null,
        "受入対象者": null,
        "備考": ""
      }
    },
    {
      "type": "Feature",
      "geometry": {
        "type": "Point",
        "coordinates": [
          143.317069,
          42.286003
        ]
      },
      "properties": {
        "NO": 4485,
        "共通ID": "E0164200040111",
        "都道府県名及び市町村名": "北海道広尾町",
        "施設・場所名": "広尾町商工会館",
        "住所": "北海道広尾町本通5-1",
        "指定緊急避難場所との住所同一": "",
        "その他市町村長が必要と認める事項": null,
        "受入対象者": null,
        "備考": ""
      }
    },
    {
      "type": "Feature",
      "geometry": {
        "type": "Point",
        "coordinates": [
          143.294415,
          42.271702
        ]
      },
      "properties": {
        "NO": 4486,
        "共通ID": "E0164200041111",
        "都道府県名及び市町村名": "北海道広尾町",
        "施設・場所名": "山フンべ集会所",
        "住所": "北海道広尾町茂寄南５線7",
        "指定緊急避難場所との住所同一": "",
        "その他市町村長が必要と認める事項": null,
        "受入対象者": null,
        "備考": ""
      }
    }
  ]
}