{
  "type": "FeatureCollection",
  "name": "016462",
  "features": [
    {
      "type": "Feature",
      "geometry": {
        "type": "Point",
        "coordinates": [
          143.608016,
          43.136122
        ]
      },
      "properties": {
        "NO": 4636,
        "共通ID": "E0164600003111",
        "都道府県名及び市町村名": "北海道本別町",
        "施設・場所名": "栄町児童館",
        "住所": "北海道本別町栄町70-2",
        "指定緊急避難場所との住所同一": "1",
        "その他市町村長が必要と認める事項": "",
        "受入対象者": "",
        "備考": ""
      }
    },
    {
      "type": "Feature",
      "geometry": {
        "type": "Point",
        "coordinates": [
          143.444814,
          43.115033
        ]
      },
      "properties": {
        "NO": 4637,
        "共通ID": "E0164600004111",
        "都道府県名及び市町村名": "北海道本別町",
        "施設・場所名": "押帯地区集会場",
        "住所": "北海道本別町押帯182-4",
        "指定緊急避難場所との住所同一": "",
        "その他市町村長が必要と認める事項": "",
        "受入対象者": "",
        "備考": ""
      }
    },
    {
      "type": "Feature",
      "geometry": {
        "type": "Point",
        "coordinates": [
          143.397196,
          43.159544
        ]
      },
      "properties": {
        "NO": 4638,
        "共通ID": "E0164600005111",
        "都道府県名及び市町村名": "北海道本別町",
        "施設・場所名": "上押帯地区農作業準備休憩施設",
        "住所": "北海道本別町押帯426-18",
        "指定緊急避難場所との住所同一": "",
        "その他市町村長が必要と認める事項": "",
        "受入対象者": "",
        "備考": ""
      }
    },
    {
      "type": "Feature",
      "geometry": {
        "type": "Point",
        "coordinates": [
          143.598989,
          43.109632
        ]
      },
      "properties": {
        "NO": 4639,
        "共通ID": "E0164600007111",
        "都道府県名及び市町村名": "北海道本別町",
        "施設・場所名": "共栄集会場",
        "住所": "北海道本別町共栄9-34",
        "指定緊急避難場所との住所同一": "",
        "その他市町村長が必要と認める事項": "",
        "受入対象者": "",
        "備考": ""
      }
    },
    {
      "type": "Feature",
      "geometry": {
        "type": "Point",
        "coordinates": [
          143.616146,
          43.120526
        ]
      },
      "properties": {
        "NO": 4640,
        "共通ID": "E0164600008111",
        "都道府県名及び市町村名": "北海道本別町",
        "施設・場所名": "ふれあい交流館",
        "住所": "北海道本別町向陽町23-1",
        "指定緊急避難場所との住所同一": "1",
        "その他市町村長が必要と認める事項": "",
        "受入対象者": "",
        "備考": ""
      }
    },
    {
      "type": "Feature",
      "geometry": {
        "type": "Point",
        "coordinates": [
          143.614621,
          43.127718
        ]
      },
      "properties": {
        "NO": 4641,
        "共通ID": "E0164600009111",
        "都道府県名及び市町村名": "北海道本別町",
        "施設・場所名": "銀河アリーナ",
        "住所": "北海道本別町山手町5-87",
        "指定緊急避難場所との住所同一": "1",
        "その他市町村長が必要と認める事項": "",
        "受入対象者": "",
        "備考": ""
      }
    },
    {
      "type": "Feature",
      "geometry": {
        "type": "Point",
        "coordinates": [
          143.605492,
          43.147198
        ]
      },
      "properties": {
        "NO": 4642,
        "共通ID": "E0164600010111",
        "都道府県名及び市町村名": "北海道本別町",
        "施設・場所名": "上本別生活館",
        "住所": "北海道本別町上本別22-5",
        "指定緊急避難場所との住所同一": "1",
        "その他市町村長が必要と認める事項": "",
        "受入対象者": "",
        "備考": ""
      }
    },
    {
      "type": "Feature",
      "geometry": {
        "type": "Point",
        "coordinates": [
          143.597228,
          43.132584
        ]
      },
      "properties": {
        "NO": 4643,
        "共通ID": "E0164600013111",
        "都道府県名及び市町村名": "北海道本別町",
        "施設・場所名": "新町集会場",
        "住所": "北海道本別町新町19-4",
        "指定緊急避難場所との住所同一": "",
        "その他市町村長が必要と認める事項": "",
        "受入対象者": "",
        "備考": ""
      }
    },
    {
      "type": "Feature",
      "geometry": {
        "type": "Point",
        "coordinates": [
          143.569766,
          43.168007
        ]
      },
      "properties": {
        "NO": 4644,
        "共通ID": "E0164600014111",
        "都道府県名及び市町村名": "北海道本別町",
        "施設・場所名": "農業大学校",
        "住所": "北海道本別町西仙美里25-1",
        "指定緊急避難場所との住所同一": "",
        "その他市町村長が必要と認める事項": "",
        "受入対象者": "",
        "備考": ""
      }
    },
    {
      "type": "Feature",
      "geometry": {
        "type": "Point",
        "coordinates": [
          143.520835,
          43.228903
        ]
      },
      "properties": {
        "NO": 4645,
        "共通ID": "E0164600015111",
        "都道府県名及び市町村名": "北海道本別町",
        "施設・場所名": "新明台地区集会場",
        "住所": "北海道本別町西仙美里328-2",
        "指定緊急避難場所との住所同一": "",
        "その他市町村長が必要と認める事項": "",
        "受入対象者": "",
        "備考": ""
      }
    },
    {
      "type": "Feature",
      "geometry": {
        "type": "Point",
        "coordinates": [
          143.536,
          43.153263
        ]
      },
      "properties": {
        "NO": 4646,
        "共通ID": "E0164600016111",
        "都道府県名及び市町村名": "北海道本別町",
        "施設・場所名": "美里別中地区集会場",
        "住所": "北海道本別町西美里別262-2",
        "指定緊急避難場所との住所同一": "",
        "その他市町村長が必要と認める事項": "",
        "受入対象者": "",
        "備考": ""
      }
    },
    {
      "type": "Feature",
      "geometry": {
        "type": "Point",
        "coordinates": [
          143.48575,
          43.178313
        ]
      },
      "properties": {
        "NO": 4647,
        "共通ID": "E0164600017111",
        "都道府県名及び市町村名": "北海道本別町",
        "施設・場所名": "美里別西上地区農作業準備休憩施設",
        "住所": "北海道本別町西美里別494-3",
        "指定緊急避難場所との住所同一": "",
        "その他市町村長が必要と認める事項": "",
        "受入対象者": "",
        "備考": ""
      }
    },
    {
      "type": "Feature",
      "geometry": {
        "type": "Point",
        "coordinates": [
          143.591286,
          43.121954
        ]
      },
      "properties": {
        "NO": 4648,
        "共通ID": "E0164600018121",
        "都道府県名及び市町村名": "北海道本別町",
        "施設・場所名": "総合ケアセンター",
        "住所": "北海道本別町西美里別6-15",
        "指定緊急避難場所との住所同一": "",
        "その他市町村長が必要と認める事項": "",
        "受入対象者": "要配慮者",
        "備考": ""
      }
    },
    {
      "type": "Feature",
      "geometry": {
        "type": "Point",
        "coordinates": [
          143.590268,
          43.121785
        ]
      },
      "properties": {
        "NO": 4649,
        "共通ID": "E0164600019121",
        "都道府県名及び市町村名": "北海道本別町",
        "施設・場所名": "アメニティ本別",
        "住所": "北海道本別町西美里別6-18",
        "指定緊急避難場所との住所同一": "",
        "その他市町村長が必要と認める事項": "",
        "受入対象者": "要配慮者",
        "備考": ""
      }
    },
    {
      "type": "Feature",
      "geometry": {
        "type": "Point",
        "coordinates": [
          143.556608,
          43.128624
        ]
      },
      "properties": {
        "NO": 4650,
        "共通ID": "E0164600020111",
        "都道府県名及び市町村名": "北海道本別町",
        "施設・場所名": "西美里別地区農作業準備休憩施設",
        "住所": "北海道本別町西美里別86-5",
        "指定緊急避難場所との住所同一": "",
        "その他市町村長が必要と認める事項": "",
        "受入対象者": "",
        "備考": ""
      }
    },
    {
      "type": "Feature",
      "geometry": {
        "type": "Point",
        "coordinates": [
          143.588575,
          43.179395
        ]
      },
      "properties": {
        "NO": 4651,
        "共通ID": "E0164600021121",
        "都道府県名及び市町村名": "北海道本別町",
        "施設・場所名": "陽だまりの里",
        "住所": "北海道本別町仙美里元町149-2",
        "指定緊急避難場所との住所同一": "",
        "その他市町村長が必要と認める事項": "",
        "受入対象者": "要配慮者",
        "備考": ""
      }
    },
    {
      "type": "Feature",
      "geometry": {
        "type": "Point",
        "coordinates": [
          143.587322,
          43.18215
        ]
      },
      "properties": {
        "NO": 4652,
        "共通ID": "E0164600022111",
        "都道府県名及び市町村名": "北海道本別町",
        "施設・場所名": "旧仙美里中学校",
        "住所": "北海道本別町仙美里元町151",
        "指定緊急避難場所との住所同一": "",
        "その他市町村長が必要と認める事項": "",
        "受入対象者": "",
        "備考": ""
      }
    },
    {
      "type": "Feature",
      "geometry": {
        "type": "Point",
        "coordinates": [
          143.591114,
          43.178467
        ]
      },
      "properties": {
        "NO": 4653,
        "共通ID": "E0164600023111",
        "都道府県名及び市町村名": "北海道本別町",
        "施設・場所名": "仙美里地区公民館",
        "住所": "北海道本別町仙美里元町166-19",
        "指定緊急避難場所との住所同一": "",
        "その他市町村長が必要と認める事項": "",
        "受入対象者": "",
        "備考": ""
      }
    },
    {
      "type": "Feature",
      "geometry": {
        "type": "Point",
        "coordinates": [
          143.591114,
          43.178467
        ]
      },
      "properties": {
        "NO": 4654,
        "共通ID": "E0164600023121",
        "都道府県名及び市町村名": "北海道本別町",
        "施設・場所名": "仙美里地区公民館",
        "住所": "北海道本別町仙美里元町166-19",
        "指定緊急避難場所との住所同一": "",
        "その他市町村長が必要と認める事項": "",
        "受入対象者": "要配慮者",
        "備考": ""
      }
    },
    {
      "type": "Feature",
      "geometry": {
        "type": "Point",
        "coordinates": [
          143.589917,
          43.178228
        ]
      },
      "properties": {
        "NO": 4655,
        "共通ID": "E0164600024111",
        "都道府県名及び市町村名": "北海道本別町",
        "施設・場所名": "仙美里小学校",
        "住所": "北海道本別町仙美里元町80",
        "指定緊急避難場所との住所同一": "1",
        "その他市町村長が必要と認める事項": "",
        "受入対象者": "",
        "備考": ""
      }
    },
    {
      "type": "Feature",
      "geometry": {
        "type": "Point",
        "coordinates": [
          143.623705,
          43.127126
        ]
      },
      "properties": {
        "NO": 4656,
        "共通ID": "E0164600025111",
        "都道府県名及び市町村名": "北海道本別町",
        "施設・場所名": "義経の館",
        "住所": "北海道本別町東町51-2",
        "指定緊急避難場所との住所同一": "",
        "その他市町村長が必要と認める事項": "",
        "受入対象者": "",
        "備考": ""
      }
    },
    {
      "type": "Feature",
      "geometry": {
        "type": "Point",
        "coordinates": [
          143.610394,
          43.120397
        ]
      },
      "properties": {
        "NO": 4657,
        "共通ID": "E0164600028111",
        "都道府県名及び市町村名": "北海道本別町",
        "施設・場所名": "南地区集会場",
        "住所": "北海道本別町南2-5-1",
        "指定緊急避難場所との住所同一": "",
        "その他市町村長が必要と認める事項": "",
        "受入対象者": "",
        "備考": ""
      }
    },
    {
      "type": "Feature",
      "geometry": {
        "type": "Point",
        "coordinates": [
          143.606451,
          43.119054
        ]
      },
      "properties": {
        "NO": 4658,
        "共通ID": "E0164600030111",
        "都道府県名及び市町村名": "北海道本別町",
        "施設・場所名": "こども園ほんべつ",
        "住所": "北海道本別町南3-16-4",
        "指定緊急避難場所との住所同一": "",
        "その他市町村長が必要と認める事項": "",
        "受入対象者": "",
        "備考": ""
      }
    },
    {
      "type": "Feature",
      "geometry": {
        "type": "Point",
        "coordinates": [
          143.60479,
          43.116155
        ]
      },
      "properties": {
        "NO": 4659,
        "共通ID": "E0164600031111",
        "都道府県名及び市町村名": "北海道本別町",
        "施設・場所名": "世代交流館",
        "住所": "北海道本別町南4-1",
        "指定緊急避難場所との住所同一": "1",
        "その他市町村長が必要と認める事項": "",
        "受入対象者": "",
        "備考": ""
      }
    },
    {
      "type": "Feature",
      "geometry": {
        "type": "Point",
        "coordinates": [
          143.611086,
          43.118247
        ]
      },
      "properties": {
        "NO": 4660,
        "共通ID": "E0164600033111",
        "都道府県名及び市町村名": "北海道本別町",
        "施設・場所名": "本別生活館",
        "住所": "北海道本別町柏木町66-1",
        "指定緊急避難場所との住所同一": "1",
        "その他市町村長が必要と認める事項": "",
        "受入対象者": "",
        "備考": ""
      }
    },
    {
      "type": "Feature",
      "geometry": {
        "type": "Point",
        "coordinates": [
          143.3975,
          43.160106
        ]
      },
      "properties": {
        "NO": 4661,
        "共通ID": "E0164600034111",
        "都道府県名及び市町村名": "北海道本別町",
        "施設・場所名": "美帯地区農作業準備休憩施設",
        "住所": "北海道本別町美蘭別273-14",
        "指定緊急避難場所との住所同一": "",
        "その他市町村長が必要と認める事項": "",
        "受入対象者": "",
        "備考": ""
      }
    },
    {
      "type": "Feature",
      "geometry": {
        "type": "Point",
        "coordinates": [
          143.489719,
          43.187788
        ]
      },
      "properties": {
        "NO": 4662,
        "共通ID": "E0164600035111",
        "都道府県名及び市町村名": "北海道本別町",
        "施設・場所名": "美里別地区公民館",
        "住所": "北海道本別町美里別440-8",
        "指定緊急避難場所との住所同一": "",
        "その他市町村長が必要と認める事項": "",
        "受入対象者": "",
        "備考": ""
      }
    },
    {
      "type": "Feature",
      "geometry": {
        "type": "Point",
        "coordinates": [
          143.609165,
          43.123524
        ]
      },
      "properties": {
        "NO": 4663,
        "共通ID": "E0164600036111",
        "都道府県名及び市町村名": "北海道本別町",
        "施設・場所名": "中央公民館",
        "住所": "北海道本別町北1-4-27",
        "指定緊急避難場所との住所同一": "",
        "その他市町村長が必要と認める事項": "",
        "受入対象者": "",
        "備考": ""
      }
    },
    {
      "type": "Feature",
      "geometry": {
        "type": "Point",
        "coordinates": [
          143.609196,
          43.123386
        ]
      },
      "properties": {
        "NO": 4664,
        "共通ID": "E0164600036121",
        "都道府県名及び市町村名": "北海道本別町",
        "施設・場所名": "老人福祉センター",
        "住所": "北海道本別町北1-4-27",
        "指定緊急避難場所との住所同一": "",
        "その他市町村長が必要と認める事項": "",
        "受入対象者": "要配慮者",
        "備考": ""
      }
    },
    {
      "type": "Feature",
      "geometry": {
        "type": "Point",
        "coordinates": [
          143.609815,
          43.12445
        ]
      },
      "properties": {
        "NO": 4665,
        "共通ID": "E0164600038111",
        "都道府県名及び市町村名": "北海道本別町",
        "施設・場所名": "本別町体育館",
        "住所": "北海道本別町北2-4-2",
        "指定緊急避難場所との住所同一": "",
        "その他市町村長が必要と認める事項": "",
        "受入対象者": "",
        "備考": ""
      }
    },
    {
      "type": "Feature",
      "geometry": {
        "type": "Point",
        "coordinates": [
          143.613295,
          43.12579
        ]
      },
      "properties": {
        "NO": 4666,
        "共通ID": "E0164600039111",
        "都道府県名及び市町村名": "北海道本別町",
        "施設・場所名": "道の駅（多目的ホール）",
        "住所": "北海道本別町北3-1-1",
        "指定緊急避難場所との住所同一": "",
        "その他市町村長が必要と認める事項": "",
        "受入対象者": "",
        "備考": ""
      }
    },
    {
      "type": "Feature",
      "geometry": {
        "type": "Point",
        "coordinates": [
          143.608427,
          43.128474
        ]
      },
      "properties": {
        "NO": 4667,
        "共通ID": "E0164600042111",
        "都道府県名及び市町村名": "北海道本別町",
        "施設・場所名": "児童発達支援センター",
        "住所": "北海道本別町北5-10-8",
        "指定緊急避難場所との住所同一": "",
        "その他市町村長が必要と認める事項": "",
        "受入対象者": "",
        "備考": ""
      }
    },
    {
      "type": "Feature",
      "geometry": {
        "type": "Point",
        "coordinates": [
          143.609457,
          43.129894
        ]
      },
      "properties": {
        "NO": 4668,
        "共通ID": "E0164600043111",
        "都道府県名及び市町村名": "北海道本別町",
        "施設・場所名": "健康管理センター",
        "住所": "北海道本別町北6-11-4",
        "指定緊急避難場所との住所同一": "",
        "その他市町村長が必要と認める事項": "",
        "受入対象者": "",
        "備考": ""
      }
    },
    {
      "type": "Feature",
      "geometry": {
        "type": "Point",
        "coordinates": [
          143.609457,
          43.129894
        ]
      },
      "properties": {
        "NO": 4669,
        "共通ID": "E0164600043121",
        "都道府県名及び市町村名": "北海道本別町",
        "施設・場所名": "健康管理センター",
        "住所": "北海道本別町北6-11-4",
        "指定緊急避難場所との住所同一": "",
        "その他市町村長が必要と認める事項": "",
        "受入対象者": "要配慮者",
        "備考": ""
      }
    },
    {
      "type": "Feature",
      "geometry": {
        "type": "Point",
        "coordinates": [
          143.609556,
          43.130354
        ]
      },
      "properties": {
        "NO": 4670,
        "共通ID": "E0164600044121",
        "都道府県名及び市町村名": "北海道本別町",
        "施設・場所名": "清流の里",
        "住所": "北海道本別町北6-12-20",
        "指定緊急避難場所との住所同一": "",
        "その他市町村長が必要と認める事項": "",
        "受入対象者": "要配慮者",
        "備考": ""
      }
    },
    {
      "type": "Feature",
      "geometry": {
        "type": "Point",
        "coordinates": [
          143.609776,
          43.130326
        ]
      },
      "properties": {
        "NO": 4671,
        "共通ID": "E0164600044122",
        "都道府県名及び市町村名": "北海道本別町",
        "施設・場所名": "あいの里交流センター",
        "住所": "北海道本別町北6-12-20",
        "指定緊急避難場所との住所同一": "",
        "その他市町村長が必要と認める事項": "",
        "受入対象者": "要配慮者",
        "備考": ""
      }
    },
    {
      "type": "Feature",
      "geometry": {
        "type": "Point",
        "coordinates": [
          143.612357,
          43.132179
        ]
      },
      "properties": {
        "NO": 4672,
        "共通ID": "E0164600046111",
        "都道府県名及び市町村名": "北海道本別町",
        "施設・場所名": "北地区交流センター",
        "住所": "北海道本別町北8-3-2",
        "指定緊急避難場所との住所同一": "",
        "その他市町村長が必要と認める事項": "",
        "受入対象者": "",
        "備考": ""
      }
    },
    {
      "type": "Feature",
      "geometry": {
        "type": "Point",
        "coordinates": [
          143.599624,
          43.124479
        ]
      },
      "properties": {
        "NO": 4673,
        "共通ID": "E0164600047111",
        "都道府県名及び市町村名": "北海道本別町",
        "施設・場所名": "本別中央小学校",
        "住所": "北海道本別町弥生町22-1",
        "指定緊急避難場所との住所同一": "",
        "その他市町村長が必要と認める事項": "",
        "受入対象者": "",
        "備考": ""
      }
    },
    {
      "type": "Feature",
      "geometry": {
        "type": "Point",
        "coordinates": [
          143.601783,
          43.127556
        ]
      },
      "properties": {
        "NO": 4674,
        "共通ID": "E0164600048111",
        "都道府県名及び市町村名": "北海道本別町",
        "施設・場所名": "柔剣道場",
        "住所": "北海道本別町弥生町29",
        "指定緊急避難場所との住所同一": "",
        "その他市町村長が必要と認める事項": "",
        "受入対象者": "",
        "備考": ""
      }
    },
    {
      "type": "Feature",
      "geometry": {
        "type": "Point",
        "coordinates": [
          143.600717,
          43.127964
        ]
      },
      "properties": {
        "NO": 4675,
        "共通ID": "E0164600049111",
        "都道府県名及び市町村名": "北海道本別町",
        "施設・場所名": "本別中学校",
        "住所": "北海道本別町弥生町30",
        "指定緊急避難場所との住所同一": "",
        "その他市町村長が必要と認める事項": "",
        "受入対象者": "",
        "備考": ""
      }
    },
    {
      "type": "Feature",
      "geometry": {
        "type": "Point",
        "coordinates": [
          143.596405,
          43.126658
        ]
      },
      "properties": {
        "NO": 4676,
        "共通ID": "E0164600051111",
        "都道府県名及び市町村名": "北海道本別町",
        "施設・場所名": "本別高等学校",
        "住所": "北海道本別町弥生町49-2",
        "指定緊急避難場所との住所同一": "",
        "その他市町村長が必要と認める事項": "",
        "受入対象者": "",
        "備考": ""
      }
    },
    {
      "type": "Feature",
      "geometry": {
        "type": "Point",
        "coordinates": [
          143.519052,
          43.093381
        ]
      },
      "properties": {
        "NO": 4677,
        "共通ID": "E0164600052111",
        "都道府県名及び市町村名": "北海道本別町",
        "施設・場所名": "勇足中学校",
        "住所": "北海道本別町勇足133-1",
        "指定緊急避難場所との住所同一": "",
        "その他市町村長が必要と認める事項": "",
        "受入対象者": "",
        "備考": ""
      }
    },
    {
      "type": "Feature",
      "geometry": {
        "type": "Point",
        "coordinates": [
          143.519686,
          43.086511
        ]
      },
      "properties": {
        "NO": 4678,
        "共通ID": "E0164600053111",
        "都道府県名及び市町村名": "北海道本別町",
        "施設・場所名": "勇足小学校",
        "住所": "北海道本別町勇足150-1",
        "指定緊急避難場所との住所同一": "1",
        "その他市町村長が必要と認める事項": "",
        "受入対象者": "",
        "備考": ""
      }
    },
    {
      "type": "Feature",
      "geometry": {
        "type": "Point",
        "coordinates": [
          143.519558,
          43.09121
        ]
      },
      "properties": {
        "NO": 4679,
        "共通ID": "E0164600054111",
        "都道府県名及び市町村名": "北海道本別町",
        "施設・場所名": "勇足地区公民館",
        "住所": "北海道本別町勇足元町21-1",
        "指定緊急避難場所との住所同一": "",
        "その他市町村長が必要と認める事項": "",
        "受入対象者": "",
        "備考": ""
      }
    },
    {
      "type": "Feature",
      "geometry": {
        "type": "Point",
        "coordinates": [
          143.519558,
          43.09121
        ]
      },
      "properties": {
        "NO": 4680,
        "共通ID": "E0164600054121",
        "都道府県名及び市町村名": "北海道本別町",
        "施設・場所名": "勇足地区公民館",
        "住所": "北海道本別町勇足元町21-1",
        "指定緊急避難場所との住所同一": "",
        "その他市町村長が必要と認める事項": "",
        "受入対象者": "要配慮者",
        "備考": ""
      }
    },
    {
      "type": "Feature",
      "geometry": {
        "type": "Point",
        "coordinates": [
          143.520923,
          43.0925
        ]
      },
      "properties": {
        "NO": 4681,
        "共通ID": "E0164600055111",
        "都道府県名及び市町村名": "北海道本別町",
        "施設・場所名": "勇足保育所",
        "住所": "北海道本別町勇足元町6",
        "指定緊急避難場所との住所同一": "",
        "その他市町村長が必要と認める事項": "",
        "受入対象者": "",
        "備考": ""
      }
    },
    {
      "type": "Feature",
      "geometry": {
        "type": "Point",
        "coordinates": [
          143.521887,
          43.091982
        ]
      },
      "properties": {
        "NO": 4682,
        "共通ID": "E0164600056121",
        "都道府県名及び市町村名": "北海道本別町",
        "施設・場所名": "ゆうあいの里",
        "住所": "北海道本別町勇足元町6-1",
        "指定緊急避難場所との住所同一": "",
        "その他市町村長が必要と認める事項": "",
        "受入対象者": "要配慮者",
        "備考": ""
      }
    },
    {
      "type": "Feature",
      "geometry": {
        "type": "Point",
        "coordinates": [
          143.521966,
          43.091937
        ]
      },
      "properties": {
        "NO": 4683,
        "共通ID": "E0164600056122",
        "都道府県名及び市町村名": "北海道本別町",
        "施設・場所名": "勇足生きがい館",
        "住所": "北海道本別町勇足元町6-1",
        "指定緊急避難場所との住所同一": "",
        "その他市町村長が必要と認める事項": "",
        "受入対象者": "要配慮者",
        "備考": ""
      }
    },
    {
      "type": "Feature",
      "geometry": {
        "type": "Point",
        "coordinates": [
          143.6101,
          43.117022
        ]
      },
      "properties": {
        "NO": 4684,
        "共通ID": "E0164600058121",
        "都道府県名及び市町村名": "北海道本別町",
        "施設・場所名": "共生きらり",
        "住所": "北海道本別町緑町47-1",
        "指定緊急避難場所との住所同一": "",
        "その他市町村長が必要と認める事項": "",
        "受入対象者": "要配慮者",
        "備考": ""
      }
    }
  ]
}