{
  "type": "FeatureCollection",
  "name": "016411",
  "features": [
    {
      "type": "Feature",
      "geometry": {
        "type": "Point",
        "coordinates": [
          143.277576,
          42.488841
        ]
      },
      "properties": {
        "NO": 4408,
        "共通ID": "E0164100001111",
        "都道府県名及び市町村名": "北海道大樹町",
        "施設・場所名": "福祉センター",
        "住所": "北海道大樹町栄通29",
        "指定緊急避難場所との住所同一": "",
        "その他市町村長が必要と認める事項": null,
        "受入対象者": null,
        "備考": ""
      }
    },
    {
      "type": "Feature",
      "geometry": {
        "type": "Point",
        "coordinates": [
          143.278323,
          42.482222
        ]
      },
      "properties": {
        "NO": 4409,
        "共通ID": "E0164100002111",
        "都道府県名及び市町村名": "北海道大樹町",
        "施設・場所名": "大樹中学校",
        "住所": "北海道大樹町鏡町1",
        "指定緊急避難場所との住所同一": "",
        "その他市町村長が必要と認める事項": null,
        "受入対象者": null,
        "備考": ""
      }
    },
    {
      "type": "Feature",
      "geometry": {
        "type": "Point",
        "coordinates": [
          143.272803,
          42.484419
        ]
      },
      "properties": {
        "NO": 4410,
        "共通ID": "E0164100003111",
        "都道府県名及び市町村名": "北海道大樹町",
        "施設・場所名": "大樹町老人と母子の家",
        "住所": "北海道大樹町鏡町33-13",
        "指定緊急避難場所との住所同一": "",
        "その他市町村長が必要と認める事項": null,
        "受入対象者": null,
        "備考": ""
      }
    },
    {
      "type": "Feature",
      "geometry": {
        "type": "Point",
        "coordinates": [
          143.280102,
          42.488944
        ]
      },
      "properties": {
        "NO": 4411,
        "共通ID": "E0164100004121",
        "都道府県名及び市町村名": "北海道大樹町",
        "施設・場所名": "特別養護老人ホーム",
        "住所": "北海道大樹町暁町6-1",
        "指定緊急避難場所との住所同一": "",
        "その他市町村長が必要と認める事項": null,
        "受入対象者": "要配慮者",
        "備考": ""
      }
    },
    {
      "type": "Feature",
      "geometry": {
        "type": "Point",
        "coordinates": [
          143.280124,
          42.489815
        ]
      },
      "properties": {
        "NO": 4412,
        "共通ID": "E0164100005121",
        "都道府県名及び市町村名": "北海道大樹町",
        "施設・場所名": "高齢者保健福祉推進センター",
        "住所": "北海道大樹町暁町8-1",
        "指定緊急避難場所との住所同一": "",
        "その他市町村長が必要と認める事項": null,
        "受入対象者": "要配慮者",
        "備考": ""
      }
    },
    {
      "type": "Feature",
      "geometry": {
        "type": "Point",
        "coordinates": [
          143.390781,
          42.421482
        ]
      },
      "properties": {
        "NO": 4413,
        "共通ID": "E0164100006111",
        "都道府県名及び市町村名": "北海道大樹町",
        "施設・場所名": "旭行政区会館",
        "住所": "北海道大樹町字旭浜96-7",
        "指定緊急避難場所との住所同一": "",
        "その他市町村長が必要と認める事項": null,
        "受入対象者": null,
        "備考": ""
      }
    },
    {
      "type": "Feature",
      "geometry": {
        "type": "Point",
        "coordinates": [
          143.368412,
          42.477128
        ]
      },
      "properties": {
        "NO": 4414,
        "共通ID": "E0164100007111",
        "都道府県名及び市町村名": "北海道大樹町",
        "施設・場所名": "歴舟地域コミュニティセンター",
        "住所": "北海道大樹町字芽武183",
        "指定緊急避難場所との住所同一": "1",
        "その他市町村長が必要と認める事項": null,
        "受入対象者": null,
        "備考": ""
      }
    },
    {
      "type": "Feature",
      "geometry": {
        "type": "Point",
        "coordinates": [
          143.341219,
          42.485663
        ]
      },
      "properties": {
        "NO": 4415,
        "共通ID": "E0164100008111",
        "都道府県名及び市町村名": "北海道大樹町",
        "施設・場所名": "芽武行政区会館",
        "住所": "北海道大樹町字芽武344-4",
        "指定緊急避難場所との住所同一": "",
        "その他市町村長が必要と認める事項": null,
        "受入対象者": null,
        "備考": ""
      }
    },
    {
      "type": "Feature",
      "geometry": {
        "type": "Point",
        "coordinates": [
          143.397643,
          42.466299
        ]
      },
      "properties": {
        "NO": 4416,
        "共通ID": "E0164100009111",
        "都道府県名及び市町村名": "北海道大樹町",
        "施設・場所名": "更生老人憩いの家",
        "住所": "北海道大樹町字芽武84-3",
        "指定緊急避難場所との住所同一": "",
        "その他市町村長が必要と認める事項": null,
        "受入対象者": null,
        "備考": ""
      }
    },
    {
      "type": "Feature",
      "geometry": {
        "type": "Point",
        "coordinates": [
          143.263265,
          42.460256
        ]
      },
      "properties": {
        "NO": 4417,
        "共通ID": "E0164100010111",
        "都道府県名及び市町村名": "北海道大樹町",
        "施設・場所名": "開進福祉ホーム",
        "住所": "北海道大樹町字開進134-4",
        "指定緊急避難場所との住所同一": "",
        "その他市町村長が必要と認める事項": null,
        "受入対象者": null,
        "備考": ""
      }
    },
    {
      "type": "Feature",
      "geometry": {
        "type": "Point",
        "coordinates": [
          143.253813,
          42.486856
        ]
      },
      "properties": {
        "NO": 4418,
        "共通ID": "E0164100011111",
        "都道府県名及び市町村名": "北海道大樹町",
        "施設・場所名": "振別福祉ホーム",
        "住所": "北海道大樹町字振別173-3",
        "指定緊急避難場所との住所同一": "",
        "その他市町村長が必要と認める事項": null,
        "受入対象者": null,
        "備考": ""
      }
    },
    {
      "type": "Feature",
      "geometry": {
        "type": "Point",
        "coordinates": [
          143.451895,
          42.598617
        ]
      },
      "properties": {
        "NO": 4419,
        "共通ID": "E0164100012111",
        "都道府県名及び市町村名": "北海道大樹町",
        "施設・場所名": "生花行政区会館",
        "住所": "北海道大樹町字生花539",
        "指定緊急避難場所との住所同一": "",
        "その他市町村長が必要と認める事項": null,
        "受入対象者": null,
        "備考": ""
      }
    },
    {
      "type": "Feature",
      "geometry": {
        "type": "Point",
        "coordinates": [
          143.327128,
          42.44653
        ]
      },
      "properties": {
        "NO": 4420,
        "共通ID": "E0164100013111",
        "都道府県名及び市町村名": "北海道大樹町",
        "施設・場所名": "上中島福祉ホーム",
        "住所": "北海道大樹町字石坂105-3",
        "指定緊急避難場所との住所同一": "",
        "その他市町村長が必要と認める事項": null,
        "受入対象者": null,
        "備考": ""
      }
    },
    {
      "type": "Feature",
      "geometry": {
        "type": "Point",
        "coordinates": [
          143.29288,
          42.452936
        ]
      },
      "properties": {
        "NO": 4421,
        "共通ID": "E0164100014111",
        "都道府県名及び市町村名": "北海道大樹町",
        "施設・場所名": "石坂行政区会館",
        "住所": "北海道大樹町字石坂619",
        "指定緊急避難場所との住所同一": "",
        "その他市町村長が必要と認める事項": null,
        "受入対象者": null,
        "備考": ""
      }
    },
    {
      "type": "Feature",
      "geometry": {
        "type": "Point",
        "coordinates": [
          143.15112,
          42.536018
        ]
      },
      "properties": {
        "NO": 4422,
        "共通ID": "E0164100015111",
        "都道府県名及び市町村名": "北海道大樹町",
        "施設・場所名": "相川福祉ホーム",
        "住所": "北海道大樹町字相川142",
        "指定緊急避難場所との住所同一": "",
        "その他市町村長が必要と認める事項": null,
        "受入対象者": null,
        "備考": ""
      }
    },
    {
      "type": "Feature",
      "geometry": {
        "type": "Point",
        "coordinates": [
          143.270415,
          42.499581
        ]
      },
      "properties": {
        "NO": 4423,
        "共通ID": "E0164100018111",
        "都道府県名及び市町村名": "北海道大樹町",
        "施設・場所名": "北大樹会館",
        "住所": "北海道大樹町字大樹1-2",
        "指定緊急避難場所との住所同一": "",
        "その他市町村長が必要と認める事項": null,
        "受入対象者": null,
        "備考": ""
      }
    },
    {
      "type": "Feature",
      "geometry": {
        "type": "Point",
        "coordinates": [
          143.267016,
          42.502221
        ]
      },
      "properties": {
        "NO": 4424,
        "共通ID": "E0164100017121",
        "都道府県名及び市町村名": "北海道大樹町",
        "施設・場所名": "社会福祉法人　光寿会",
        "住所": "北海道大樹町字大樹10-8",
        "指定緊急避難場所との住所同一": "",
        "その他市町村長が必要と認める事項": null,
        "受入対象者": "要配慮者",
        "備考": ""
      }
    },
    {
      "type": "Feature",
      "geometry": {
        "type": "Point",
        "coordinates": [
          143.275284,
          42.532012
        ]
      },
      "properties": {
        "NO": 4425,
        "共通ID": "E0164100016111",
        "都道府県名及び市町村名": "北海道大樹町",
        "施設・場所名": "東和福祉ホーム",
        "住所": "北海道大樹町字大樹107-4",
        "指定緊急避難場所との住所同一": "",
        "その他市町村長が必要と認める事項": null,
        "受入対象者": null,
        "備考": ""
      }
    },
    {
      "type": "Feature",
      "geometry": {
        "type": "Point",
        "coordinates": [
          143.260251,
          42.506697
        ]
      },
      "properties": {
        "NO": 4426,
        "共通ID": "E0164100019111",
        "都道府県名及び市町村名": "北海道大樹町",
        "施設・場所名": "中大樹行政区会館",
        "住所": "北海道大樹町字大樹161-2",
        "指定緊急避難場所との住所同一": "",
        "その他市町村長が必要と認める事項": null,
        "受入対象者": null,
        "備考": ""
      }
    },
    {
      "type": "Feature",
      "geometry": {
        "type": "Point",
        "coordinates": [
          143.249567,
          42.513706
        ]
      },
      "properties": {
        "NO": 4427,
        "共通ID": "E0164100020111",
        "都道府県名及び市町村名": "北海道大樹町",
        "施設・場所名": "上大樹行政区会館",
        "住所": "北海道大樹町字大樹311-2",
        "指定緊急避難場所との住所同一": "",
        "その他市町村長が必要と認める事項": null,
        "受入対象者": null,
        "備考": ""
      }
    },
    {
      "type": "Feature",
      "geometry": {
        "type": "Point",
        "coordinates": [
          143.239472,
          42.520586
        ]
      },
      "properties": {
        "NO": 4428,
        "共通ID": "E0164100021111",
        "都道府県名及び市町村名": "北海道大樹町",
        "施設・場所名": "大和行政区会館",
        "住所": "北海道大樹町字大樹417",
        "指定緊急避難場所との住所同一": "",
        "その他市町村長が必要と認める事項": null,
        "受入対象者": null,
        "備考": ""
      }
    },
    {
      "type": "Feature",
      "geometry": {
        "type": "Point",
        "coordinates": [
          143.188277,
          42.523043
        ]
      },
      "properties": {
        "NO": 4429,
        "共通ID": "E0164100022111",
        "都道府県名及び市町村名": "北海道大樹町",
        "施設・場所名": "大光福祉ホーム",
        "住所": "北海道大樹町字大全117",
        "指定緊急避難場所との住所同一": "",
        "その他市町村長が必要と認める事項": null,
        "受入対象者": null,
        "備考": ""
      }
    },
    {
      "type": "Feature",
      "geometry": {
        "type": "Point",
        "coordinates": [
          143.133308,
          42.565592
        ]
      },
      "properties": {
        "NO": 4430,
        "共通ID": "E0164100023111",
        "都道府県名及び市町村名": "北海道大樹町",
        "施設・場所名": "拓進福祉ホーム",
        "住所": "北海道大樹町字拓進118",
        "指定緊急避難場所との住所同一": "",
        "その他市町村長が必要と認める事項": null,
        "受入対象者": null,
        "備考": ""
      }
    },
    {
      "type": "Feature",
      "geometry": {
        "type": "Point",
        "coordinates": [
          143.362602,
          42.434263
        ]
      },
      "properties": {
        "NO": 4431,
        "共通ID": "E0164100024111",
        "都道府県名及び市町村名": "北海道大樹町",
        "施設・場所名": "中島地域コミュニティセンター",
        "住所": "北海道大樹町字中島172",
        "指定緊急避難場所との住所同一": "1",
        "その他市町村長が必要と認める事項": null,
        "受入対象者": null,
        "備考": ""
      }
    },
    {
      "type": "Feature",
      "geometry": {
        "type": "Point",
        "coordinates": [
          143.320281,
          42.468464
        ]
      },
      "properties": {
        "NO": 4432,
        "共通ID": "E0164100025111",
        "都道府県名及び市町村名": "北海道大樹町",
        "施設・場所名": "日方福祉ホーム",
        "住所": "北海道大樹町字日方172",
        "指定緊急避難場所との住所同一": "",
        "その他市町村長が必要と認める事項": null,
        "受入対象者": null,
        "備考": ""
      }
    },
    {
      "type": "Feature",
      "geometry": {
        "type": "Point",
        "coordinates": [
          143.275331,
          42.478954
        ]
      },
      "properties": {
        "NO": 4433,
        "共通ID": "E0164100026111",
        "都道府県名及び市町村名": "北海道大樹町",
        "施設・場所名": "南町会館",
        "住所": "北海道大樹町字日方401",
        "指定緊急避難場所との住所同一": "",
        "その他市町村長が必要と認める事項": null,
        "受入対象者": null,
        "備考": ""
      }
    },
    {
      "type": "Feature",
      "geometry": {
        "type": "Point",
        "coordinates": [
          143.440442,
          42.543485
        ]
      },
      "properties": {
        "NO": 4434,
        "共通ID": "E0164100027111",
        "都道府県名及び市町村名": "北海道大樹町",
        "施設・場所名": "晩成行政区会館",
        "住所": "北海道大樹町字晩成209",
        "指定緊急避難場所との住所同一": "",
        "その他市町村長が必要と認める事項": null,
        "受入対象者": null,
        "備考": ""
      }
    },
    {
      "type": "Feature",
      "geometry": {
        "type": "Point",
        "coordinates": [
          143.217492,
          42.543373
        ]
      },
      "properties": {
        "NO": 4435,
        "共通ID": "E0164100028111",
        "都道府県名及び市町村名": "北海道大樹町",
        "施設・場所名": "豊里福祉ホーム",
        "住所": "北海道大樹町字尾田138",
        "指定緊急避難場所との住所同一": "",
        "その他市町村長が必要と認める事項": null,
        "受入対象者": null,
        "備考": ""
      }
    },
    {
      "type": "Feature",
      "geometry": {
        "type": "Point",
        "coordinates": [
          143.20032,
          42.561255
        ]
      },
      "properties": {
        "NO": 4436,
        "共通ID": "E0164100029111",
        "都道府県名及び市町村名": "北海道大樹町",
        "施設・場所名": "拓北福祉ホーム",
        "住所": "北海道大樹町字尾田358",
        "指定緊急避難場所との住所同一": "",
        "その他市町村長が必要と認める事項": null,
        "受入対象者": null,
        "備考": ""
      }
    },
    {
      "type": "Feature",
      "geometry": {
        "type": "Point",
        "coordinates": [
          143.186195,
          42.540342
        ]
      },
      "properties": {
        "NO": 4437,
        "共通ID": "E0164100030111",
        "都道府県名及び市町村名": "北海道大樹町",
        "施設・場所名": "尾田地域コミュニティセンター",
        "住所": "北海道大樹町字尾田798",
        "指定緊急避難場所との住所同一": "",
        "その他市町村長が必要と認める事項": null,
        "受入対象者": null,
        "備考": ""
      }
    },
    {
      "type": "Feature",
      "geometry": {
        "type": "Point",
        "coordinates": [
          143.409838,
          42.49988
        ]
      },
      "properties": {
        "NO": 4438,
        "共通ID": "E0164100031111",
        "都道府県名及び市町村名": "北海道大樹町",
        "施設・場所名": "美成福祉ホーム",
        "住所": "北海道大樹町字美成227",
        "指定緊急避難場所との住所同一": "",
        "その他市町村長が必要と認める事項": null,
        "受入対象者": null,
        "備考": ""
      }
    },
    {
      "type": "Feature",
      "geometry": {
        "type": "Point",
        "coordinates": [
          143.428181,
          42.473737
        ]
      },
      "properties": {
        "NO": 4439,
        "共通ID": "E0164100032111",
        "都道府県名及び市町村名": "北海道大樹町",
        "施設・場所名": "浜大樹行政区会館",
        "住所": "北海道大樹町字浜大樹189",
        "指定緊急避難場所との住所同一": "",
        "その他市町村長が必要と認める事項": null,
        "受入対象者": null,
        "備考": ""
      }
    },
    {
      "type": "Feature",
      "geometry": {
        "type": "Point",
        "coordinates": [
          143.315025,
          42.518213
        ]
      },
      "properties": {
        "NO": 4440,
        "共通ID": "E0164100033111",
        "都道府県名及び市町村名": "北海道大樹町",
        "施設・場所名": "萠和行政区会館",
        "住所": "北海道大樹町字萠和342-2",
        "指定緊急避難場所との住所同一": "",
        "その他市町村長が必要と認める事項": null,
        "受入対象者": null,
        "備考": ""
      }
    },
    {
      "type": "Feature",
      "geometry": {
        "type": "Point",
        "coordinates": [
          143.287734,
          42.498382
        ]
      },
      "properties": {
        "NO": 4441,
        "共通ID": "E0164100034111",
        "都道府県名及び市町村名": "北海道大樹町",
        "施設・場所名": "松山・下大樹行政区会館",
        "住所": "北海道大樹町松山町14-4",
        "指定緊急避難場所との住所同一": "",
        "その他市町村長が必要と認める事項": null,
        "受入対象者": null,
        "備考": ""
      }
    },
    {
      "type": "Feature",
      "geometry": {
        "type": "Point",
        "coordinates": [
          143.264501,
          42.496657
        ]
      },
      "properties": {
        "NO": 4442,
        "共通ID": "E0164100035111",
        "都道府県名及び市町村名": "北海道大樹町",
        "施設・場所名": "中央運動公園センターハウス",
        "住所": "北海道大樹町振別137",
        "指定緊急避難場所との住所同一": "",
        "その他市町村長が必要と認める事項": null,
        "受入対象者": null,
        "備考": ""
      }
    },
    {
      "type": "Feature",
      "geometry": {
        "type": "Point",
        "coordinates": [
          143.273043,
          42.487245
        ]
      },
      "properties": {
        "NO": 4443,
        "共通ID": "E0164100036111",
        "都道府県名及び市町村名": "北海道大樹町",
        "施設・場所名": "武道館",
        "住所": "北海道大樹町西本通73",
        "指定緊急避難場所との住所同一": "",
        "その他市町村長が必要と認める事項": null,
        "受入対象者": null,
        "備考": ""
      }
    },
    {
      "type": "Feature",
      "geometry": {
        "type": "Point",
        "coordinates": [
          143.272622,
          42.487429
        ]
      },
      "properties": {
        "NO": 4444,
        "共通ID": "E0164100036112",
        "都道府県名及び市町村名": "北海道大樹町",
        "施設・場所名": "Ｂ＆Ｇ海洋センター",
        "住所": "北海道大樹町西本通73",
        "指定緊急避難場所との住所同一": "",
        "その他市町村長が必要と認める事項": null,
        "受入対象者": null,
        "備考": ""
      }
    },
    {
      "type": "Feature",
      "geometry": {
        "type": "Point",
        "coordinates": [
          143.273388,
          42.489858
        ]
      },
      "properties": {
        "NO": 4445,
        "共通ID": "E0164100037111",
        "都道府県名及び市町村名": "北海道大樹町",
        "施設・場所名": "道の駅コスモール大樹",
        "住所": "北海道大樹町西本通98",
        "指定緊急避難場所との住所同一": "",
        "その他市町村長が必要と認める事項": null,
        "受入対象者": null,
        "備考": ""
      }
    },
    {
      "type": "Feature",
      "geometry": {
        "type": "Point",
        "coordinates": [
          143.282928,
          42.496895
        ]
      },
      "properties": {
        "NO": 4446,
        "共通ID": "E0164100038111",
        "都道府県名及び市町村名": "北海道大樹町",
        "施設・場所名": "生涯学習センター",
        "住所": "北海道大樹町双葉町6",
        "指定緊急避難場所との住所同一": "",
        "その他市町村長が必要と認める事項": null,
        "受入対象者": null,
        "備考": ""
      }
    },
    {
      "type": "Feature",
      "geometry": {
        "type": "Point",
        "coordinates": [
          143.280033,
          42.496992
        ]
      },
      "properties": {
        "NO": 4447,
        "共通ID": "E0164100039111",
        "都道府県名及び市町村名": "北海道大樹町",
        "施設・場所名": "大樹小学校",
        "住所": "北海道大樹町東本通54",
        "指定緊急避難場所との住所同一": "",
        "その他市町村長が必要と認める事項": null,
        "受入対象者": null,
        "備考": ""
      }
    },
    {
      "type": "Feature",
      "geometry": {
        "type": "Point",
        "coordinates": [
          143.2709,
          42.493405
        ]
      },
      "properties": {
        "NO": 4448,
        "共通ID": "E0164100040111",
        "都道府県名及び市町村名": "北海道大樹町",
        "施設・場所名": "大樹高等学校",
        "住所": "北海道大樹町緑町1",
        "指定緊急避難場所との住所同一": "",
        "その他市町村長が必要と認める事項": null,
        "受入対象者": null,
        "備考": ""
      }
    }
  ]
}