{
  "type": "FeatureCollection",
  "name": "016659",
  "features": [
    {
      "type": "Feature",
      "geometry": {
        "type": "Point",
        "coordinates": [
          144.450726,
          43.484892
        ]
      },
      "properties": {
        "NO": 4902,
        "共通ID": "E0166500001111",
        "都道府県名及び市町村名": "北海道弟子屈町",
        "施設・場所名": "弟子屈高等学校",
        "住所": "北海道弟子屈町高栄3-3-20",
        "指定緊急避難場所との住所同一": "1",
        "その他市町村長が必要と認める事項": "",
        "受入対象者": "",
        "備考": ""
      }
    },
    {
      "type": "Feature",
      "geometry": {
        "type": "Point",
        "coordinates": [
          144.45101,
          43.480935
        ]
      },
      "properties": {
        "NO": 4903,
        "共通ID": "E0166500002111",
        "都道府県名及び市町村名": "北海道弟子屈町",
        "施設・場所名": "鐺別温泉桜町会館",
        "住所": "北海道弟子屈町桜丘2-1-3",
        "指定緊急避難場所との住所同一": "",
        "その他市町村長が必要と認める事項": "",
        "受入対象者": "",
        "備考": ""
      }
    },
    {
      "type": "Feature",
      "geometry": {
        "type": "Point",
        "coordinates": [
          144.390419,
          43.643473
        ]
      },
      "properties": {
        "NO": 4904,
        "共通ID": "E0166500003111",
        "都道府県名及び市町村名": "北海道弟子屈町",
        "施設・場所名": "旧弟子屈町林業多目的センター",
        "住所": "北海道弟子屈町字サワンチサップ3-5",
        "指定緊急避難場所との住所同一": "",
        "その他市町村長が必要と認める事項": "",
        "受入対象者": "",
        "備考": ""
      }
    },
    {
      "type": "Feature",
      "geometry": {
        "type": "Point",
        "coordinates": [
          144.415011,
          43.404488
        ]
      },
      "properties": {
        "NO": 4905,
        "共通ID": "E0166500005111",
        "都道府県名及び市町村名": "北海道弟子屈町",
        "施設・場所名": "御卒別集会所",
        "住所": "北海道弟子屈町字奥オソベツ原野108-5",
        "指定緊急避難場所との住所同一": "",
        "その他市町村長が必要と認める事項": "",
        "受入対象者": "",
        "備考": ""
      }
    },
    {
      "type": "Feature",
      "geometry": {
        "type": "Point",
        "coordinates": [
          144.321071,
          43.558124
        ]
      },
      "properties": {
        "NO": 4906,
        "共通ID": "E0166500006111",
        "都道府県名及び市町村名": "北海道弟子屈町",
        "施設・場所名": "屈斜路研修センター",
        "住所": "北海道弟子屈町字屈斜路222-5",
        "指定緊急避難場所との住所同一": "1",
        "その他市町村長が必要と認める事項": "",
        "受入対象者": "",
        "備考": ""
      }
    },
    {
      "type": "Feature",
      "geometry": {
        "type": "Point",
        "coordinates": [
          144.3054,
          43.568738
        ]
      },
      "properties": {
        "NO": 4907,
        "共通ID": "E0166500007111",
        "都道府県名及び市町村名": "北海道弟子屈町",
        "施設・場所名": "和琴小学校",
        "住所": "北海道弟子屈町字屈斜路260",
        "指定緊急避難場所との住所同一": "",
        "その他市町村長が必要と認める事項": null,
        "受入対象者": null,
        "備考": ""
      }
    },
    {
      "type": "Feature",
      "geometry": {
        "type": "Point",
        "coordinates": [
          144.517335,
          43.428706
        ]
      },
      "properties": {
        "NO": 4908,
        "共通ID": "E0166500008111",
        "都道府県名及び市町村名": "北海道弟子屈町",
        "施設・場所名": "旧昭栄小学校",
        "住所": "北海道弟子屈町字熊牛原野２７線東1",
        "指定緊急避難場所との住所同一": "",
        "その他市町村長が必要と認める事項": "",
        "受入対象者": "",
        "備考": ""
      }
    },
    {
      "type": "Feature",
      "geometry": {
        "type": "Point",
        "coordinates": [
          144.411654,
          43.523908
        ]
      },
      "properties": {
        "NO": 4909,
        "共通ID": "E0166500009111",
        "都道府県名及び市町村名": "北海道弟子屈町",
        "施設・場所名": "札友内寿の家",
        "住所": "北海道弟子屈町字札友内67-3",
        "指定緊急避難場所との住所同一": "",
        "その他市町村長が必要と認める事項": "",
        "受入対象者": "",
        "備考": ""
      }
    },
    {
      "type": "Feature",
      "geometry": {
        "type": "Point",
        "coordinates": [
          144.502875,
          43.497476
        ]
      },
      "properties": {
        "NO": 4910,
        "共通ID": "E0166500029111",
        "都道府県名及び市町村名": "北海道弟子屈町",
        "施設・場所名": "仁多交流センター",
        "住所": "北海道弟子屈町字弟子屈原野４０線東３２－２",
        "指定緊急避難場所との住所同一": "",
        "その他市町村長が必要と認める事項": "",
        "受入対象者": "",
        "備考": ""
      }
    },
    {
      "type": "Feature",
      "geometry": {
        "type": "Point",
        "coordinates": [
          144.43636,
          43.558052
        ]
      },
      "properties": {
        "NO": 4911,
        "共通ID": "E0166500012111",
        "都道府県名及び市町村名": "北海道弟子屈町",
        "施設・場所名": "美留和会館",
        "住所": "北海道弟子屈町字美留和79",
        "指定緊急避難場所との住所同一": "1",
        "その他市町村長が必要と認める事項": "",
        "受入対象者": "",
        "備考": ""
      }
    },
    {
      "type": "Feature",
      "geometry": {
        "type": "Point",
        "coordinates": [
          144.436257,
          43.560191
        ]
      },
      "properties": {
        "NO": 4912,
        "共通ID": "E0166500011111",
        "都道府県名及び市町村名": "北海道弟子屈町",
        "施設・場所名": "美留和小学校",
        "住所": "北海道弟子屈町字美留和５５線82",
        "指定緊急避難場所との住所同一": "1",
        "その他市町村長が必要と認める事項": "",
        "受入対象者": "",
        "備考": ""
      }
    },
    {
      "type": "Feature",
      "geometry": {
        "type": "Point",
        "coordinates": [
          144.400466,
          43.470315
        ]
      },
      "properties": {
        "NO": 4913,
        "共通ID": "E0166500034111",
        "都道府県名及び市町村名": "北海道弟子屈町",
        "施設・場所名": "奥春別交流センター",
        "住所": "北海道弟子屈町字鐺別272-6",
        "指定緊急避難場所との住所同一": "",
        "その他市町村長が必要と認める事項": "",
        "受入対象者": "",
        "備考": ""
      }
    },
    {
      "type": "Feature",
      "geometry": {
        "type": "Point",
        "coordinates": [
          144.399647,
          43.470909
        ]
      },
      "properties": {
        "NO": 4914,
        "共通ID": "E0166500013111",
        "都道府県名及び市町村名": "北海道弟子屈町",
        "施設・場所名": "旧奥春別小学校",
        "住所": "北海道弟子屈町字鐺別274-1",
        "指定緊急避難場所との住所同一": "",
        "その他市町村長が必要と認める事項": "",
        "受入対象者": "",
        "備考": ""
      }
    },
    {
      "type": "Feature",
      "geometry": {
        "type": "Point",
        "coordinates": [
          144.45604,
          43.617672
        ]
      },
      "properties": {
        "NO": 4915,
        "共通ID": "E0166500014111",
        "都道府県名及び市町村名": "北海道弟子屈町",
        "施設・場所名": "川湯駅前交流センター",
        "住所": "北海道弟子屈町川湯駅前2-3-10",
        "指定緊急避難場所との住所同一": "",
        "その他市町村長が必要と認める事項": null,
        "受入対象者": null,
        "備考": ""
      }
    },
    {
      "type": "Feature",
      "geometry": {
        "type": "Point",
        "coordinates": [
          144.435005,
          43.637245
        ]
      },
      "properties": {
        "NO": 4916,
        "共通ID": "E0166500016111",
        "都道府県名及び市町村名": "北海道弟子屈町",
        "施設・場所名": "川湯ふるさと館",
        "住所": "北海道弟子屈町川湯温泉2-3-40",
        "指定緊急避難場所との住所同一": "1",
        "その他市町村長が必要と認める事項": "",
        "受入対象者": "",
        "備考": ""
      }
    },
    {
      "type": "Feature",
      "geometry": {
        "type": "Point",
        "coordinates": [
          144.444446,
          43.641692
        ]
      },
      "properties": {
        "NO": 4917,
        "共通ID": "E0166500017111",
        "都道府県名及び市町村名": "北海道弟子屈町",
        "施設・場所名": "川湯小学校",
        "住所": "北海道弟子屈町川湯温泉4-15-10",
        "指定緊急避難場所との住所同一": "1",
        "その他市町村長が必要と認める事項": "",
        "受入対象者": "",
        "備考": ""
      }
    },
    {
      "type": "Feature",
      "geometry": {
        "type": "Point",
        "coordinates": [
          144.443155,
          43.64089
        ]
      },
      "properties": {
        "NO": 4918,
        "共通ID": "E0166500018111",
        "都道府県名及び市町村名": "北海道弟子屈町",
        "施設・場所名": "川湯農村センター",
        "住所": "北海道弟子屈町川湯温泉4-15-4",
        "指定緊急避難場所との住所同一": "1",
        "その他市町村長が必要と認める事項": "",
        "受入対象者": "",
        "備考": ""
      }
    },
    {
      "type": "Feature",
      "geometry": {
        "type": "Point",
        "coordinates": [
          144.4438,
          43.640823
        ]
      },
      "properties": {
        "NO": 4919,
        "共通ID": "E0166500032122",
        "都道府県名及び市町村名": "北海道弟子屈町",
        "施設・場所名": "川湯保育園",
        "住所": "北海道弟子屈町川湯温泉4-15-8",
        "指定緊急避難場所との住所同一": "",
        "その他市町村長が必要と認める事項": "",
        "受入対象者": "妊婦、乳幼児等",
        "備考": "妊婦、乳幼児等\n"
      }
    },
    {
      "type": "Feature",
      "geometry": {
        "type": "Point",
        "coordinates": [
          144.452967,
          43.638401
        ]
      },
      "properties": {
        "NO": 4920,
        "共通ID": "E0166500019111",
        "都道府県名及び市町村名": "北海道弟子屈町",
        "施設・場所名": "川湯中学校",
        "住所": "北海道弟子屈町川湯温泉7-3-11",
        "指定緊急避難場所との住所同一": "1",
        "その他市町村長が必要と認める事項": "",
        "受入対象者": "",
        "備考": ""
      }
    },
    {
      "type": "Feature",
      "geometry": {
        "type": "Point",
        "coordinates": [
          144.464961,
          43.479648
        ]
      },
      "properties": {
        "NO": 4921,
        "共通ID": "E0166500020111",
        "都道府県名及び市町村名": "北海道弟子屈町",
        "施設・場所名": "泉ふれあいセンター",
        "住所": "北海道弟子屈町泉2-3-9",
        "指定緊急避難場所との住所同一": "1",
        "その他市町村長が必要と認める事項": "",
        "受入対象者": "",
        "備考": ""
      }
    },
    {
      "type": "Feature",
      "geometry": {
        "type": "Point",
        "coordinates": [
          144.463895,
          43.481056
        ]
      },
      "properties": {
        "NO": 4922,
        "共通ID": "E0166500033121",
        "都道府県名及び市町村名": "北海道弟子屈町",
        "施設・場所名": "地域交流ホールてしかが",
        "住所": "北海道弟子屈町泉２丁目3‐7‐1",
        "指定緊急避難場所との住所同一": "",
        "その他市町村長が必要と認める事項": "",
        "受入対象者": "高齢者、障害者等",
        "備考": "高齢者障害者等"
      }
    },
    {
      "type": "Feature",
      "geometry": {
        "type": "Point",
        "coordinates": [
          144.457897,
          43.484911
        ]
      },
      "properties": {
        "NO": 4923,
        "共通ID": "E0166500022111",
        "都道府県名及び市町村名": "北海道弟子屈町",
        "施設・場所名": "弟子屈小学校",
        "住所": "北海道弟子屈町中央2-1-1",
        "指定緊急避難場所との住所同一": "1",
        "その他市町村長が必要と認める事項": "",
        "受入対象者": "",
        "備考": ""
      }
    },
    {
      "type": "Feature",
      "geometry": {
        "type": "Point",
        "coordinates": [
          144.46047,
          43.484072
        ]
      },
      "properties": {
        "NO": 4924,
        "共通ID": "E0166500021111",
        "都道府県名及び市町村名": "北海道弟子屈町",
        "施設・場所名": "社会老人福祉センター",
        "住所": "北海道弟子屈町中央2-10-25",
        "指定緊急避難場所との住所同一": "1",
        "その他市町村長が必要と認める事項": "",
        "受入対象者": "",
        "備考": ""
      }
    },
    {
      "type": "Feature",
      "geometry": {
        "type": "Point",
        "coordinates": [
          144.459251,
          43.485309
        ]
      },
      "properties": {
        "NO": 4925,
        "共通ID": "E0166500023111",
        "都道府県名及び市町村名": "北海道弟子屈町",
        "施設・場所名": "弟子屈町役場庁舎",
        "住所": "北海道弟子屈町中央2-3-1",
        "指定緊急避難場所との住所同一": "",
        "その他市町村長が必要と認める事項": null,
        "受入対象者": null,
        "備考": ""
      }
    },
    {
      "type": "Feature",
      "geometry": {
        "type": "Point",
        "coordinates": [
          144.458926,
          43.485723
        ]
      },
      "properties": {
        "NO": 4926,
        "共通ID": "E0166500024111",
        "都道府県名及び市町村名": "北海道弟子屈町",
        "施設・場所名": "弟子屈町公民館",
        "住所": "北海道弟子屈町中央2-3-2",
        "指定緊急避難場所との住所同一": "1",
        "その他市町村長が必要と認める事項": "",
        "受入対象者": "",
        "備考": ""
      }
    },
    {
      "type": "Feature",
      "geometry": {
        "type": "Point",
        "coordinates": [
          144.447665,
          43.492377
        ]
      },
      "properties": {
        "NO": 4927,
        "共通ID": "E0166500025111",
        "都道府県名及び市町村名": "北海道弟子屈町",
        "施設・場所名": "摩周観光交流館（道の駅）",
        "住所": "北海道弟子屈町湯の島3-5-5",
        "指定緊急避難場所との住所同一": "1",
        "その他市町村長が必要と認める事項": "",
        "受入対象者": "",
        "備考": "暴風雪時の緊急避難所"
      }
    },
    {
      "type": "Feature",
      "geometry": {
        "type": "Point",
        "coordinates": [
          144.44866,
          43.487169
        ]
      },
      "properties": {
        "NO": 4928,
        "共通ID": "E0166500026111",
        "都道府県名及び市町村名": "北海道弟子屈町",
        "施設・場所名": "弟子屈中学校",
        "住所": "北海道弟子屈町美里1-3-1",
        "指定緊急避難場所との住所同一": "1",
        "その他市町村長が必要と認める事項": "",
        "受入対象者": "",
        "備考": ""
      }
    },
    {
      "type": "Feature",
      "geometry": {
        "type": "Point",
        "coordinates": [
          144.4368,
          43.480763
        ]
      },
      "properties": {
        "NO": 4929,
        "共通ID": "E0166500027111",
        "都道府県名及び市町村名": "北海道弟子屈町",
        "施設・場所名": "弟子屈消防署",
        "住所": "北海道弟子屈町美里3-8-1",
        "指定緊急避難場所との住所同一": "1",
        "その他市町村長が必要と認める事項": "",
        "受入対象者": "",
        "備考": ""
      }
    },
    {
      "type": "Feature",
      "geometry": {
        "type": "Point",
        "coordinates": [
          144.451075,
          43.507207
        ]
      },
      "properties": {
        "NO": 4930,
        "共通ID": "E0166500028111",
        "都道府県名及び市町村名": "北海道弟子屈町",
        "施設・場所名": "摩周観光文化センター",
        "住所": "北海道弟子屈町摩周3-3-1",
        "指定緊急避難場所との住所同一": "1",
        "その他市町村長が必要と認める事項": "",
        "受入対象者": "",
        "備考": ""
      }
    }
  ]
}