{
  "type": "FeatureCollection",
  "name": "023817",
  "features": [
    {
      "type": "Feature",
      "geometry": {
        "type": "Point",
        "coordinates": [
          140.463483,
          40.70151
        ]
      },
      "properties": {
        "NO": 6499,
        "共通ID": "E0238100001111",
        "都道府県名及び市町村名": "青森県板柳町",
        "施設・場所名": "いたや町集会所",
        "住所": "青森県板柳町いたや町1-40",
        "指定緊急避難場所との住所同一": "1",
        "その他市町村長が必要と認める事項": "",
        "受入対象者": "",
        "備考": ""
      }
    },
    {
      "type": "Feature",
      "geometry": {
        "type": "Point",
        "coordinates": [
          140.472823,
          40.686309
        ]
      },
      "properties": {
        "NO": 6500,
        "共通ID": "E0238100021121",
        "都道府県名及び市町村名": "青森県板柳町",
        "施設・場所名": "シニアガーデン板柳",
        "住所": "青森県板柳町大字横沢字宮元146-6",
        "指定緊急避難場所との住所同一": "",
        "その他市町村長が必要と認める事項": null,
        "受入対象者": "要配慮者",
        "備考": ""
      }
    },
    {
      "type": "Feature",
      "geometry": {
        "type": "Point",
        "coordinates": [
          140.478343,
          40.682381
        ]
      },
      "properties": {
        "NO": 6501,
        "共通ID": "E0238100002111",
        "都道府県名及び市町村名": "青森県板柳町",
        "施設・場所名": "横沢会館",
        "住所": "青森県板柳町大字横沢字東宮元2-1",
        "指定緊急避難場所との住所同一": "1",
        "その他市町村長が必要と認める事項": "",
        "受入対象者": "",
        "備考": ""
      }
    },
    {
      "type": "Feature",
      "geometry": {
        "type": "Point",
        "coordinates": [
          140.488159,
          40.740381
        ]
      },
      "properties": {
        "NO": 6502,
        "共通ID": "E0238100003111",
        "都道府県名及び市町村名": "青森県板柳町",
        "施設・場所名": "牡丹森会館",
        "住所": "青森県板柳町大字牡丹森字鴨泊221",
        "指定緊急避難場所との住所同一": "1",
        "その他市町村長が必要と認める事項": "",
        "受入対象者": "",
        "備考": ""
      }
    },
    {
      "type": "Feature",
      "geometry": {
        "type": "Point",
        "coordinates": [
          140.456154,
          40.700619
        ]
      },
      "properties": {
        "NO": 6503,
        "共通ID": "E0238100024112",
        "都道府県名及び市町村名": "青森県板柳町",
        "施設・場所名": "板柳町多目的ホールあぷる",
        "住所": "青森県板柳町大字灰沼字岩井61",
        "指定緊急避難場所との住所同一": "1",
        "その他市町村長が必要と認める事項": "",
        "受入対象者": "",
        "備考": ""
      }
    },
    {
      "type": "Feature",
      "geometry": {
        "type": "Point",
        "coordinates": [
          140.457181,
          40.700354
        ]
      },
      "properties": {
        "NO": 6504,
        "共通ID": "E0238100024111",
        "都道府県名及び市町村名": "青森県板柳町",
        "施設・場所名": "板柳町老人憩いの家",
        "住所": "青森県板柳町大字灰沼字岩井61",
        "指定緊急避難場所との住所同一": "1",
        "その他市町村長が必要と認める事項": "",
        "受入対象者": "",
        "備考": ""
      }
    },
    {
      "type": "Feature",
      "geometry": {
        "type": "Point",
        "coordinates": [
          140.452417,
          40.704497
        ]
      },
      "properties": {
        "NO": 6505,
        "共通ID": "E0238100025121",
        "都道府県名及び市町村名": "青森県板柳町",
        "施設・場所名": "板柳第一保育所鶴住",
        "住所": "青森県板柳町大字灰沼字東1-6",
        "指定緊急避難場所との住所同一": "",
        "その他市町村長が必要と認める事項": null,
        "受入対象者": "要配慮者",
        "備考": ""
      }
    },
    {
      "type": "Feature",
      "geometry": {
        "type": "Point",
        "coordinates": [
          140.440321,
          40.718493
        ]
      },
      "properties": {
        "NO": 6506,
        "共通ID": "E0238100026121",
        "都道府県名及び市町村名": "青森県板柳町",
        "施設・場所名": "デイサービスセンターひばの里",
        "住所": "青森県板柳町大字掛落林字前田140-1",
        "指定緊急避難場所との住所同一": "",
        "その他市町村長が必要と認める事項": null,
        "受入対象者": "要配慮者",
        "備考": ""
      }
    },
    {
      "type": "Feature",
      "geometry": {
        "type": "Point",
        "coordinates": [
          140.440413,
          40.717831
        ]
      },
      "properties": {
        "NO": 6507,
        "共通ID": "E0238100027121",
        "都道府県名及び市町村名": "青森県板柳町",
        "施設・場所名": "有料老人ホームライラック",
        "住所": "青森県板柳町大字掛落林字前田262-2",
        "指定緊急避難場所との住所同一": "",
        "その他市町村長が必要と認める事項": null,
        "受入対象者": "要配慮者",
        "備考": ""
      }
    },
    {
      "type": "Feature",
      "geometry": {
        "type": "Point",
        "coordinates": [
          140.478591,
          40.730241
        ]
      },
      "properties": {
        "NO": 6508,
        "共通ID": "E0238100006111",
        "都道府県名及び市町村名": "青森県板柳町",
        "施設・場所名": "狐森会館",
        "住所": "青森県板柳町大字狐森字宮田76-3",
        "指定緊急避難場所との住所同一": "1",
        "その他市町村長が必要と認める事項": "",
        "受入対象者": "",
        "備考": ""
      }
    },
    {
      "type": "Feature",
      "geometry": {
        "type": "Point",
        "coordinates": [
          140.509638,
          40.749299
        ]
      },
      "properties": {
        "NO": 6509,
        "共通ID": "E0238100007111",
        "都道府県名及び市町村名": "青森県板柳町",
        "施設・場所名": "五林平町民会館",
        "住所": "青森県板柳町大字五林平字前橋1",
        "指定緊急避難場所との住所同一": "1",
        "その他市町村長が必要と認める事項": "",
        "受入対象者": "",
        "備考": ""
      }
    },
    {
      "type": "Feature",
      "geometry": {
        "type": "Point",
        "coordinates": [
          140.490113,
          40.720441
        ]
      },
      "properties": {
        "NO": 6510,
        "共通ID": "E0238100008111",
        "都道府県名及び市町村名": "青森県板柳町",
        "施設・場所名": "高増会館",
        "住所": "青森県板柳町大字高増字前田70-1",
        "指定緊急避難場所との住所同一": "1",
        "その他市町村長が必要と認める事項": "",
        "受入対象者": "",
        "備考": ""
      }
    },
    {
      "type": "Feature",
      "geometry": {
        "type": "Point",
        "coordinates": [
          140.469752,
          40.712345
        ]
      },
      "properties": {
        "NO": 6511,
        "共通ID": "E0238100009111",
        "都道府県名及び市町村名": "青森県板柳町",
        "施設・場所名": "板柳中学校",
        "住所": "青森県板柳町大字三千石字五十嵐103",
        "指定緊急避難場所との住所同一": "1",
        "その他市町村長が必要と認める事項": "",
        "受入対象者": "",
        "備考": ""
      }
    },
    {
      "type": "Feature",
      "geometry": {
        "type": "Point",
        "coordinates": [
          140.466621,
          40.706342
        ]
      },
      "properties": {
        "NO": 6512,
        "共通ID": "E0238100016111",
        "都道府県名及び市町村名": "青森県板柳町",
        "施設・場所名": "広栄町集会所",
        "住所": "青森県板柳町大字三千石字木賊72-1",
        "指定緊急避難場所との住所同一": "1",
        "その他市町村長が必要と認める事項": "",
        "受入対象者": "",
        "備考": ""
      }
    },
    {
      "type": "Feature",
      "geometry": {
        "type": "Point",
        "coordinates": [
          140.510897,
          40.724796
        ]
      },
      "properties": {
        "NO": 6513,
        "共通ID": "E0238100010111",
        "都道府県名及び市町村名": "青森県板柳町",
        "施設・場所名": "板柳東小学校",
        "住所": "青森県板柳町大字常海橋字稲葉197-21",
        "指定緊急避難場所との住所同一": "1",
        "その他市町村長が必要と認める事項": "",
        "受入対象者": "",
        "備考": ""
      }
    },
    {
      "type": "Feature",
      "geometry": {
        "type": "Point",
        "coordinates": [
          140.513096,
          40.728983
        ]
      },
      "properties": {
        "NO": 6514,
        "共通ID": "E0238100011111",
        "都道府県名及び市町村名": "青森県板柳町",
        "施設・場所名": "下常海橋会館",
        "住所": "青森県板柳町大字常海橋字松枝53",
        "指定緊急避難場所との住所同一": "1",
        "その他市町村長が必要と認める事項": "",
        "受入対象者": "",
        "備考": ""
      }
    },
    {
      "type": "Feature",
      "geometry": {
        "type": "Point",
        "coordinates": [
          140.476844,
          40.702277
        ]
      },
      "properties": {
        "NO": 6515,
        "共通ID": "E0238100012111",
        "都道府県名及び市町村名": "青森県板柳町",
        "施設・場所名": "深味会館",
        "住所": "青森県板柳町大字深味字深宮35-2",
        "指定緊急避難場所との住所同一": "1",
        "その他市町村長が必要と認める事項": "",
        "受入対象者": "",
        "備考": ""
      }
    },
    {
      "type": "Feature",
      "geometry": {
        "type": "Point",
        "coordinates": [
          140.467473,
          40.716526
        ]
      },
      "properties": {
        "NO": 6516,
        "共通ID": "E0238100014111",
        "都道府県名及び市町村名": "青森県板柳町",
        "施設・場所名": "石野構造改善センター",
        "住所": "青森県板柳町大字石野字大柳11-4",
        "指定緊急避難場所との住所同一": "1",
        "その他市町村長が必要と認める事項": "",
        "受入対象者": "",
        "備考": ""
      }
    },
    {
      "type": "Feature",
      "geometry": {
        "type": "Point",
        "coordinates": [
          140.454194,
          40.713098
        ]
      },
      "properties": {
        "NO": 6517,
        "共通ID": "E0238100015111",
        "都道府県名及び市町村名": "青森県板柳町",
        "施設・場所名": "板柳北小学校",
        "住所": "青森県板柳町大字赤田字田川13",
        "指定緊急避難場所との住所同一": "1",
        "その他市町村長が必要と認める事項": "",
        "受入対象者": "",
        "備考": ""
      }
    },
    {
      "type": "Feature",
      "geometry": {
        "type": "Point",
        "coordinates": [
          140.466155,
          40.698322
        ]
      },
      "properties": {
        "NO": 6518,
        "共通ID": "E0238100017111",
        "都道府県名及び市町村名": "青森県板柳町",
        "施設・場所名": "旧板柳高等学校",
        "住所": "青森県板柳町大字太田字西上林46",
        "指定緊急避難場所との住所同一": "1",
        "その他市町村長が必要と認める事項": "",
        "受入対象者": "",
        "備考": ""
      }
    },
    {
      "type": "Feature",
      "geometry": {
        "type": "Point",
        "coordinates": [
          140.475164,
          40.697421
        ]
      },
      "properties": {
        "NO": 6519,
        "共通ID": "E0238100018111",
        "都道府県名及び市町村名": "青森県板柳町",
        "施設・場所名": "太長会館",
        "住所": "青森県板柳町大字太田字前橋28-2",
        "指定緊急避難場所との住所同一": "1",
        "その他市町村長が必要と認める事項": "",
        "受入対象者": "",
        "備考": ""
      }
    },
    {
      "type": "Feature",
      "geometry": {
        "type": "Point",
        "coordinates": [
          140.485027,
          40.724993
        ]
      },
      "properties": {
        "NO": 6520,
        "共通ID": "E0238100061111",
        "都道府県名及び市町村名": "青森県板柳町",
        "施設・場所名": "小阿弥小学校",
        "住所": "青森県板柳町大字大俵字富永39-2",
        "指定緊急避難場所との住所同一": "1",
        "その他市町村長が必要と認める事項": "",
        "受入対象者": "",
        "備考": ""
      }
    },
    {
      "type": "Feature",
      "geometry": {
        "type": "Point",
        "coordinates": [
          140.490647,
          40.707589
        ]
      },
      "properties": {
        "NO": 6521,
        "共通ID": "E0238100039111",
        "都道府県名及び市町村名": "青森県板柳町",
        "施設・場所名": "大俵会館",
        "住所": "青森県板柳町大字大俵字和田247-1",
        "指定緊急避難場所との住所同一": "1",
        "その他市町村長が必要と認める事項": "",
        "受入対象者": "",
        "備考": ""
      }
    },
    {
      "type": "Feature",
      "geometry": {
        "type": "Point",
        "coordinates": [
          140.491464,
          40.713319
        ]
      },
      "properties": {
        "NO": 6522,
        "共通ID": "E0238100040111",
        "都道府県名及び市町村名": "青森県板柳町",
        "施設・場所名": "日新構造改善センター",
        "住所": "青森県板柳町大字大俵字和田392-9",
        "指定緊急避難場所との住所同一": "1",
        "その他市町村長が必要と認める事項": "",
        "受入対象者": "",
        "備考": ""
      }
    },
    {
      "type": "Feature",
      "geometry": {
        "type": "Point",
        "coordinates": [
          140.489303,
          40.717393
        ]
      },
      "properties": {
        "NO": 6523,
        "共通ID": "E0238100041121",
        "都道府県名及び市町村名": "青森県板柳町",
        "施設・場所名": "ライフケア高増",
        "住所": "青森県板柳町大字大俵字和田423-6",
        "指定緊急避難場所との住所同一": "",
        "その他市町村長が必要と認める事項": null,
        "受入対象者": "要配慮者",
        "備考": ""
      }
    },
    {
      "type": "Feature",
      "geometry": {
        "type": "Point",
        "coordinates": [
          140.513515,
          40.70207
        ]
      },
      "properties": {
        "NO": 6524,
        "共通ID": "E0238100042111",
        "都道府県名及び市町村名": "青森県板柳町",
        "施設・場所名": "滝館会館",
        "住所": "青森県板柳町大字滝井字西田19-1",
        "指定緊急避難場所との住所同一": "1",
        "その他市町村長が必要と認める事項": "",
        "受入対象者": "",
        "備考": ""
      }
    },
    {
      "type": "Feature",
      "geometry": {
        "type": "Point",
        "coordinates": [
          140.470184,
          40.690727
        ]
      },
      "properties": {
        "NO": 6525,
        "共通ID": "E0238100043121",
        "都道府県名及び市町村名": "青森県板柳町",
        "施設・場所名": "デイサービスセンターいたや荘",
        "住所": "青森県板柳町大字辻字岸田66",
        "指定緊急避難場所との住所同一": "",
        "その他市町村長が必要と認める事項": null,
        "受入対象者": "要配慮者",
        "備考": ""
      }
    },
    {
      "type": "Feature",
      "geometry": {
        "type": "Point",
        "coordinates": [
          140.468755,
          40.692101
        ]
      },
      "properties": {
        "NO": 6526,
        "共通ID": "E0238100065111",
        "都道府県名及び市町村名": "青森県板柳町",
        "施設・場所名": "板柳南小学校",
        "住所": "青森県板柳町大字辻字岸田75-1",
        "指定緊急避難場所との住所同一": "1",
        "その他市町村長が必要と認める事項": "",
        "受入対象者": "",
        "備考": ""
      }
    },
    {
      "type": "Feature",
      "geometry": {
        "type": "Point",
        "coordinates": [
          140.483699,
          40.738714
        ]
      },
      "properties": {
        "NO": 6527,
        "共通ID": "E0238100045111",
        "都道府県名及び市町村名": "青森県板柳町",
        "施設・場所名": "柏木会館",
        "住所": "青森県板柳町大字柏木字片田野69-2",
        "指定緊急避難場所との住所同一": "1",
        "その他市町村長が必要と認める事項": "",
        "受入対象者": "",
        "備考": ""
      }
    },
    {
      "type": "Feature",
      "geometry": {
        "type": "Point",
        "coordinates": [
          140.457896,
          40.696044
        ]
      },
      "properties": {
        "NO": 6528,
        "共通ID": "E0238100046111",
        "都道府県名及び市町村名": "青森県板柳町",
        "施設・場所名": "板柳町福祉センター",
        "住所": "青森県板柳町大字板柳字土井239-3",
        "指定緊急避難場所との住所同一": "1",
        "その他市町村長が必要と認める事項": "",
        "受入対象者": "",
        "備考": ""
      }
    },
    {
      "type": "Feature",
      "geometry": {
        "type": "Point",
        "coordinates": [
          140.45772,
          40.692558
        ]
      },
      "properties": {
        "NO": 6529,
        "共通ID": "E0238100047121",
        "都道府県名及び市町村名": "青森県板柳町",
        "施設・場所名": "いたやの樹",
        "住所": "青森県板柳町大字板柳字土井354",
        "指定緊急避難場所との住所同一": "",
        "その他市町村長が必要と認める事項": null,
        "受入対象者": "要配慮者",
        "備考": ""
      }
    },
    {
      "type": "Feature",
      "geometry": {
        "type": "Point",
        "coordinates": [
          140.472902,
          40.672354
        ]
      },
      "properties": {
        "NO": 6530,
        "共通ID": "E0238100070111",
        "都道府県名及び市町村名": "青森県板柳町",
        "施設・場所名": "飯田会館",
        "住所": "青森県板柳町大字飯田字村元17-1",
        "指定緊急避難場所との住所同一": "1",
        "その他市町村長が必要と認める事項": "",
        "受入対象者": "",
        "備考": ""
      }
    },
    {
      "type": "Feature",
      "geometry": {
        "type": "Point",
        "coordinates": [
          140.46511,
          40.696918
        ]
      },
      "properties": {
        "NO": 6531,
        "共通ID": "E0238100071111",
        "都道府県名及び市町村名": "青森県板柳町",
        "施設・場所名": "板柳町公民館",
        "住所": "青森県板柳町大字福野田字実田11-7",
        "指定緊急避難場所との住所同一": "1",
        "その他市町村長が必要と認める事項": "",
        "受入対象者": "",
        "備考": ""
      }
    },
    {
      "type": "Feature",
      "geometry": {
        "type": "Point",
        "coordinates": [
          140.459987,
          40.696526
        ]
      },
      "properties": {
        "NO": 6532,
        "共通ID": "E0238100050121",
        "都道府県名及び市町村名": "青森県板柳町",
        "施設・場所名": "まちだハウス１号",
        "住所": "青森県板柳町大字福野田字実田43-1",
        "指定緊急避難場所との住所同一": "",
        "その他市町村長が必要と認める事項": null,
        "受入対象者": "要配慮者",
        "備考": ""
      }
    },
    {
      "type": "Feature",
      "geometry": {
        "type": "Point",
        "coordinates": [
          140.459853,
          40.696665
        ]
      },
      "properties": {
        "NO": 6533,
        "共通ID": "E0238100051121",
        "都道府県名及び市町村名": "青森県板柳町",
        "施設・場所名": "まちだホーム",
        "住所": "青森県板柳町大字福野田字実田44-1",
        "指定緊急避難場所との住所同一": "",
        "その他市町村長が必要と認める事項": null,
        "受入対象者": "要配慮者",
        "備考": ""
      }
    },
    {
      "type": "Feature",
      "geometry": {
        "type": "Point",
        "coordinates": [
          140.459681,
          40.696883
        ]
      },
      "properties": {
        "NO": 6534,
        "共通ID": "E0238100051122",
        "都道府県名及び市町村名": "青森県板柳町",
        "施設・場所名": "まちだハウス２号",
        "住所": "青森県板柳町大字福野田字実田44-1",
        "指定緊急避難場所との住所同一": "",
        "その他市町村長が必要と認める事項": null,
        "受入対象者": "要配慮者",
        "備考": ""
      }
    },
    {
      "type": "Feature",
      "geometry": {
        "type": "Point",
        "coordinates": [
          140.460039,
          40.697038
        ]
      },
      "properties": {
        "NO": 6535,
        "共通ID": "E0238100052121",
        "都道府県名及び市町村名": "青森県板柳町",
        "施設・場所名": "グループホームみどり２",
        "住所": "青森県板柳町大字福野田字実田45-20",
        "指定緊急避難場所との住所同一": "",
        "その他市町村長が必要と認める事項": null,
        "受入対象者": "要配慮者",
        "備考": ""
      }
    },
    {
      "type": "Feature",
      "geometry": {
        "type": "Point",
        "coordinates": [
          140.459811,
          40.69721
        ]
      },
      "properties": {
        "NO": 6536,
        "共通ID": "E0238100053121",
        "都道府県名及び市町村名": "青森県板柳町",
        "施設・場所名": "みどりデイサービスセンター",
        "住所": "青森県板柳町大字福野田字実田54-3",
        "指定緊急避難場所との住所同一": "",
        "その他市町村長が必要と認める事項": null,
        "受入対象者": "要配慮者",
        "備考": ""
      }
    },
    {
      "type": "Feature",
      "geometry": {
        "type": "Point",
        "coordinates": [
          140.459495,
          40.697143
        ]
      },
      "properties": {
        "NO": 6537,
        "共通ID": "E0238100054121",
        "都道府県名及び市町村名": "青森県板柳町",
        "施設・場所名": "グループホームみどり１",
        "住所": "青森県板柳町大字福野田字実田54-4",
        "指定緊急避難場所との住所同一": "",
        "その他市町村長が必要と認める事項": null,
        "受入対象者": "要配慮者",
        "備考": ""
      }
    },
    {
      "type": "Feature",
      "geometry": {
        "type": "Point",
        "coordinates": [
          140.459359,
          40.698431
        ]
      },
      "properties": {
        "NO": 6538,
        "共通ID": "E0238100055121",
        "都道府県名及び市町村名": "青森県板柳町",
        "施設・場所名": "まちだ館",
        "住所": "青森県板柳町大字福野田字実田72-4",
        "指定緊急避難場所との住所同一": "",
        "その他市町村長が必要と認める事項": null,
        "受入対象者": "要配慮者",
        "備考": ""
      }
    },
    {
      "type": "Feature",
      "geometry": {
        "type": "Point",
        "coordinates": [
          140.463234,
          40.688506
        ]
      },
      "properties": {
        "NO": 6539,
        "共通ID": "E0238100072111",
        "都道府県名及び市町村名": "青森県板柳町",
        "施設・場所名": "板柳町ふるさとセンター",
        "住所": "青森県板柳町大字福野田字本泉34-6",
        "指定緊急避難場所との住所同一": "1",
        "その他市町村長が必要と認める事項": "",
        "受入対象者": "",
        "備考": ""
      }
    },
    {
      "type": "Feature",
      "geometry": {
        "type": "Point",
        "coordinates": [
          140.461528,
          40.692202
        ]
      },
      "properties": {
        "NO": 6540,
        "共通ID": "E0238100057121",
        "都道府県名及び市町村名": "青森県板柳町",
        "施設・場所名": "有料老人ホームやよい",
        "住所": "青森県板柳町大字福野田字本泉63-3",
        "指定緊急避難場所との住所同一": "",
        "その他市町村長が必要と認める事項": null,
        "受入対象者": "要配慮者",
        "備考": ""
      }
    },
    {
      "type": "Feature",
      "geometry": {
        "type": "Point",
        "coordinates": [
          140.460609,
          40.720222
        ]
      },
      "properties": {
        "NO": 6541,
        "共通ID": "E0238100058111",
        "都道府県名及び市町村名": "青森県板柳町",
        "施設・場所名": "野中町民会館",
        "住所": "青森県板柳町大字野中字若松41-5",
        "指定緊急避難場所との住所同一": "1",
        "その他市町村長が必要と認める事項": "",
        "受入対象者": "",
        "備考": ""
      }
    },
    {
      "type": "Feature",
      "geometry": {
        "type": "Point",
        "coordinates": [
          140.451169,
          40.721917
        ]
      },
      "properties": {
        "NO": 6542,
        "共通ID": "E0238100059121",
        "都道府県名及び市町村名": "青森県板柳町",
        "施設・場所名": "特別養護老人ホーム鶴住荘",
        "住所": "青森県板柳町大字野中字鶴住102-2",
        "指定緊急避難場所との住所同一": "",
        "その他市町村長が必要と認める事項": null,
        "受入対象者": "要配慮者",
        "備考": ""
      }
    },
    {
      "type": "Feature",
      "geometry": {
        "type": "Point",
        "coordinates": [
          140.5099,
          40.737191
        ]
      },
      "properties": {
        "NO": 6543,
        "共通ID": "E0238100060111",
        "都道府県名及び市町村名": "青森県板柳町",
        "施設・場所名": "沿川北部多目的研修センター",
        "住所": "青森県板柳町大字夕顔関字西田178",
        "指定緊急避難場所との住所同一": "1",
        "その他市町村長が必要と認める事項": "",
        "受入対象者": "",
        "備考": ""
      }
    }
  ]
}