{
  "type": "FeatureCollection",
  "name": "024082",
  "features": [
    {
      "type": "Feature",
      "geometry": {
        "type": "Point",
        "coordinates": [
          141.272434,
          40.733471
        ]
      },
      "properties": {
        "NO": 6742,
        "共通ID": "E0240800001111",
        "都道府県名及び市町村名": "青森県東北町",
        "施設・場所名": "旭町地区コミュニティーセンター",
        "住所": "青森県東北町旭南2-31-1000",
        "指定緊急避難場所との住所同一": "1",
        "その他市町村長が必要と認める事項": null,
        "受入対象者": null,
        "備考": ""
      }
    },
    {
      "type": "Feature",
      "geometry": {
        "type": "Point",
        "coordinates": [
          141.215203,
          40.784238
        ]
      },
      "properties": {
        "NO": 6743,
        "共通ID": "E0240800061121",
        "都道府県名及び市町村名": "青森県東北町",
        "施設・場所名": "乙供文化保育園",
        "住所": "青森県東北町字ほとけ沢5-160",
        "指定緊急避難場所との住所同一": "",
        "その他市町村長が必要と認める事項": "",
        "受入対象者": "一般避難所での生活に支障がある児童及びその介助者",
        "備考": ""
      }
    },
    {
      "type": "Feature",
      "geometry": {
        "type": "Point",
        "coordinates": [
          141.244464,
          40.902074
        ]
      },
      "properties": {
        "NO": 6744,
        "共通ID": "E0240800003111",
        "都道府県名及び市町村名": "青森県東北町",
        "施設・場所名": "美須々地区生涯学習センター",
        "住所": "青森県東北町字ガス平1213",
        "指定緊急避難場所との住所同一": "1",
        "その他市町村長が必要と認める事項": "",
        "受入対象者": "",
        "備考": ""
      }
    },
    {
      "type": "Feature",
      "geometry": {
        "type": "Point",
        "coordinates": [
          141.285161,
          40.774526
        ]
      },
      "properties": {
        "NO": 6745,
        "共通ID": "E0240800004111",
        "都道府県名及び市町村名": "青森県東北町",
        "施設・場所名": "甲地小学校",
        "住所": "青森県東北町字往来ノ下50",
        "指定緊急避難場所との住所同一": "1",
        "その他市町村長が必要と認める事項": null,
        "受入対象者": null,
        "備考": ""
      }
    },
    {
      "type": "Feature",
      "geometry": {
        "type": "Point",
        "coordinates": [
          141.194544,
          40.765945
        ]
      },
      "properties": {
        "NO": 6746,
        "共通ID": "E0240800005121",
        "都道府県名及び市町村名": "青森県東北町",
        "施設・場所名": "松風荘",
        "住所": "青森県東北町字乙供123",
        "指定緊急避難場所との住所同一": "",
        "その他市町村長が必要と認める事項": null,
        "受入対象者": "要配慮者",
        "備考": ""
      }
    },
    {
      "type": "Feature",
      "geometry": {
        "type": "Point",
        "coordinates": [
          141.241335,
          40.776374
        ]
      },
      "properties": {
        "NO": 6747,
        "共通ID": "E0240800007111",
        "都道府県名及び市町村名": "青森県東北町",
        "施設・場所名": "北総合運動公園トレーニングセンター",
        "住所": "青森県東北町字外蛯沢前平79-47",
        "指定緊急避難場所との住所同一": "1",
        "その他市町村長が必要と認める事項": "",
        "受入対象者": "",
        "備考": ""
      }
    },
    {
      "type": "Feature",
      "geometry": {
        "type": "Point",
        "coordinates": [
          141.24095,
          40.77602
        ]
      },
      "properties": {
        "NO": 6748,
        "共通ID": "E0240800007112",
        "都道府県名及び市町村名": "青森県東北町",
        "施設・場所名": "北総合運動公園合宿所",
        "住所": "青森県東北町字外蛯沢前平79-47",
        "指定緊急避難場所との住所同一": "1",
        "その他市町村長が必要と認める事項": "",
        "受入対象者": "",
        "備考": ""
      }
    },
    {
      "type": "Feature",
      "geometry": {
        "type": "Point",
        "coordinates": [
          141.238754,
          40.808101
        ]
      },
      "properties": {
        "NO": 6749,
        "共通ID": "E0240800008111",
        "都道府県名及び市町村名": "青森県東北町",
        "施設・場所名": "寒水地区生涯学習センター",
        "住所": "青森県東北町字寒水下モ42-6",
        "指定緊急避難場所との住所同一": "1",
        "その他市町村長が必要と認める事項": "",
        "受入対象者": "",
        "備考": ""
      }
    },
    {
      "type": "Feature",
      "geometry": {
        "type": "Point",
        "coordinates": [
          141.294251,
          40.756865
        ]
      },
      "properties": {
        "NO": 6750,
        "共通ID": "E0240800009121",
        "都道府県名及び市町村名": "青森県東北町",
        "施設・場所名": "けやき寮",
        "住所": "青森県東北町字古屋敷45-1",
        "指定緊急避難場所との住所同一": "",
        "その他市町村長が必要と認める事項": null,
        "受入対象者": "要配慮者",
        "備考": ""
      }
    },
    {
      "type": "Feature",
      "geometry": {
        "type": "Point",
        "coordinates": [
          141.218408,
          40.864429
        ]
      },
      "properties": {
        "NO": 6751,
        "共通ID": "E0240800010111",
        "都道府県名及び市町村名": "青森県東北町",
        "施設・場所名": "淋代地区生涯学習センター",
        "住所": "青森県東北町字高森30-1",
        "指定緊急避難場所との住所同一": "1",
        "その他市町村長が必要と認める事項": "",
        "受入対象者": "",
        "備考": ""
      }
    },
    {
      "type": "Feature",
      "geometry": {
        "type": "Point",
        "coordinates": [
          141.213979,
          40.780392
        ]
      },
      "properties": {
        "NO": 6752,
        "共通ID": "E0240800011111",
        "都道府県名及び市町村名": "青森県東北町",
        "施設・場所名": "坂下・栄町集会所",
        "住所": "青森県東北町字上笹橋29-6",
        "指定緊急避難場所との住所同一": "1",
        "その他市町村長が必要と認める事項": "",
        "受入対象者": "",
        "備考": ""
      }
    },
    {
      "type": "Feature",
      "geometry": {
        "type": "Point",
        "coordinates": [
          141.211992,
          40.781237
        ]
      },
      "properties": {
        "NO": 6753,
        "共通ID": "E0240800012111",
        "都道府県名及び市町村名": "青森県東北町",
        "施設・場所名": "老人福祉センター",
        "住所": "青森県東北町字上笹橋45-10",
        "指定緊急避難場所との住所同一": "1",
        "その他市町村長が必要と認める事項": null,
        "受入対象者": null,
        "備考": ""
      }
    },
    {
      "type": "Feature",
      "geometry": {
        "type": "Point",
        "coordinates": [
          141.118138,
          40.828214
        ]
      },
      "properties": {
        "NO": 6754,
        "共通ID": "E0240800013111",
        "都道府県名及び市町村名": "青森県東北町",
        "施設・場所名": "清水目地区生涯学習センター",
        "住所": "青森県東北町字上清水目38-1",
        "指定緊急避難場所との住所同一": "1",
        "その他市町村長が必要と認める事項": null,
        "受入対象者": null,
        "備考": ""
      }
    },
    {
      "type": "Feature",
      "geometry": {
        "type": "Point",
        "coordinates": [
          141.270768,
          40.826771
        ]
      },
      "properties": {
        "NO": 6755,
        "共通ID": "E0240800015111",
        "都道府県名及び市町村名": "青森県東北町",
        "施設・場所名": "水喰地区学習等供用センター",
        "住所": "青森県東北町字切左坂道ノ上38-118",
        "指定緊急避難場所との住所同一": "1",
        "その他市町村長が必要と認める事項": "",
        "受入対象者": "",
        "備考": ""
      }
    },
    {
      "type": "Feature",
      "geometry": {
        "type": "Point",
        "coordinates": [
          141.317706,
          40.761575
        ]
      },
      "properties": {
        "NO": 6756,
        "共通ID": "E0240800016111",
        "都道府県名及び市町村名": "青森県東北町",
        "施設・場所名": "舟ヶ沢地区生涯学習センター",
        "住所": "青森県東北町字船ケ沢57-2",
        "指定緊急避難場所との住所同一": "1",
        "その他市町村長が必要と認める事項": "",
        "受入対象者": "",
        "備考": ""
      }
    },
    {
      "type": "Feature",
      "geometry": {
        "type": "Point",
        "coordinates": [
          141.211935,
          40.781479
        ]
      },
      "properties": {
        "NO": 6757,
        "共通ID": "E0240800017111",
        "都道府県名及び市町村名": "青森県東北町",
        "施設・場所名": "保健福祉センター",
        "住所": "青森県東北町字膳前37-1",
        "指定緊急避難場所との住所同一": "1",
        "その他市町村長が必要と認める事項": null,
        "受入対象者": null,
        "備考": ""
      }
    },
    {
      "type": "Feature",
      "geometry": {
        "type": "Point",
        "coordinates": [
          141.209983,
          40.781622
        ]
      },
      "properties": {
        "NO": 6758,
        "共通ID": "E0240800018111",
        "都道府県名及び市町村名": "青森県東北町",
        "施設・場所名": "中央公民館",
        "住所": "青森県東北町字膳前48",
        "指定緊急避難場所との住所同一": "1",
        "その他市町村長が必要と認める事項": "",
        "受入対象者": "",
        "備考": ""
      }
    },
    {
      "type": "Feature",
      "geometry": {
        "type": "Point",
        "coordinates": [
          141.277757,
          40.780565
        ]
      },
      "properties": {
        "NO": 6759,
        "共通ID": "E0240800019111",
        "都道府県名及び市町村名": "青森県東北町",
        "施設・場所名": "北農村環境改善センター",
        "住所": "青森県東北町字素柄邸93-10",
        "指定緊急避難場所との住所同一": "1",
        "その他市町村長が必要と認める事項": null,
        "受入対象者": null,
        "備考": ""
      }
    },
    {
      "type": "Feature",
      "geometry": {
        "type": "Point",
        "coordinates": [
          141.132906,
          40.810961
        ]
      },
      "properties": {
        "NO": 6760,
        "共通ID": "E0240800020111",
        "都道府県名及び市町村名": "青森県東北町",
        "施設・場所名": "千曳地区学習等供用センター",
        "住所": "青森県東北町字大平1-10",
        "指定緊急避難場所との住所同一": "1",
        "その他市町村長が必要と認める事項": null,
        "受入対象者": null,
        "備考": ""
      }
    },
    {
      "type": "Feature",
      "geometry": {
        "type": "Point",
        "coordinates": [
          141.278063,
          40.804065
        ]
      },
      "properties": {
        "NO": 6761,
        "共通ID": "E0240800021111",
        "都道府県名及び市町村名": "青森県東北町",
        "施設・場所名": "滝沢平地区生涯学習センター",
        "住所": "青森県東北町字滝沢平2-502",
        "指定緊急避難場所との住所同一": "1",
        "その他市町村長が必要と認める事項": null,
        "受入対象者": null,
        "備考": ""
      }
    },
    {
      "type": "Feature",
      "geometry": {
        "type": "Point",
        "coordinates": [
          141.224433,
          40.783428
        ]
      },
      "properties": {
        "NO": 6762,
        "共通ID": "E0240800022112",
        "都道府県名及び市町村名": "青森県東北町",
        "施設・場所名": "東北中学校",
        "住所": "青森県東北町字塔ノ沢山1-11",
        "指定緊急避難場所との住所同一": "1",
        "その他市町村長が必要と認める事項": "",
        "受入対象者": "",
        "備考": ""
      }
    },
    {
      "type": "Feature",
      "geometry": {
        "type": "Point",
        "coordinates": [
          141.224333,
          40.784181
        ]
      },
      "properties": {
        "NO": 6763,
        "共通ID": "E0240800022111",
        "都道府県名及び市町村名": "青森県東北町",
        "施設・場所名": "東北町武道館",
        "住所": "青森県東北町字塔ノ沢山1-11",
        "指定緊急避難場所との住所同一": "1",
        "その他市町村長が必要と認める事項": "",
        "受入対象者": "",
        "備考": ""
      }
    },
    {
      "type": "Feature",
      "geometry": {
        "type": "Point",
        "coordinates": [
          141.224441,
          40.782352
        ]
      },
      "properties": {
        "NO": 6764,
        "共通ID": "E0240800024111",
        "都道府県名及び市町村名": "青森県東北町",
        "施設・場所名": "東北小学校",
        "住所": "青森県東北町字塔ノ沢山1-484",
        "指定緊急避難場所との住所同一": "1",
        "その他市町村長が必要と認める事項": null,
        "受入対象者": null,
        "備考": ""
      }
    },
    {
      "type": "Feature",
      "geometry": {
        "type": "Point",
        "coordinates": [
          141.225568,
          40.782319
        ]
      },
      "properties": {
        "NO": 6765,
        "共通ID": "E0240800026111",
        "都道府県名及び市町村名": "青森県東北町",
        "施設・場所名": "蛯沢地区学習等供用センター",
        "住所": "青森県東北町字塔ノ沢山1-487",
        "指定緊急避難場所との住所同一": "1",
        "その他市町村長が必要と認める事項": null,
        "受入対象者": null,
        "備考": ""
      }
    },
    {
      "type": "Feature",
      "geometry": {
        "type": "Point",
        "coordinates": [
          141.218662,
          40.778314
        ]
      },
      "properties": {
        "NO": 6766,
        "共通ID": "E0240800027111",
        "都道府県名及び市町村名": "青森県東北町",
        "施設・場所名": "コミュニティセンター未来館",
        "住所": "青森県東北町字塔ノ沢山1-94",
        "指定緊急避難場所との住所同一": "1",
        "その他市町村長が必要と認める事項": "",
        "受入対象者": "",
        "備考": ""
      }
    },
    {
      "type": "Feature",
      "geometry": {
        "type": "Point",
        "coordinates": [
          141.159489,
          40.82116
        ]
      },
      "properties": {
        "NO": 6767,
        "共通ID": "E0240800028111",
        "都道府県名及び市町村名": "青森県東北町",
        "施設・場所名": "夫雑原地区生涯学習センター",
        "住所": "青森県東北町字夫雑原39-2",
        "指定緊急避難場所との住所同一": "1",
        "その他市町村長が必要と認める事項": null,
        "受入対象者": null,
        "備考": ""
      }
    },
    {
      "type": "Feature",
      "geometry": {
        "type": "Point",
        "coordinates": [
          141.208946,
          40.775336
        ]
      },
      "properties": {
        "NO": 6768,
        "共通ID": "E0240800029111",
        "都道府県名及び市町村名": "青森県東北町",
        "施設・場所名": "元町集会所",
        "住所": "青森県東北町字柳沢5-55",
        "指定緊急避難場所との住所同一": "1",
        "その他市町村長が必要と認める事項": "",
        "受入対象者": "",
        "備考": ""
      }
    },
    {
      "type": "Feature",
      "geometry": {
        "type": "Point",
        "coordinates": [
          141.2793,
          40.778015
        ]
      },
      "properties": {
        "NO": 6769,
        "共通ID": "E0240800062121",
        "都道府県名及び市町村名": "青森県東北町",
        "施設・場所名": "カナリヤ保育園",
        "住所": "青森県東北町字和山平11-1",
        "指定緊急避難場所との住所同一": "",
        "その他市町村長が必要と認める事項": "",
        "受入対象者": "一般避難所での生活に支障がある児童及びその介助者",
        "備考": ""
      }
    },
    {
      "type": "Feature",
      "geometry": {
        "type": "Point",
        "coordinates": [
          141.266879,
          40.73014
        ]
      },
      "properties": {
        "NO": 6770,
        "共通ID": "E0240800030111",
        "都道府県名及び市町村名": "青森県東北町",
        "施設・場所名": "南町集会所",
        "住所": "青森県東北町上北南1-31-267",
        "指定緊急避難場所との住所同一": "1",
        "その他市町村長が必要と認める事項": null,
        "受入対象者": null,
        "備考": ""
      }
    },
    {
      "type": "Feature",
      "geometry": {
        "type": "Point",
        "coordinates": [
          141.255963,
          40.727124
        ]
      },
      "properties": {
        "NO": 6771,
        "共通ID": "E0240800031111",
        "都道府県名及び市町村名": "青森県東北町",
        "施設・場所名": "上北中学校",
        "住所": "青森県東北町上北南4-32-1",
        "指定緊急避難場所との住所同一": "1",
        "その他市町村長が必要と認める事項": null,
        "受入対象者": null,
        "備考": ""
      }
    },
    {
      "type": "Feature",
      "geometry": {
        "type": "Point",
        "coordinates": [
          141.259565,
          40.735405
        ]
      },
      "properties": {
        "NO": 6772,
        "共通ID": "E0240800032111",
        "都道府県名及び市町村名": "青森県東北町",
        "施設・場所名": "本町集会所",
        "住所": "青森県東北町上北北1-34-98",
        "指定緊急避難場所との住所同一": "1",
        "その他市町村長が必要と認める事項": null,
        "受入対象者": null,
        "備考": ""
      }
    },
    {
      "type": "Feature",
      "geometry": {
        "type": "Point",
        "coordinates": [
          141.254335,
          40.729414
        ]
      },
      "properties": {
        "NO": 6773,
        "共通ID": "E0240800033111",
        "都道府県名及び市町村名": "青森県東北町",
        "施設・場所名": "新町集会所",
        "住所": "青森県東北町上北北3-26-1",
        "指定緊急避難場所との住所同一": "1",
        "その他市町村長が必要と認める事項": null,
        "受入対象者": null,
        "備考": ""
      }
    },
    {
      "type": "Feature",
      "geometry": {
        "type": "Point",
        "coordinates": [
          141.243264,
          40.726033
        ]
      },
      "properties": {
        "NO": 6774,
        "共通ID": "E0240800035111",
        "都道府県名及び市町村名": "青森県東北町",
        "施設・場所名": "南農村環境改善センター",
        "住所": "青森県東北町大字上野字軍事屋敷3-1",
        "指定緊急避難場所との住所同一": "1",
        "その他市町村長が必要と認める事項": null,
        "受入対象者": null,
        "備考": ""
      }
    },
    {
      "type": "Feature",
      "geometry": {
        "type": "Point",
        "coordinates": [
          141.244152,
          40.725836
        ]
      },
      "properties": {
        "NO": 6775,
        "共通ID": "E0240800063121",
        "都道府県名及び市町村名": "青森県東北町",
        "施設・場所名": "上野保育園",
        "住所": "青森県東北町大字上野字軍事屋敷3-5",
        "指定緊急避難場所との住所同一": "",
        "その他市町村長が必要と認める事項": "",
        "受入対象者": "一般避難所での生活に支障がある児童及びその介助者",
        "備考": ""
      }
    },
    {
      "type": "Feature",
      "geometry": {
        "type": "Point",
        "coordinates": [
          141.253674,
          40.726518
        ]
      },
      "properties": {
        "NO": 6776,
        "共通ID": "E0240800036111",
        "都道府県名及び市町村名": "青森県東北町",
        "施設・場所名": "上北地区公民館",
        "住所": "青森県東北町大字上野字上野191-1",
        "指定緊急避難場所との住所同一": "1",
        "その他市町村長が必要と認める事項": null,
        "受入対象者": null,
        "備考": ""
      }
    },
    {
      "type": "Feature",
      "geometry": {
        "type": "Point",
        "coordinates": [
          141.253269,
          40.725859
        ]
      },
      "properties": {
        "NO": 6777,
        "共通ID": "E0240800036112",
        "都道府県名及び市町村名": "青森県東北町",
        "施設・場所名": "上北保健福祉センター",
        "住所": "青森県東北町大字上野字上野191-1",
        "指定緊急避難場所との住所同一": "1",
        "その他市町村長が必要と認める事項": null,
        "受入対象者": null,
        "備考": ""
      }
    },
    {
      "type": "Feature",
      "geometry": {
        "type": "Point",
        "coordinates": [
          141.252937,
          40.725454
        ]
      },
      "properties": {
        "NO": 6778,
        "共通ID": "E0240800036113",
        "都道府県名及び市町村名": "青森県東北町",
        "施設・場所名": "町民体育館",
        "住所": "青森県東北町大字上野字上野191-1",
        "指定緊急避難場所との住所同一": "1",
        "その他市町村長が必要と認める事項": "",
        "受入対象者": "",
        "備考": ""
      }
    },
    {
      "type": "Feature",
      "geometry": {
        "type": "Point",
        "coordinates": [
          141.253583,
          40.725153
        ]
      },
      "properties": {
        "NO": 6779,
        "共通ID": "E0240800037111",
        "都道府県名及び市町村名": "青森県東北町",
        "施設・場所名": "町民文化センター",
        "住所": "青森県東北町大字上野字上野191-15",
        "指定緊急避難場所との住所同一": "1",
        "その他市町村長が必要と認める事項": null,
        "受入対象者": null,
        "備考": ""
      }
    },
    {
      "type": "Feature",
      "geometry": {
        "type": "Point",
        "coordinates": [
          141.257568,
          40.721684
        ]
      },
      "properties": {
        "NO": 6780,
        "共通ID": "E0240800038111",
        "都道府県名及び市町村名": "青森県東北町",
        "施設・場所名": "栄町集会所",
        "住所": "青森県東北町大字上野字新堤向23",
        "指定緊急避難場所との住所同一": "1",
        "その他市町村長が必要と認める事項": null,
        "受入対象者": null,
        "備考": ""
      }
    },
    {
      "type": "Feature",
      "geometry": {
        "type": "Point",
        "coordinates": [
          141.257771,
          40.719999
        ]
      },
      "properties": {
        "NO": 6781,
        "共通ID": "E0240800039111",
        "都道府県名及び市町村名": "青森県東北町",
        "施設・場所名": "上小ふれあい館",
        "住所": "青森県東北町大字上野字堤向22-1",
        "指定緊急避難場所との住所同一": "1",
        "その他市町村長が必要と認める事項": null,
        "受入対象者": null,
        "備考": ""
      }
    },
    {
      "type": "Feature",
      "geometry": {
        "type": "Point",
        "coordinates": [
          141.257958,
          40.720572
        ]
      },
      "properties": {
        "NO": 6782,
        "共通ID": "E0240800039112",
        "都道府県名及び市町村名": "青森県東北町",
        "施設・場所名": "上北小学校",
        "住所": "青森県東北町大字上野字堤向22-1",
        "指定緊急避難場所との住所同一": "1",
        "その他市町村長が必要と認める事項": null,
        "受入対象者": null,
        "備考": ""
      }
    },
    {
      "type": "Feature",
      "geometry": {
        "type": "Point",
        "coordinates": [
          141.256396,
          40.718965
        ]
      },
      "properties": {
        "NO": 6783,
        "共通ID": "E0240800064121",
        "都道府県名及び市町村名": "青森県東北町",
        "施設・場所名": "わかさぎ保育園",
        "住所": "青森県東北町大字上野字堤向35",
        "指定緊急避難場所との住所同一": "",
        "その他市町村長が必要と認める事項": "一般避難所での生活に支障がある児童及びその介助者",
        "受入対象者": "10",
        "備考": ""
      }
    },
    {
      "type": "Feature",
      "geometry": {
        "type": "Point",
        "coordinates": [
          141.276345,
          40.729068
        ]
      },
      "properties": {
        "NO": 6784,
        "共通ID": "E0240800040111",
        "都道府県名及び市町村名": "青森県東北町",
        "施設・場所名": "小川原湖交流センター「宝湖館」",
        "住所": "青森県東北町大字上野字南谷地131",
        "指定緊急避難場所との住所同一": "1",
        "その他市町村長が必要と認める事項": null,
        "受入対象者": null,
        "備考": ""
      }
    },
    {
      "type": "Feature",
      "geometry": {
        "type": "Point",
        "coordinates": [
          141.261493,
          40.737783
        ]
      },
      "properties": {
        "NO": 6785,
        "共通ID": "E0240800041111",
        "都道府県名及び市町村名": "青森県東北町",
        "施設・場所名": "花向町集会所",
        "住所": "青森県東北町大字上野字北谷地9-9",
        "指定緊急避難場所との住所同一": "1",
        "その他市町村長が必要と認める事項": null,
        "受入対象者": null,
        "備考": ""
      }
    },
    {
      "type": "Feature",
      "geometry": {
        "type": "Point",
        "coordinates": [
          141.186493,
          40.69933
        ]
      },
      "properties": {
        "NO": 6786,
        "共通ID": "E0240800042111",
        "都道府県名及び市町村名": "青森県東北町",
        "施設・場所名": "新舘地区集会所",
        "住所": "青森県東北町大字新舘字籠1-5",
        "指定緊急避難場所との住所同一": "1",
        "その他市町村長が必要と認める事項": null,
        "受入対象者": null,
        "備考": ""
      }
    },
    {
      "type": "Feature",
      "geometry": {
        "type": "Point",
        "coordinates": [
          141.234937,
          40.712457
        ]
      },
      "properties": {
        "NO": 6787,
        "共通ID": "E0240800044121",
        "都道府県名及び市町村名": "青森県東北町",
        "施設・場所名": "彩香園アルテリーベ",
        "住所": "青森県東北町大字大浦字境ノ沢127",
        "指定緊急避難場所との住所同一": "",
        "その他市町村長が必要と認める事項": null,
        "受入対象者": "要配慮者",
        "備考": ""
      }
    },
    {
      "type": "Feature",
      "geometry": {
        "type": "Point",
        "coordinates": [
          141.233179,
          40.716343
        ]
      },
      "properties": {
        "NO": 6788,
        "共通ID": "E0240800045121",
        "都道府県名及び市町村名": "青森県東北町",
        "施設・場所名": "上北療護園",
        "住所": "青森県東北町大字大浦字境ノ沢6-1",
        "指定緊急避難場所との住所同一": "",
        "その他市町村長が必要と認める事項": null,
        "受入対象者": "要配慮者",
        "備考": ""
      }
    },
    {
      "type": "Feature",
      "geometry": {
        "type": "Point",
        "coordinates": [
          141.224299,
          40.7164
        ]
      },
      "properties": {
        "NO": 6789,
        "共通ID": "E0240800046111",
        "都道府県名及び市町村名": "青森県東北町",
        "施設・場所名": "才市田集会所",
        "住所": "青森県東北町大字大浦字古舘2-1",
        "指定緊急避難場所との住所同一": "1",
        "その他市町村長が必要と認める事項": null,
        "受入対象者": null,
        "備考": ""
      }
    },
    {
      "type": "Feature",
      "geometry": {
        "type": "Point",
        "coordinates": [
          141.305431,
          40.710964
        ]
      },
      "properties": {
        "NO": 6790,
        "共通ID": "E0240800047111",
        "都道府県名及び市町村名": "青森県東北町",
        "施設・場所名": "向山集会所",
        "住所": "青森県東北町大字大浦字向山31-3",
        "指定緊急避難場所との住所同一": "1",
        "その他市町村長が必要と認める事項": null,
        "受入対象者": null,
        "備考": ""
      }
    },
    {
      "type": "Feature",
      "geometry": {
        "type": "Point",
        "coordinates": [
          141.286684,
          40.721937
        ]
      },
      "properties": {
        "NO": 6791,
        "共通ID": "E0240800048111",
        "都道府県名及び市町村名": "青森県東北町",
        "施設・場所名": "沼崎集会所",
        "住所": "青森県東北町大字大浦字沼端13-4",
        "指定緊急避難場所との住所同一": "1",
        "その他市町村長が必要と認める事項": null,
        "受入対象者": null,
        "備考": ""
      }
    },
    {
      "type": "Feature",
      "geometry": {
        "type": "Point",
        "coordinates": [
          141.215003,
          40.71284
        ]
      },
      "properties": {
        "NO": 6792,
        "共通ID": "E0240800049111",
        "都道府県名及び市町村名": "青森県東北町",
        "施設・場所名": "徳万才地区コミュニティーセンター",
        "住所": "青森県東北町大字大浦字上久保1-10",
        "指定緊急避難場所との住所同一": "1",
        "その他市町村長が必要と認める事項": null,
        "受入対象者": null,
        "備考": ""
      }
    },
    {
      "type": "Feature",
      "geometry": {
        "type": "Point",
        "coordinates": [
          141.233037,
          40.699203
        ]
      },
      "properties": {
        "NO": 6793,
        "共通ID": "E0240800050111",
        "都道府県名及び市町村名": "青森県東北町",
        "施設・場所名": "大洞集会所",
        "住所": "青森県東北町大字大浦字西淋代65-1",
        "指定緊急避難場所との住所同一": "1",
        "その他市町村長が必要と認める事項": null,
        "受入対象者": null,
        "備考": ""
      }
    },
    {
      "type": "Feature",
      "geometry": {
        "type": "Point",
        "coordinates": [
          141.205622,
          40.71039
        ]
      },
      "properties": {
        "NO": 6794,
        "共通ID": "E0240800051111",
        "都道府県名及び市町村名": "青森県東北町",
        "施設・場所名": "大浦地区多目的研修集会所",
        "住所": "青森県東北町大字大浦字大浦21-1",
        "指定緊急避難場所との住所同一": "1",
        "その他市町村長が必要と認める事項": null,
        "受入対象者": null,
        "備考": ""
      }
    },
    {
      "type": "Feature",
      "geometry": {
        "type": "Point",
        "coordinates": [
          141.298009,
          40.710599
        ]
      },
      "properties": {
        "NO": 6795,
        "共通ID": "E0240800054111",
        "都道府県名及び市町村名": "青森県東北町",
        "施設・場所名": "小川原地区コミュニティーセンター",
        "住所": "青森県東北町大字大浦字中久根下108-9",
        "指定緊急避難場所との住所同一": "1",
        "その他市町村長が必要と認める事項": null,
        "受入対象者": null,
        "備考": ""
      }
    },
    {
      "type": "Feature",
      "geometry": {
        "type": "Point",
        "coordinates": [
          141.277019,
          40.703001
        ]
      },
      "properties": {
        "NO": 6796,
        "共通ID": "E0240800055111",
        "都道府県名及び市町村名": "青森県東北町",
        "施設・場所名": "菩提寺集会所",
        "住所": "青森県東北町大字大浦字東道ノ上24-2",
        "指定緊急避難場所との住所同一": "1",
        "その他市町村長が必要と認める事項": null,
        "受入対象者": null,
        "備考": ""
      }
    },
    {
      "type": "Feature",
      "geometry": {
        "type": "Point",
        "coordinates": [
          141.27597,
          40.683237
        ]
      },
      "properties": {
        "NO": 6797,
        "共通ID": "E0240800057111",
        "都道府県名及び市町村名": "青森県東北町",
        "施設・場所名": "虫神集会所",
        "住所": "青森県東北町大字大浦字南家ノ裏48-3",
        "指定緊急避難場所との住所同一": "1",
        "その他市町村長が必要と認める事項": null,
        "受入対象者": null,
        "備考": ""
      }
    },
    {
      "type": "Feature",
      "geometry": {
        "type": "Point",
        "coordinates": [
          141.250251,
          40.711126
        ]
      },
      "properties": {
        "NO": 6798,
        "共通ID": "E0240800060111",
        "都道府県名及び市町村名": "青森県東北町",
        "施設・場所名": "新山地区コミュニティーセンター",
        "住所": "青森県東北町大字大浦字明堂向47-1",
        "指定緊急避難場所との住所同一": "1",
        "その他市町村長が必要と認める事項": null,
        "受入対象者": null,
        "備考": ""
      }
    }
  ]
}