{
  "type": "FeatureCollection",
  "name": "024422",
  "features": [
    {
      "type": "Feature",
      "geometry": {
        "type": "Point",
        "coordinates": [
          141.303446,
          40.523377
        ]
      },
      "properties": {
        "NO": 7001,
        "共通ID": "E0244200001111",
        "都道府県名及び市町村名": "青森県五戸町",
        "施設・場所名": "町立公民館（体育センター含む）",
        "住所": "青森県五戸町字下モ沢向8-2",
        "指定緊急避難場所との住所同一": "1",
        "その他市町村長が必要と認める事項": null,
        "受入対象者": null,
        "備考": ""
      }
    },
    {
      "type": "Feature",
      "geometry": {
        "type": "Point",
        "coordinates": [
          141.298547,
          40.522872
        ]
      },
      "properties": {
        "NO": 7002,
        "共通ID": "E0244200002111",
        "都道府県名及び市町村名": "青森県五戸町",
        "施設・場所名": "図書館",
        "住所": "青森県五戸町字舘1-1",
        "指定緊急避難場所との住所同一": "1",
        "その他市町村長が必要と認める事項": null,
        "受入対象者": null,
        "備考": ""
      }
    },
    {
      "type": "Feature",
      "geometry": {
        "type": "Point",
        "coordinates": [
          141.291396,
          40.530758
        ]
      },
      "properties": {
        "NO": 7003,
        "共通ID": "E0244200005111",
        "都道府県名及び市町村名": "青森県五戸町",
        "施設・場所名": "五戸高等学校",
        "住所": "青森県五戸町字根岸6",
        "指定緊急避難場所との住所同一": "1",
        "その他市町村長が必要と認める事項": null,
        "受入対象者": null,
        "備考": ""
      }
    },
    {
      "type": "Feature",
      "geometry": {
        "type": "Point",
        "coordinates": [
          141.303335,
          40.526277
        ]
      },
      "properties": {
        "NO": 7004,
        "共通ID": "E0244200009111",
        "都道府県名及び市町村名": "青森県五戸町",
        "施設・場所名": "五戸小学校",
        "住所": "青森県五戸町字天満後22-1",
        "指定緊急避難場所との住所同一": "1",
        "その他市町村長が必要と認める事項": null,
        "受入対象者": null,
        "備考": ""
      }
    },
    {
      "type": "Feature",
      "geometry": {
        "type": "Point",
        "coordinates": [
          141.402506,
          40.55872
        ]
      },
      "properties": {
        "NO": 7005,
        "共通ID": "E0244200019111",
        "都道府県名及び市町村名": "青森県五戸町",
        "施設・場所名": "上市川団地集会所",
        "住所": "青森県五戸町大字上市川字外ノ沢250",
        "指定緊急避難場所との住所同一": "",
        "その他市町村長が必要と認める事項": "",
        "受入対象者": "",
        "備考": ""
      }
    },
    {
      "type": "Feature",
      "geometry": {
        "type": "Point",
        "coordinates": [
          141.398104,
          40.563473
        ]
      },
      "properties": {
        "NO": 7006,
        "共通ID": "E0244200020111",
        "都道府県名及び市町村名": "青森県五戸町",
        "施設・場所名": "上市川小学校",
        "住所": "青森県五戸町大字上市川字御兵糧3",
        "指定緊急避難場所との住所同一": "1",
        "その他市町村長が必要と認める事項": null,
        "受入対象者": null,
        "備考": ""
      }
    },
    {
      "type": "Feature",
      "geometry": {
        "type": "Point",
        "coordinates": [
          141.379165,
          40.55419
        ]
      },
      "properties": {
        "NO": 7007,
        "共通ID": "E0244200022111",
        "都道府県名及び市町村名": "青森県五戸町",
        "施設・場所名": "川内中学校",
        "住所": "青森県五戸町大字上市川字赤川々原1",
        "指定緊急避難場所との住所同一": "1",
        "その他市町村長が必要と認める事項": null,
        "受入対象者": null,
        "備考": ""
      }
    },
    {
      "type": "Feature",
      "geometry": {
        "type": "Point",
        "coordinates": [
          141.378616,
          40.552386
        ]
      },
      "properties": {
        "NO": 7008,
        "共通ID": "E0244200025111",
        "都道府県名及び市町村名": "青森県五戸町",
        "施設・場所名": "農村環境改善センター瑞穂館",
        "住所": "青森県五戸町大字上市川字中坪1-1",
        "指定緊急避難場所との住所同一": "1",
        "その他市町村長が必要と認める事項": null,
        "受入対象者": null,
        "備考": ""
      }
    },
    {
      "type": "Feature",
      "geometry": {
        "type": "Point",
        "coordinates": [
          141.357074,
          40.550126
        ]
      },
      "properties": {
        "NO": 7009,
        "共通ID": "E0244200031111",
        "都道府県名及び市町村名": "青森県五戸町",
        "施設・場所名": "切谷内小学校",
        "住所": "青森県五戸町大字切谷内字高田川原24-1",
        "指定緊急避難場所との住所同一": "1",
        "その他市町村長が必要と認める事項": null,
        "受入対象者": null,
        "備考": ""
      }
    },
    {
      "type": "Feature",
      "geometry": {
        "type": "Point",
        "coordinates": [
          141.302047,
          40.475829
        ]
      },
      "properties": {
        "NO": 7010,
        "共通ID": "E0244200044111",
        "都道府県名及び市町村名": "青森県五戸町",
        "施設・場所名": "浅水活性化センター",
        "住所": "青森県五戸町大字浅水字浅水119",
        "指定緊急避難場所との住所同一": "1",
        "その他市町村長が必要と認める事項": null,
        "受入対象者": null,
        "備考": ""
      }
    },
    {
      "type": "Feature",
      "geometry": {
        "type": "Point",
        "coordinates": [
          141.282359,
          40.515497
        ]
      },
      "properties": {
        "NO": 7011,
        "共通ID": "E0244200053111",
        "都道府県名及び市町村名": "青森県五戸町",
        "施設・場所名": "石沢駒踊伝承館",
        "住所": "青森県五戸町大字倉石石沢字石沢72-1",
        "指定緊急避難場所との住所同一": "",
        "その他市町村長が必要と認める事項": null,
        "受入対象者": null,
        "備考": ""
      }
    },
    {
      "type": "Feature",
      "geometry": {
        "type": "Point",
        "coordinates": [
          141.247622,
          40.505038
        ]
      },
      "properties": {
        "NO": 7012,
        "共通ID": "E0244200057111",
        "都道府県名及び市町村名": "青森県五戸町",
        "施設・場所名": "倉石スポーツセンター",
        "住所": "青森県五戸町大字倉石中市字幸神94-1",
        "指定緊急避難場所との住所同一": "1",
        "その他市町村長が必要と認める事項": null,
        "受入対象者": null,
        "備考": ""
      }
    },
    {
      "type": "Feature",
      "geometry": {
        "type": "Point",
        "coordinates": [
          141.278179,
          40.504472
        ]
      },
      "properties": {
        "NO": 7013,
        "共通ID": "E0244200059111",
        "都道府県名及び市町村名": "青森県五戸町",
        "施設・場所名": "明幸園",
        "住所": "青森県五戸町大字倉石中市字小渡88-2",
        "指定緊急避難場所との住所同一": "1",
        "その他市町村長が必要と認める事項": null,
        "受入対象者": null,
        "備考": ""
      }
    },
    {
      "type": "Feature",
      "geometry": {
        "type": "Point",
        "coordinates": [
          141.253025,
          40.507071
        ]
      },
      "properties": {
        "NO": 7014,
        "共通ID": "E0244200062111",
        "都道府県名及び市町村名": "青森県五戸町",
        "施設・場所名": "倉石コミュニティセンター",
        "住所": "青森県五戸町大字倉石中市字上ミ平20-4",
        "指定緊急避難場所との住所同一": "",
        "その他市町村長が必要と認める事項": "",
        "受入対象者": "",
        "備考": ""
      }
    },
    {
      "type": "Feature",
      "geometry": {
        "type": "Point",
        "coordinates": [
          141.251229,
          40.50585
        ]
      },
      "properties": {
        "NO": 7015,
        "共通ID": "E0244200063111",
        "都道府県名及び市町村名": "青森県五戸町",
        "施設・場所名": "倉石中学校",
        "住所": "青森県五戸町大字倉石中市字上ミ平36",
        "指定緊急避難場所との住所同一": "1",
        "その他市町村長が必要と認める事項": null,
        "受入対象者": null,
        "備考": ""
      }
    },
    {
      "type": "Feature",
      "geometry": {
        "type": "Point",
        "coordinates": [
          141.2544,
          40.506559
        ]
      },
      "properties": {
        "NO": 7016,
        "共通ID": "E0244200066111",
        "都道府県名及び市町村名": "青森県五戸町",
        "施設・場所名": "倉石小学校",
        "住所": "青森県五戸町大字倉石中市字田茂平40",
        "指定緊急避難場所との住所同一": "1",
        "その他市町村長が必要と認める事項": null,
        "受入対象者": null,
        "備考": ""
      }
    },
    {
      "type": "Feature",
      "geometry": {
        "type": "Point",
        "coordinates": [
          141.217471,
          40.482066
        ]
      },
      "properties": {
        "NO": 7017,
        "共通ID": "E0244200075111",
        "都道府県名及び市町村名": "青森県五戸町",
        "施設・場所名": "倉石温泉",
        "住所": "青森県五戸町大字倉石又重字上川原150",
        "指定緊急避難場所との住所同一": "",
        "その他市町村長が必要と認める事項": "",
        "受入対象者": "",
        "備考": ""
      }
    },
    {
      "type": "Feature",
      "geometry": {
        "type": "Point",
        "coordinates": [
          141.326094,
          40.510148
        ]
      },
      "properties": {
        "NO": 7018,
        "共通ID": "E0244200088111",
        "都道府県名及び市町村名": "青森県五戸町",
        "施設・場所名": "五戸中学校",
        "住所": "青森県五戸町大字豊間内字地蔵平1-276",
        "指定緊急避難場所との住所同一": "1",
        "その他市町村長が必要と認める事項": null,
        "受入対象者": null,
        "備考": ""
      }
    },
    {
      "type": "Feature",
      "geometry": {
        "type": "Point",
        "coordinates": [
          141.328355,
          40.508696
        ]
      },
      "properties": {
        "NO": 7019,
        "共通ID": "E0244200089111",
        "都道府県名及び市町村名": "青森県五戸町",
        "施設・場所名": "五戸ドーム",
        "住所": "青森県五戸町大字豊間内字地蔵平1-398",
        "指定緊急避難場所との住所同一": "1",
        "その他市町村長が必要と認める事項": null,
        "受入対象者": null,
        "備考": ""
      }
    },
    {
      "type": "Feature",
      "geometry": {
        "type": "Point",
        "coordinates": [
          141.314521,
          40.510513
        ]
      },
      "properties": {
        "NO": 7020,
        "共通ID": "E0244200090111",
        "都道府県名及び市町村名": "青森県五戸町",
        "施設・場所名": "ひばり野団地集会所",
        "住所": "青森県五戸町大字豊間内字地蔵平1-776",
        "指定緊急避難場所との住所同一": "1",
        "その他市町村長が必要と認める事項": null,
        "受入対象者": null,
        "備考": ""
      }
    },
    {
      "type": "Feature",
      "geometry": {
        "type": "Point",
        "coordinates": [
          141.347899,
          40.502533
        ]
      },
      "properties": {
        "NO": 7021,
        "共通ID": "E0244200091111",
        "都道府県名及び市町村名": "青森県五戸町",
        "施設・場所名": "豊間内地区コミュニティセンター",
        "住所": "青森県五戸町大字豊間内字豊間内2-1",
        "指定緊急避難場所との住所同一": "1",
        "その他市町村長が必要と認める事項": null,
        "受入対象者": null,
        "備考": ""
      }
    }
  ]
}