{
  "type": "FeatureCollection",
  "name": "032026",
  "features": [
    {
      "type": "Feature",
      "geometry": {
        "type": "Point",
        "coordinates": [
          141.962817,
          39.643627
        ]
      },
      "properties": {
        "NO": 7348,
        "共通ID": "E0320200001111",
        "都道府県名及び市町村名": "岩手県宮古市",
        "施設・場所名": "旧愛宕小学校（東棟）",
        "住所": "岩手県宮古市愛宕1-4-5",
        "指定緊急避難場所との住所同一": "1",
        "その他市町村長が必要と認める事項": "津波が収まったのちに状況に応じて開設する。",
        "受入対象者": null,
        "備考": ""
      }
    },
    {
      "type": "Feature",
      "geometry": {
        "type": "Point",
        "coordinates": [
          141.950218,
          39.644939
        ]
      },
      "properties": {
        "NO": 7349,
        "共通ID": "E0320200008111",
        "都道府県名及び市町村名": "岩手県宮古市",
        "施設・場所名": "宮古小学校（体育館）",
        "住所": "岩手県宮古市横町5-1",
        "指定緊急避難場所との住所同一": "1",
        "その他市町村長が必要と認める事項": "津波が収まったのちに状況に応じて開設する。",
        "受入対象者": null,
        "備考": ""
      }
    },
    {
      "type": "Feature",
      "geometry": {
        "type": "Point",
        "coordinates": [
          142.016669,
          39.596396
        ]
      },
      "properties": {
        "NO": 7350,
        "共通ID": "E0320200009111",
        "都道府県名及び市町村名": "岩手県宮古市",
        "施設・場所名": "第２６分団屯所",
        "住所": "岩手県宮古市音部8-16-2",
        "指定緊急避難場所との住所同一": "",
        "その他市町村長が必要と認める事項": null,
        "受入対象者": null,
        "備考": ""
      }
    },
    {
      "type": "Feature",
      "geometry": {
        "type": "Point",
        "coordinates": [
          141.953675,
          39.622312
        ]
      },
      "properties": {
        "NO": 7351,
        "共通ID": "E0320200013111",
        "都道府県名及び市町村名": "岩手県宮古市",
        "施設・場所名": "河南中学校",
        "住所": "岩手県宮古市河南1-1-1",
        "指定緊急避難場所との住所同一": "1",
        "その他市町村長が必要と認める事項": null,
        "受入対象者": null,
        "備考": ""
      }
    },
    {
      "type": "Feature",
      "geometry": {
        "type": "Point",
        "coordinates": [
          141.899223,
          39.609228
        ]
      },
      "properties": {
        "NO": 7352,
        "共通ID": "E0320200015111",
        "都道府県名及び市町村名": "岩手県宮古市",
        "施設・場所名": "花輪小学校",
        "住所": "岩手県宮古市花輪第４地割26",
        "指定緊急避難場所との住所同一": "",
        "その他市町村長が必要と認める事項": null,
        "受入対象者": null,
        "備考": ""
      }
    },
    {
      "type": "Feature",
      "geometry": {
        "type": "Point",
        "coordinates": [
          141.898664,
          39.614172
        ]
      },
      "properties": {
        "NO": 7353,
        "共通ID": "E0320200016111",
        "都道府県名及び市町村名": "岩手県宮古市",
        "施設・場所名": "花輪中学校（体育館）",
        "住所": "岩手県宮古市花輪第５地割132",
        "指定緊急避難場所との住所同一": "",
        "その他市町村長が必要と認める事項": null,
        "受入対象者": null,
        "備考": ""
      }
    },
    {
      "type": "Feature",
      "geometry": {
        "type": "Point",
        "coordinates": [
          141.943211,
          39.644739
        ]
      },
      "properties": {
        "NO": 7354,
        "共通ID": "E0320200017111",
        "都道府県名及び市町村名": "岩手県宮古市",
        "施設・場所名": "山口小学校",
        "住所": "岩手県宮古市鴨崎町3-25",
        "指定緊急避難場所との住所同一": "",
        "その他市町村長が必要と認める事項": "津波が収まったのちに状況に応じて開設する。",
        "受入対象者": null,
        "備考": ""
      }
    },
    {
      "type": "Feature",
      "geometry": {
        "type": "Point",
        "coordinates": [
          141.75708,
          39.645456
        ]
      },
      "properties": {
        "NO": 7355,
        "共通ID": "E0320200019111",
        "都道府県名及び市町村名": "岩手県宮古市",
        "施設・場所名": "基幹集落センター",
        "住所": "岩手県宮古市刈屋11-101-17",
        "指定緊急避難場所との住所同一": "",
        "その他市町村長が必要と認める事項": null,
        "受入対象者": null,
        "備考": ""
      }
    },
    {
      "type": "Feature",
      "geometry": {
        "type": "Point",
        "coordinates": [
          141.753522,
          39.644757
        ]
      },
      "properties": {
        "NO": 7356,
        "共通ID": "E0320200020111",
        "都道府県名及び市町村名": "岩手県宮古市",
        "施設・場所名": "新里小学校",
        "住所": "岩手県宮古市刈屋第１１地割483",
        "指定緊急避難場所との住所同一": "",
        "その他市町村長が必要と認める事項": null,
        "受入対象者": null,
        "備考": ""
      }
    },
    {
      "type": "Feature",
      "geometry": {
        "type": "Point",
        "coordinates": [
          141.733793,
          39.665385
        ]
      },
      "properties": {
        "NO": 7357,
        "共通ID": "E0320200021111",
        "都道府県名及び市町村名": "岩手県宮古市",
        "施設・場所名": "林業活力センター",
        "住所": "岩手県宮古市刈屋第４地割5",
        "指定緊急避難場所との住所同一": "",
        "その他市町村長が必要と認める事項": null,
        "受入対象者": null,
        "備考": ""
      }
    },
    {
      "type": "Feature",
      "geometry": {
        "type": "Point",
        "coordinates": [
          141.944656,
          39.637397
        ]
      },
      "properties": {
        "NO": 7358,
        "共通ID": "E0320200025111",
        "都道府県名及び市町村名": "岩手県宮古市",
        "施設・場所名": "第一中学校",
        "住所": "岩手県宮古市宮町2-5-7",
        "指定緊急避難場所との住所同一": "",
        "その他市町村長が必要と認める事項": "津波が収まったのちに状況に応じて開設する。",
        "受入対象者": null,
        "備考": ""
      }
    },
    {
      "type": "Feature",
      "geometry": {
        "type": "Point",
        "coordinates": [
          141.938707,
          39.599315
        ]
      },
      "properties": {
        "NO": 7359,
        "共通ID": "E0320200026111",
        "都道府県名及び市町村名": "岩手県宮古市",
        "施設・場所名": "金浜農漁村センター",
        "住所": "岩手県宮古市金浜1-1-49",
        "指定緊急避難場所との住所同一": "",
        "その他市町村長が必要と認める事項": null,
        "受入対象者": null,
        "備考": ""
      }
    },
    {
      "type": "Feature",
      "geometry": {
        "type": "Point",
        "coordinates": [
          141.944395,
          39.597975
        ]
      },
      "properties": {
        "NO": 7360,
        "共通ID": "E0320200027111",
        "都道府県名及び市町村名": "岩手県宮古市",
        "施設・場所名": "金浜老人福祉センター",
        "住所": "岩手県宮古市金浜1-16-1",
        "指定緊急避難場所との住所同一": "",
        "その他市町村長が必要と認める事項": null,
        "受入対象者": null,
        "備考": ""
      }
    },
    {
      "type": "Feature",
      "geometry": {
        "type": "Point",
        "coordinates": [
          141.43761,
          39.633912
        ]
      },
      "properties": {
        "NO": 7361,
        "共通ID": "E0320200030111",
        "都道府県名及び市町村名": "岩手県宮古市",
        "施設・場所名": "門馬地域振興センター",
        "住所": "岩手県宮古市区界3-32-20",
        "指定緊急避難場所との住所同一": "",
        "その他市町村長が必要と認める事項": null,
        "受入対象者": null,
        "備考": ""
      }
    },
    {
      "type": "Feature",
      "geometry": {
        "type": "Point",
        "coordinates": [
          141.425306,
          39.640354
        ]
      },
      "properties": {
        "NO": 7362,
        "共通ID": "E0320200031111",
        "都道府県名及び市町村名": "岩手県宮古市",
        "施設・場所名": "旧門馬小学校",
        "住所": "岩手県宮古市区界4-148-1",
        "指定緊急避難場所との住所同一": "",
        "その他市町村長が必要と認める事項": null,
        "受入対象者": null,
        "備考": ""
      }
    },
    {
      "type": "Feature",
      "geometry": {
        "type": "Point",
        "coordinates": [
          141.967042,
          39.649727
        ]
      },
      "properties": {
        "NO": 7363,
        "共通ID": "E0320200034111",
        "都道府県名及び市町村名": "岩手県宮古市",
        "施設・場所名": "鍬ヶ崎小学校",
        "住所": "岩手県宮古市熊野町6-33",
        "指定緊急避難場所との住所同一": "",
        "その他市町村長が必要と認める事項": "津波が収まったのちに状況に応じて開設する。",
        "受入対象者": null,
        "備考": ""
      }
    },
    {
      "type": "Feature",
      "geometry": {
        "type": "Point",
        "coordinates": [
          141.658472,
          39.536203
        ]
      },
      "properties": {
        "NO": 7364,
        "共通ID": "E0320200041111",
        "都道府県名及び市町村名": "岩手県宮古市",
        "施設・場所名": "江繋地域振興センター",
        "住所": "岩手県宮古市江繋9-43",
        "指定緊急避難場所との住所同一": "",
        "その他市町村長が必要と認める事項": null,
        "受入対象者": null,
        "備考": ""
      }
    },
    {
      "type": "Feature",
      "geometry": {
        "type": "Point",
        "coordinates": [
          141.968958,
          39.648334
        ]
      },
      "properties": {
        "NO": 7365,
        "共通ID": "E0320200043111",
        "都道府県名及び市町村名": "岩手県宮古市",
        "施設・場所名": "鍬ヶ崎公民館",
        "住所": "岩手県宮古市港町3-1",
        "指定緊急避難場所との住所同一": "",
        "その他市町村長が必要と認める事項": null,
        "受入対象者": null,
        "備考": ""
      }
    },
    {
      "type": "Feature",
      "geometry": {
        "type": "Point",
        "coordinates": [
          141.96102,
          39.679148
        ]
      },
      "properties": {
        "NO": 7366,
        "共通ID": "E0320200050111",
        "都道府県名及び市町村名": "岩手県宮古市",
        "施設・場所名": "崎山中学校",
        "住所": "岩手県宮古市崎山3-1-1",
        "指定緊急避難場所との住所同一": "",
        "その他市町村長が必要と認める事項": null,
        "受入対象者": null,
        "備考": ""
      }
    },
    {
      "type": "Feature",
      "geometry": {
        "type": "Point",
        "coordinates": [
          141.93704,
          39.650313
        ]
      },
      "properties": {
        "NO": 7367,
        "共通ID": "E0320200054111",
        "都道府県名及び市町村名": "岩手県宮古市",
        "施設・場所名": "山口公民館",
        "住所": "岩手県宮古市山口1-3-14",
        "指定緊急避難場所との住所同一": "",
        "その他市町村長が必要と認める事項": null,
        "受入対象者": null,
        "備考": ""
      }
    },
    {
      "type": "Feature",
      "geometry": {
        "type": "Point",
        "coordinates": [
          142.03206,
          39.52883
        ]
      },
      "properties": {
        "NO": 7368,
        "共通ID": "E0320200057111",
        "都道府県名及び市町村名": "岩手県宮古市",
        "施設・場所名": "千鶏コミュニティ消防センター",
        "住所": "岩手県宮古市重茂15-3-1",
        "指定緊急避難場所との住所同一": "",
        "その他市町村長が必要と認める事項": null,
        "受入対象者": null,
        "備考": ""
      }
    },
    {
      "type": "Feature",
      "geometry": {
        "type": "Point",
        "coordinates": [
          142.021387,
          39.582084
        ]
      },
      "properties": {
        "NO": 7369,
        "共通ID": "E0320200065111",
        "都道府県名及び市町村名": "岩手県宮古市",
        "施設・場所名": "重茂地区総合交流促進センター",
        "住所": "岩手県宮古市重茂第１地割61",
        "指定緊急避難場所との住所同一": "1",
        "その他市町村長が必要と認める事項": null,
        "受入対象者": null,
        "備考": ""
      }
    },
    {
      "type": "Feature",
      "geometry": {
        "type": "Point",
        "coordinates": [
          142.012023,
          39.633792
        ]
      },
      "properties": {
        "NO": 7370,
        "共通ID": "E0320200068111",
        "都道府県名及び市町村名": "岩手県宮古市",
        "施設・場所名": "北地区公民館",
        "住所": "岩手県宮古市重茂第２８地割20",
        "指定緊急避難場所との住所同一": "",
        "その他市町村長が必要と認める事項": null,
        "受入対象者": null,
        "備考": ""
      }
    },
    {
      "type": "Feature",
      "geometry": {
        "type": "Point",
        "coordinates": [
          141.670401,
          39.511052
        ]
      },
      "properties": {
        "NO": 7371,
        "共通ID": "E0320200076111",
        "都道府県名及び市町村名": "岩手県宮古市",
        "施設・場所名": "小国地域振興センター",
        "住所": "岩手県宮古市小国9-96-7",
        "指定緊急避難場所との住所同一": "",
        "その他市町村長が必要と認める事項": null,
        "受入対象者": null,
        "備考": ""
      }
    },
    {
      "type": "Feature",
      "geometry": {
        "type": "Point",
        "coordinates": [
          141.940019,
          39.631967
        ]
      },
      "properties": {
        "NO": 7372,
        "共通ID": "E0320200079111",
        "都道府県名及び市町村名": "岩手県宮古市",
        "施設・場所名": "小山田地区センター",
        "住所": "岩手県宮古市小山田3-4-5",
        "指定緊急避難場所との住所同一": "1",
        "その他市町村長が必要と認める事項": null,
        "受入対象者": null,
        "備考": ""
      }
    },
    {
      "type": "Feature",
      "geometry": {
        "type": "Point",
        "coordinates": [
          141.914996,
          39.621489
        ]
      },
      "properties": {
        "NO": 7373,
        "共通ID": "E0320200083111",
        "都道府県名及び市町村名": "岩手県宮古市",
        "施設・場所名": "松山地区センター",
        "住所": "岩手県宮古市松山9-17-1",
        "指定緊急避難場所との住所同一": "",
        "その他市町村長が必要と認める事項": null,
        "受入対象者": null,
        "備考": ""
      }
    },
    {
      "type": "Feature",
      "geometry": {
        "type": "Point",
        "coordinates": [
          141.954551,
          39.627047
        ]
      },
      "properties": {
        "NO": 7374,
        "共通ID": "E0320200085111",
        "都道府県名及び市町村名": "岩手県宮古市",
        "施設・場所名": "磯鶏小学校",
        "住所": "岩手県宮古市上村2-4-1",
        "指定緊急避難場所との住所同一": "1",
        "その他市町村長が必要と認める事項": null,
        "受入対象者": null,
        "備考": ""
      }
    },
    {
      "type": "Feature",
      "geometry": {
        "type": "Point",
        "coordinates": [
          141.916603,
          39.640697
        ]
      },
      "properties": {
        "NO": 7375,
        "共通ID": "E0320200088111",
        "都道府県名及び市町村名": "岩手県宮古市",
        "施設・場所名": "千徳小学校",
        "住所": "岩手県宮古市西ケ丘1-2-1",
        "指定緊急避難場所との住所同一": "",
        "その他市町村長が必要と認める事項": null,
        "受入対象者": null,
        "備考": ""
      }
    },
    {
      "type": "Feature",
      "geometry": {
        "type": "Point",
        "coordinates": [
          141.912612,
          39.640664
        ]
      },
      "properties": {
        "NO": 7376,
        "共通ID": "E0320200089111",
        "都道府県名及び市町村名": "岩手県宮古市",
        "施設・場所名": "宮古西中学校",
        "住所": "岩手県宮古市西ケ丘2-1-1",
        "指定緊急避難場所との住所同一": "",
        "その他市町村長が必要と認める事項": null,
        "受入対象者": null,
        "備考": ""
      }
    },
    {
      "type": "Feature",
      "geometry": {
        "type": "Point",
        "coordinates": [
          141.95647,
          39.582189
        ]
      },
      "properties": {
        "NO": 7377,
        "共通ID": "E0320200091111",
        "都道府県名及び市町村名": "岩手県宮古市",
        "施設・場所名": "旧赤前小学校",
        "住所": "岩手県宮古市赤前11-49-2",
        "指定緊急避難場所との住所同一": "",
        "その他市町村長が必要と認める事項": "",
        "受入対象者": "",
        "備考": ""
      }
    },
    {
      "type": "Feature",
      "geometry": {
        "type": "Point",
        "coordinates": [
          141.923289,
          39.629445
        ]
      },
      "properties": {
        "NO": 7378,
        "共通ID": "E0320200098111",
        "都道府県名及び市町村名": "岩手県宮古市",
        "施設・場所名": "宮古浄化センター（２階）",
        "住所": "岩手県宮古市千徳14-11-2",
        "指定緊急避難場所との住所同一": "",
        "その他市町村長が必要と認める事項": null,
        "受入対象者": null,
        "備考": ""
      }
    },
    {
      "type": "Feature",
      "geometry": {
        "type": "Point",
        "coordinates": [
          141.919284,
          39.633251
        ]
      },
      "properties": {
        "NO": 7379,
        "共通ID": "E0320200099111",
        "都道府県名及び市町村名": "岩手県宮古市",
        "施設・場所名": "千徳公民館（２階）",
        "住所": "岩手県宮古市千徳町5-39",
        "指定緊急避難場所との住所同一": "",
        "その他市町村長が必要と認める事項": null,
        "受入対象者": null,
        "備考": ""
      }
    },
    {
      "type": "Feature",
      "geometry": {
        "type": "Point",
        "coordinates": [
          141.679462,
          39.600087
        ]
      },
      "properties": {
        "NO": 7380,
        "共通ID": "E0320200100111",
        "都道府県名及び市町村名": "岩手県宮古市",
        "施設・場所名": "川井生涯学習センター",
        "住所": "岩手県宮古市川井186-1",
        "指定緊急避難場所との住所同一": "",
        "その他市町村長が必要と認める事項": null,
        "受入対象者": null,
        "備考": ""
      }
    },
    {
      "type": "Feature",
      "geometry": {
        "type": "Point",
        "coordinates": [
          141.681596,
          39.597846
        ]
      },
      "properties": {
        "NO": 7381,
        "共通ID": "E0320200101111",
        "都道府県名及び市町村名": "岩手県宮古市",
        "施設・場所名": "川井地域振興センター",
        "住所": "岩手県宮古市川井5-101-13",
        "指定緊急避難場所との住所同一": "",
        "その他市町村長が必要と認める事項": null,
        "受入対象者": null,
        "備考": ""
      }
    },
    {
      "type": "Feature",
      "geometry": {
        "type": "Point",
        "coordinates": [
          141.589718,
          39.648636
        ]
      },
      "properties": {
        "NO": 7382,
        "共通ID": "E0320200105111",
        "都道府県名及び市町村名": "岩手県宮古市",
        "施設・場所名": "薬師塗漆工芸館",
        "住所": "岩手県宮古市川内8-8-1",
        "指定緊急避難場所との住所同一": "",
        "その他市町村長が必要と認める事項": null,
        "受入対象者": null,
        "備考": ""
      }
    },
    {
      "type": "Feature",
      "geometry": {
        "type": "Point",
        "coordinates": [
          141.888437,
          39.601859
        ]
      },
      "properties": {
        "NO": 7383,
        "共通ID": "E0320200111111",
        "都道府県名及び市町村名": "岩手県宮古市",
        "施設・場所名": "長沢農村センター",
        "住所": "岩手県宮古市長沢16-123-8",
        "指定緊急避難場所との住所同一": "",
        "その他市町村長が必要と認める事項": null,
        "受入対象者": null,
        "備考": ""
      }
    },
    {
      "type": "Feature",
      "geometry": {
        "type": "Point",
        "coordinates": [
          141.935101,
          39.581829
        ]
      },
      "properties": {
        "NO": 7384,
        "共通ID": "E0320200114111",
        "都道府県名及び市町村名": "岩手県宮古市",
        "施設・場所名": "津軽石公民館",
        "住所": "岩手県宮古市津軽石4-40-6",
        "指定緊急避難場所との住所同一": "",
        "その他市町村長が必要と認める事項": null,
        "受入対象者": null,
        "備考": ""
      }
    },
    {
      "type": "Feature",
      "geometry": {
        "type": "Point",
        "coordinates": [
          141.938567,
          39.572326
        ]
      },
      "properties": {
        "NO": 7385,
        "共通ID": "E0320200116111",
        "都道府県名及び市町村名": "岩手県宮古市",
        "施設・場所名": "津軽石中学校（体育館）",
        "住所": "岩手県宮古市津軽石第１１地割57",
        "指定緊急避難場所との住所同一": "",
        "その他市町村長が必要と認める事項": "津波が収まったのちに状況に応じて開設する。",
        "受入対象者": null,
        "備考": ""
      }
    },
    {
      "type": "Feature",
      "geometry": {
        "type": "Point",
        "coordinates": [
          141.933713,
          39.581101
        ]
      },
      "properties": {
        "NO": 7386,
        "共通ID": "E0320200122111",
        "都道府県名及び市町村名": "岩手県宮古市",
        "施設・場所名": "津軽石小学校",
        "住所": "岩手県宮古市津軽石第４地割82",
        "指定緊急避難場所との住所同一": "",
        "その他市町村長が必要と認める事項": "津波が収まったのちに状況に応じて開設する。",
        "受入対象者": null,
        "備考": ""
      }
    },
    {
      "type": "Feature",
      "geometry": {
        "type": "Point",
        "coordinates": [
          141.899192,
          39.703446
        ]
      },
      "properties": {
        "NO": 7387,
        "共通ID": "E0320200124111",
        "都道府県名及び市町村名": "岩手県宮古市",
        "施設・場所名": "田代林業者センター",
        "住所": "岩手県宮古市田代16-50-2",
        "指定緊急避難場所との住所同一": "",
        "その他市町村長が必要と認める事項": null,
        "受入対象者": null,
        "備考": ""
      }
    },
    {
      "type": "Feature",
      "geometry": {
        "type": "Point",
        "coordinates": [
          141.967466,
          39.735409
        ]
      },
      "properties": {
        "NO": 7388,
        "共通ID": "E0320200126111",
        "都道府県名及び市町村名": "岩手県宮古市",
        "施設・場所名": "田老総合事務所",
        "住所": "岩手県宮古市田老1-3-4",
        "指定緊急避難場所との住所同一": "",
        "その他市町村長が必要と認める事項": null,
        "受入対象者": null,
        "備考": ""
      }
    },
    {
      "type": "Feature",
      "geometry": {
        "type": "Point",
        "coordinates": [
          141.979164,
          39.741032
        ]
      },
      "properties": {
        "NO": 7389,
        "共通ID": "E0320200136111",
        "都道府県名及び市町村名": "岩手県宮古市",
        "施設・場所名": "三王地区自治会研修センター",
        "住所": "岩手県宮古市田老三王2-4-3",
        "指定緊急避難場所との住所同一": "1",
        "その他市町村長が必要と認める事項": null,
        "受入対象者": null,
        "備考": ""
      }
    },
    {
      "type": "Feature",
      "geometry": {
        "type": "Point",
        "coordinates": [
          141.965856,
          39.736101
        ]
      },
      "properties": {
        "NO": 7390,
        "共通ID": "E0320200141111",
        "都道府県名及び市町村名": "岩手県宮古市",
        "施設・場所名": "田老第一小学校",
        "住所": "岩手県宮古市田老字館が森155-2",
        "指定緊急避難場所との住所同一": "",
        "その他市町村長が必要と認める事項": "津波が収まったのちに状況に応じて開設する。",
        "受入対象者": null,
        "備考": ""
      }
    },
    {
      "type": "Feature",
      "geometry": {
        "type": "Point",
        "coordinates": [
          141.968537,
          39.790029
        ]
      },
      "properties": {
        "NO": 7391,
        "共通ID": "E0320200142111",
        "都道府県名及び市町村名": "岩手県宮古市",
        "施設・場所名": "グリーンピア三陸みやこ",
        "住所": "岩手県宮古市田老字向新田148",
        "指定緊急避難場所との住所同一": "",
        "その他市町村長が必要と認める事項": "ペット同行・同伴避難所として併設指定",
        "受入対象者": null,
        "備考": ""
      }
    },
    {
      "type": "Feature",
      "geometry": {
        "type": "Point",
        "coordinates": [
          141.959911,
          39.807775
        ]
      },
      "properties": {
        "NO": 7392,
        "共通ID": "E0320200149111",
        "都道府県名及び市町村名": "岩手県宮古市",
        "施設・場所名": "第３２分団屯所",
        "住所": "岩手県宮古市田老字上摂待15-2",
        "指定緊急避難場所との住所同一": "",
        "その他市町村長が必要と認める事項": null,
        "受入対象者": null,
        "備考": ""
      }
    },
    {
      "type": "Feature",
      "geometry": {
        "type": "Point",
        "coordinates": [
          141.949792,
          39.730871
        ]
      },
      "properties": {
        "NO": 7393,
        "共通ID": "E0320200156111",
        "都道府県名及び市町村名": "岩手県宮古市",
        "施設・場所名": "宮古北高等学校",
        "住所": "岩手県宮古市田老字八幡水神43-2",
        "指定緊急避難場所との住所同一": "1",
        "その他市町村長が必要と認める事項": null,
        "受入対象者": null,
        "備考": ""
      }
    },
    {
      "type": "Feature",
      "geometry": {
        "type": "Point",
        "coordinates": [
          141.957502,
          39.636817
        ]
      },
      "properties": {
        "NO": 7394,
        "共通ID": "E0320200165111",
        "都道府県名及び市町村名": "岩手県宮古市",
        "施設・場所名": "旧藤原小学校",
        "住所": "岩手県宮古市藤原上町1-37",
        "指定緊急避難場所との住所同一": "",
        "その他市町村長が必要と認める事項": "津波が収まったのちに状況に応じて開設する。",
        "受入対象者": null,
        "備考": ""
      }
    },
    {
      "type": "Feature",
      "geometry": {
        "type": "Point",
        "coordinates": [
          141.954714,
          39.653419
        ]
      },
      "properties": {
        "NO": 7395,
        "共通ID": "E0320200168111",
        "都道府県名及び市町村名": "岩手県宮古市",
        "施設・場所名": "第二中学校",
        "住所": "岩手県宮古市日の出町7-1",
        "指定緊急避難場所との住所同一": "",
        "その他市町村長が必要と認める事項": null,
        "受入対象者": null,
        "備考": ""
      }
    },
    {
      "type": "Feature",
      "geometry": {
        "type": "Point",
        "coordinates": [
          141.98496,
          39.609901
        ]
      },
      "properties": {
        "NO": 7396,
        "共通ID": "E0320200175111",
        "都道府県名及び市町村名": "岩手県宮古市",
        "施設・場所名": "白浜地区会館",
        "住所": "岩手県宮古市白浜1-105",
        "指定緊急避難場所との住所同一": "",
        "その他市町村長が必要と認める事項": null,
        "受入対象者": null,
        "備考": ""
      }
    },
    {
      "type": "Feature",
      "geometry": {
        "type": "Point",
        "coordinates": [
          141.97923,
          39.609543
        ]
      },
      "properties": {
        "NO": 7397,
        "共通ID": "E0320200177111",
        "都道府県名及び市町村名": "岩手県宮古市",
        "施設・場所名": "旧海幸園",
        "住所": "岩手県宮古市白浜第２地割35",
        "指定緊急避難場所との住所同一": "",
        "その他市町村長が必要と認める事項": null,
        "受入対象者": null,
        "備考": ""
      }
    },
    {
      "type": "Feature",
      "geometry": {
        "type": "Point",
        "coordinates": [
          141.62233,
          39.624091
        ]
      },
      "properties": {
        "NO": 7398,
        "共通ID": "E0320200179111",
        "都道府県名及び市町村名": "岩手県宮古市",
        "施設・場所名": "川井中学校",
        "住所": "岩手県宮古市箱石第１地割4",
        "指定緊急避難場所との住所同一": "",
        "その他市町村長が必要と認める事項": null,
        "受入対象者": null,
        "備考": ""
      }
    },
    {
      "type": "Feature",
      "geometry": {
        "type": "Point",
        "coordinates": [
          141.62717,
          39.613426
        ]
      },
      "properties": {
        "NO": 7399,
        "共通ID": "E0320200180111",
        "都道府県名及び市町村名": "岩手県宮古市",
        "施設・場所名": "箱石地域振興センター",
        "住所": "岩手県宮古市箱石第１地割77",
        "指定緊急避難場所との住所同一": "",
        "その他市町村長が必要と認める事項": null,
        "受入対象者": null,
        "備考": ""
      }
    },
    {
      "type": "Feature",
      "geometry": {
        "type": "Point",
        "coordinates": [
          141.767553,
          39.604888
        ]
      },
      "properties": {
        "NO": 7400,
        "共通ID": "E0320200184111",
        "都道府県名及び市町村名": "岩手県宮古市",
        "施設・場所名": "腹帯地区コミュニティ消防センター",
        "住所": "岩手県宮古市腹帯1-44-13",
        "指定緊急避難場所との住所同一": "",
        "その他市町村長が必要と認める事項": null,
        "受入対象者": null,
        "備考": ""
      }
    },
    {
      "type": "Feature",
      "geometry": {
        "type": "Point",
        "coordinates": [
          141.764978,
          39.603666
        ]
      },
      "properties": {
        "NO": 7401,
        "共通ID": "E0320200185111",
        "都道府県名及び市町村名": "岩手県宮古市",
        "施設・場所名": "腹帯生活改善センター",
        "住所": "岩手県宮古市腹帯4-112-3",
        "指定緊急避難場所との住所同一": "",
        "その他市町村長が必要と認める事項": null,
        "受入対象者": null,
        "備考": ""
      }
    },
    {
      "type": "Feature",
      "geometry": {
        "type": "Point",
        "coordinates": [
          141.791138,
          39.626245
        ]
      },
      "properties": {
        "NO": 7402,
        "共通ID": "E0320200187111",
        "都道府県名及び市町村名": "岩手県宮古市",
        "施設・場所名": "新里福祉センター",
        "住所": "岩手県宮古市茂市2-112-1",
        "指定緊急避難場所との住所同一": "",
        "その他市町村長が必要と認める事項": null,
        "受入対象者": null,
        "備考": ""
      }
    },
    {
      "type": "Feature",
      "geometry": {
        "type": "Point",
        "coordinates": [
          141.799332,
          39.615938
        ]
      },
      "properties": {
        "NO": 7403,
        "共通ID": "E0320200188111",
        "都道府県名及び市町村名": "岩手県宮古市",
        "施設・場所名": "新里生涯学習センター",
        "住所": "岩手県宮古市茂市5-5-2",
        "指定緊急避難場所との住所同一": "",
        "その他市町村長が必要と認める事項": null,
        "受入対象者": null,
        "備考": ""
      }
    },
    {
      "type": "Feature",
      "geometry": {
        "type": "Point",
        "coordinates": [
          141.716254,
          39.685654
        ]
      },
      "properties": {
        "NO": 7404,
        "共通ID": "E0320200189111",
        "都道府県名及び市町村名": "岩手県宮古市",
        "施設・場所名": "和井内ふるさと会館",
        "住所": "岩手県宮古市和井内17-64-2",
        "指定緊急避難場所との住所同一": "",
        "その他市町村長が必要と認める事項": null,
        "受入対象者": null,
        "備考": ""
      }
    },
    {
      "type": "Feature",
      "geometry": {
        "type": "Point",
        "coordinates": [
          141.709272,
          39.694566
        ]
      },
      "properties": {
        "NO": 7405,
        "共通ID": "E0320200190111",
        "都道府県名及び市町村名": "岩手県宮古市",
        "施設・場所名": "四番地区総合センター",
        "住所": "岩手県宮古市和井内4-27-6",
        "指定緊急避難場所との住所同一": "",
        "その他市町村長が必要と認める事項": null,
        "受入対象者": null,
        "備考": ""
      }
    },
    {
      "type": "Feature",
      "geometry": {
        "type": "Point",
        "coordinates": [
          141.8382,
          39.628573
        ]
      },
      "properties": {
        "NO": 7406,
        "共通ID": "E0320200191111",
        "都道府県名及び市町村名": "岩手県宮古市",
        "施設・場所名": "新里高齢者コミュニティセンター",
        "住所": "岩手県宮古市蟇目12-74-9",
        "指定緊急避難場所との住所同一": "",
        "その他市町村長が必要と認める事項": null,
        "受入対象者": null,
        "備考": ""
      }
    },
    {
      "type": "Feature",
      "geometry": {
        "type": "Point",
        "coordinates": [
          141.83347,
          39.63442
        ]
      },
      "properties": {
        "NO": 7407,
        "共通ID": "E0320200192111",
        "都道府県名及び市町村名": "岩手県宮古市",
        "施設・場所名": "旧蟇目小学校",
        "住所": "岩手県宮古市蟇目第６地割133",
        "指定緊急避難場所との住所同一": "",
        "その他市町村長が必要と認める事項": null,
        "受入対象者": null,
        "備考": ""
      }
    }
  ]
}