{
  "type": "FeatureCollection",
  "name": "032069",
  "features": [
    {
      "type": "Feature",
      "geometry": {
        "type": "Point",
        "coordinates": [
          141.109469,
          39.297833
        ]
      },
      "properties": {
        "NO": 7586,
        "共通ID": "E0320600001111",
        "都道府県名及び市町村名": "岩手県北上市",
        "施設・場所名": "さくらホール",
        "住所": "岩手県北上市さくら通り2-1-1",
        "指定緊急避難場所との住所同一": "1",
        "その他市町村長が必要と認める事項": null,
        "受入対象者": null,
        "備考": ""
      }
    },
    {
      "type": "Feature",
      "geometry": {
        "type": "Point",
        "coordinates": [
          141.125631,
          39.249312
        ]
      },
      "properties": {
        "NO": 7587,
        "共通ID": "E0320600003111",
        "都道府県名及び市町村名": "岩手県北上市",
        "施設・場所名": "上台会館",
        "住所": "岩手県北上市稲瀬町上台200-1",
        "指定緊急避難場所との住所同一": "1",
        "その他市町村長が必要と認める事項": null,
        "受入対象者": null,
        "備考": ""
      }
    },
    {
      "type": "Feature",
      "geometry": {
        "type": "Point",
        "coordinates": [
          141.124768,
          39.248664
        ]
      },
      "properties": {
        "NO": 7588,
        "共通ID": "E0320600004111",
        "都道府県名及び市町村名": "岩手県北上市",
        "施設・場所名": "安楽寺",
        "住所": "岩手県北上市稲瀬町上台200-5",
        "指定緊急避難場所との住所同一": "1",
        "その他市町村長が必要と認める事項": null,
        "受入対象者": null,
        "備考": ""
      }
    },
    {
      "type": "Feature",
      "geometry": {
        "type": "Point",
        "coordinates": [
          141.12485,
          39.249839
        ]
      },
      "properties": {
        "NO": 7589,
        "共通ID": "E0320600005111",
        "都道府県名及び市町村名": "岩手県北上市",
        "施設・場所名": "北上孝輝殿",
        "住所": "岩手県北上市稲瀬町上台201-1",
        "指定緊急避難場所との住所同一": "1",
        "その他市町村長が必要と認める事項": null,
        "受入対象者": null,
        "備考": ""
      }
    },
    {
      "type": "Feature",
      "geometry": {
        "type": "Point",
        "coordinates": [
          141.126295,
          39.248549
        ]
      },
      "properties": {
        "NO": 7590,
        "共通ID": "E0320600006111",
        "都道府県名及び市町村名": "岩手県北上市",
        "施設・場所名": "くにみ保育園",
        "住所": "岩手県北上市稲瀬町上台586-2",
        "指定緊急避難場所との住所同一": "1",
        "その他市町村長が必要と認める事項": null,
        "受入対象者": null,
        "備考": ""
      }
    },
    {
      "type": "Feature",
      "geometry": {
        "type": "Point",
        "coordinates": [
          141.123997,
          39.246006
        ]
      },
      "properties": {
        "NO": 7591,
        "共通ID": "E0320600007111",
        "都道府県名及び市町村名": "岩手県北上市",
        "施設・場所名": "稲瀬地区交流センター",
        "住所": "岩手県北上市稲瀬町前田276",
        "指定緊急避難場所との住所同一": "1",
        "その他市町村長が必要と認める事項": null,
        "受入対象者": null,
        "備考": ""
      }
    },
    {
      "type": "Feature",
      "geometry": {
        "type": "Point",
        "coordinates": [
          141.120923,
          39.237432
        ]
      },
      "properties": {
        "NO": 7592,
        "共通ID": "E0320600008111",
        "都道府県名及び市町村名": "岩手県北上市",
        "施設・場所名": "稲瀬スポーツ交流館",
        "住所": "岩手県北上市稲瀬町地蔵堂15",
        "指定緊急避難場所との住所同一": "1",
        "その他市町村長が必要と認める事項": "",
        "受入対象者": "",
        "備考": ""
      }
    },
    {
      "type": "Feature",
      "geometry": {
        "type": "Point",
        "coordinates": [
          141.041046,
          39.298894
        ]
      },
      "properties": {
        "NO": 7593,
        "共通ID": "E0320600009111",
        "都道府県名及び市町村名": "岩手県北上市",
        "施設・場所名": "江釣子７区公民館",
        "住所": "岩手県北上市下江釣子11-118-3",
        "指定緊急避難場所との住所同一": "1",
        "その他市町村長が必要と認める事項": null,
        "受入対象者": null,
        "備考": ""
      }
    },
    {
      "type": "Feature",
      "geometry": {
        "type": "Point",
        "coordinates": [
          141.17369,
          39.359143
        ]
      },
      "properties": {
        "NO": 7594,
        "共通ID": "E0320600010111",
        "都道府県名及び市町村名": "岩手県北上市",
        "施設・場所名": "臥牛農業担い手センター",
        "住所": "岩手県北上市臥牛11-48",
        "指定緊急避難場所との住所同一": "1",
        "その他市町村長が必要と認める事項": null,
        "受入対象者": null,
        "備考": ""
      }
    },
    {
      "type": "Feature",
      "geometry": {
        "type": "Point",
        "coordinates": [
          141.068513,
          39.317131
        ]
      },
      "properties": {
        "NO": 7595,
        "共通ID": "E0320600011111",
        "都道府県名及び市町村名": "岩手県北上市",
        "施設・場所名": "江釣子幼稚園",
        "住所": "岩手県北上市滑田15-57",
        "指定緊急避難場所との住所同一": "1",
        "その他市町村長が必要と認める事項": null,
        "受入対象者": null,
        "備考": ""
      }
    },
    {
      "type": "Feature",
      "geometry": {
        "type": "Point",
        "coordinates": [
          141.096746,
          39.276089
        ]
      },
      "properties": {
        "NO": 7596,
        "共通ID": "E0320600012111",
        "都道府県名及び市町村名": "岩手県北上市",
        "施設・場所名": "鬼柳小学校",
        "住所": "岩手県北上市鬼柳町都鳥35",
        "指定緊急避難場所との住所同一": "1",
        "その他市町村長が必要と認める事項": null,
        "受入対象者": null,
        "備考": ""
      }
    },
    {
      "type": "Feature",
      "geometry": {
        "type": "Point",
        "coordinates": [
          141.095327,
          39.274016
        ]
      },
      "properties": {
        "NO": 7597,
        "共通ID": "E0320600013111",
        "都道府県名及び市町村名": "岩手県北上市",
        "施設・場所名": "鬼柳地区交流センター",
        "住所": "岩手県北上市鬼柳町都鳥49",
        "指定緊急避難場所との住所同一": "1",
        "その他市町村長が必要と認める事項": null,
        "受入対象者": null,
        "備考": ""
      }
    },
    {
      "type": "Feature",
      "geometry": {
        "type": "Point",
        "coordinates": [
          141.205181,
          39.293698
        ]
      },
      "properties": {
        "NO": 7598,
        "共通ID": "E0320600016111",
        "都道府県名及び市町村名": "岩手県北上市",
        "施設・場所名": "口内地区交流センター",
        "住所": "岩手県北上市口内町新町67",
        "指定緊急避難場所との住所同一": "1",
        "その他市町村長が必要と認める事項": null,
        "受入対象者": null,
        "備考": ""
      }
    },
    {
      "type": "Feature",
      "geometry": {
        "type": "Point",
        "coordinates": [
          141.204432,
          39.293391
        ]
      },
      "properties": {
        "NO": 7599,
        "共通ID": "E0320600107111",
        "都道府県名及び市町村名": "岩手県北上市",
        "施設・場所名": "口内保育園",
        "住所": "岩手県北上市口内町新町99-1",
        "指定緊急避難場所との住所同一": "1",
        "その他市町村長が必要と認める事項": "",
        "受入対象者": "",
        "備考": ""
      }
    },
    {
      "type": "Feature",
      "geometry": {
        "type": "Point",
        "coordinates": [
          141.188642,
          39.307258
        ]
      },
      "properties": {
        "NO": 7600,
        "共通ID": "E0320600108111",
        "都道府県名及び市町村名": "岩手県北上市",
        "施設・場所名": "正行寺",
        "住所": "岩手県北上市口内町中野88-1",
        "指定緊急避難場所との住所同一": "1",
        "その他市町村長が必要と認める事項": "",
        "受入対象者": "",
        "備考": ""
      }
    },
    {
      "type": "Feature",
      "geometry": {
        "type": "Point",
        "coordinates": [
          141.223047,
          39.295426
        ]
      },
      "properties": {
        "NO": 7601,
        "共通ID": "E0320600110111",
        "都道府県名及び市町村名": "岩手県北上市",
        "施設・場所名": "新田休養センター",
        "住所": "岩手県北上市口内町長洞146",
        "指定緊急避難場所との住所同一": "1",
        "その他市町村長が必要と認める事項": "",
        "受入対象者": "",
        "備考": ""
      }
    },
    {
      "type": "Feature",
      "geometry": {
        "type": "Point",
        "coordinates": [
          141.148959,
          39.342561
        ]
      },
      "properties": {
        "NO": 7602,
        "共通ID": "E0320600018111",
        "都道府県名及び市町村名": "岩手県北上市",
        "施設・場所名": "更木地区交流センター",
        "住所": "岩手県北上市更木12-151-1",
        "指定緊急避難場所との住所同一": "1",
        "その他市町村長が必要と認める事項": null,
        "受入対象者": null,
        "備考": ""
      }
    },
    {
      "type": "Feature",
      "geometry": {
        "type": "Point",
        "coordinates": [
          141.148877,
          39.342918
        ]
      },
      "properties": {
        "NO": 7603,
        "共通ID": "E0320600019111",
        "都道府県名及び市町村名": "岩手県北上市",
        "施設・場所名": "更木小学校",
        "住所": "岩手県北上市更木12-61",
        "指定緊急避難場所との住所同一": "1",
        "その他市町村長が必要と認める事項": null,
        "受入対象者": null,
        "備考": ""
      }
    },
    {
      "type": "Feature",
      "geometry": {
        "type": "Point",
        "coordinates": [
          141.15696,
          39.33572
        ]
      },
      "properties": {
        "NO": 7604,
        "共通ID": "E0320600020111",
        "都道府県名及び市町村名": "岩手県北上市",
        "施設・場所名": "永昌寺",
        "住所": "岩手県北上市更木33-105",
        "指定緊急避難場所との住所同一": "1",
        "その他市町村長が必要と認める事項": null,
        "受入対象者": null,
        "備考": ""
      }
    },
    {
      "type": "Feature",
      "geometry": {
        "type": "Point",
        "coordinates": [
          141.158729,
          39.330329
        ]
      },
      "properties": {
        "NO": 7605,
        "共通ID": "E0320600021111",
        "都道府県名及び市町村名": "岩手県北上市",
        "施設・場所名": "特別養護老人ホーム八天の里",
        "住所": "岩手県北上市更木34-320-1",
        "指定緊急避難場所との住所同一": "1",
        "その他市町村長が必要と認める事項": null,
        "受入対象者": null,
        "備考": ""
      }
    },
    {
      "type": "Feature",
      "geometry": {
        "type": "Point",
        "coordinates": [
          141.159017,
          39.313324
        ]
      },
      "properties": {
        "NO": 7606,
        "共通ID": "E0320600111111",
        "都道府県名及び市町村名": "岩手県北上市",
        "施設・場所名": "黒岩鬼剣舞道場",
        "住所": "岩手県北上市黒岩16-26-1",
        "指定緊急避難場所との住所同一": "1",
        "その他市町村長が必要と認める事項": "",
        "受入対象者": "",
        "備考": ""
      }
    },
    {
      "type": "Feature",
      "geometry": {
        "type": "Point",
        "coordinates": [
          141.155664,
          39.310573
        ]
      },
      "properties": {
        "NO": 7607,
        "共通ID": "E0320600112111",
        "都道府県名及び市町村名": "岩手県北上市",
        "施設・場所名": "正洞寺",
        "住所": "岩手県北上市黒岩18-45",
        "指定緊急避難場所との住所同一": "1",
        "その他市町村長が必要と認める事項": "",
        "受入対象者": "",
        "備考": ""
      }
    },
    {
      "type": "Feature",
      "geometry": {
        "type": "Point",
        "coordinates": [
          141.155523,
          39.309682
        ]
      },
      "properties": {
        "NO": 7608,
        "共通ID": "E0320600022111",
        "都道府県名及び市町村名": "岩手県北上市",
        "施設・場所名": "黒岩地区交流センター",
        "住所": "岩手県北上市黒岩19-36-2",
        "指定緊急避難場所との住所同一": "1",
        "その他市町村長が必要と認める事項": null,
        "受入対象者": null,
        "備考": ""
      }
    },
    {
      "type": "Feature",
      "geometry": {
        "type": "Point",
        "coordinates": [
          141.131111,
          39.288514
        ]
      },
      "properties": {
        "NO": 7609,
        "共通ID": "E0320600024111",
        "都道府県名及び市町村名": "岩手県北上市",
        "施設・場所名": "北上中学校",
        "住所": "岩手県北上市黒沢尻1-1-1",
        "指定緊急避難場所との住所同一": "1",
        "その他市町村長が必要と認める事項": null,
        "受入対象者": null,
        "備考": ""
      }
    },
    {
      "type": "Feature",
      "geometry": {
        "type": "Point",
        "coordinates": [
          141.07174,
          39.300362
        ]
      },
      "properties": {
        "NO": 7610,
        "共通ID": "E0320600027111",
        "都道府県名及び市町村名": "岩手県北上市",
        "施設・場所名": "江釣子小学校",
        "住所": "岩手県北上市上江釣子16-200",
        "指定緊急避難場所との住所同一": "1",
        "その他市町村長が必要と認める事項": null,
        "受入対象者": null,
        "備考": ""
      }
    },
    {
      "type": "Feature",
      "geometry": {
        "type": "Point",
        "coordinates": [
          141.072414,
          39.298071
        ]
      },
      "properties": {
        "NO": 7611,
        "共通ID": "E0320600028112",
        "都道府県名及び市町村名": "岩手県北上市",
        "施設・場所名": "江釣子地区交流センター",
        "住所": "岩手県北上市上江釣子17-116",
        "指定緊急避難場所との住所同一": "1",
        "その他市町村長が必要と認める事項": null,
        "受入対象者": null,
        "備考": ""
      }
    },
    {
      "type": "Feature",
      "geometry": {
        "type": "Point",
        "coordinates": [
          141.072044,
          39.298225
        ]
      },
      "properties": {
        "NO": 7612,
        "共通ID": "E0320600028111",
        "都道府県名及び市町村名": "岩手県北上市",
        "施設・場所名": "市民江釣子体育館",
        "住所": "岩手県北上市上江釣子17-116",
        "指定緊急避難場所との住所同一": "1",
        "その他市町村長が必要と認める事項": null,
        "受入対象者": null,
        "備考": ""
      }
    },
    {
      "type": "Feature",
      "geometry": {
        "type": "Point",
        "coordinates": [
          141.076285,
          39.297042
        ]
      },
      "properties": {
        "NO": 7613,
        "共通ID": "E0320600029111",
        "都道府県名及び市町村名": "岩手県北上市",
        "施設・場所名": "江釣子中学校",
        "住所": "岩手県北上市上江釣子17-172-1",
        "指定緊急避難場所との住所同一": "1",
        "その他市町村長が必要と認める事項": null,
        "受入対象者": null,
        "備考": ""
      }
    },
    {
      "type": "Feature",
      "geometry": {
        "type": "Point",
        "coordinates": [
          141.127025,
          39.302905
        ]
      },
      "properties": {
        "NO": 7614,
        "共通ID": "E0320600033111",
        "都道府県名及び市町村名": "岩手県北上市",
        "施設・場所名": "上野中学校",
        "住所": "岩手県北上市上野町4-10-8",
        "指定緊急避難場所との住所同一": "1",
        "その他市町村長が必要と認める事項": null,
        "受入対象者": null,
        "備考": ""
      }
    },
    {
      "type": "Feature",
      "geometry": {
        "type": "Point",
        "coordinates": [
          141.120209,
          39.297024
        ]
      },
      "properties": {
        "NO": 7615,
        "共通ID": "E0320600035111",
        "都道府県名及び市町村名": "岩手県北上市",
        "施設・場所名": "県立黒沢尻北高等学校",
        "住所": "岩手県北上市常盤台1-1-69",
        "指定緊急避難場所との住所同一": "1",
        "その他市町村長が必要と認める事項": null,
        "受入対象者": null,
        "備考": ""
      }
    },
    {
      "type": "Feature",
      "geometry": {
        "type": "Point",
        "coordinates": [
          141.117659,
          39.303475
        ]
      },
      "properties": {
        "NO": 7616,
        "共通ID": "E0320600036111",
        "都道府県名及び市町村名": "岩手県北上市",
        "施設・場所名": "黒沢尻北小学校",
        "住所": "岩手県北上市常盤台1-22-33",
        "指定緊急避難場所との住所同一": "1",
        "その他市町村長が必要と認める事項": null,
        "受入対象者": null,
        "備考": ""
      }
    },
    {
      "type": "Feature",
      "geometry": {
        "type": "Point",
        "coordinates": [
          141.120362,
          39.304635
        ]
      },
      "properties": {
        "NO": 7617,
        "共通ID": "E0320600038111",
        "都道府県名及び市町村名": "岩手県北上市",
        "施設・場所名": "黒沢尻北地区交流センター",
        "住所": "岩手県北上市常盤台1-30-20",
        "指定緊急避難場所との住所同一": "1",
        "その他市町村長が必要と認める事項": null,
        "受入対象者": null,
        "備考": ""
      }
    },
    {
      "type": "Feature",
      "geometry": {
        "type": "Point",
        "coordinates": [
          141.115937,
          39.300369
        ]
      },
      "properties": {
        "NO": 7618,
        "共通ID": "E0320600039111",
        "都道府県名及び市町村名": "岩手県北上市",
        "施設・場所名": "サンレック北上",
        "住所": "岩手県北上市常盤台2-1-33",
        "指定緊急避難場所との住所同一": "1",
        "その他市町村長が必要と認める事項": null,
        "受入対象者": null,
        "備考": ""
      }
    },
    {
      "type": "Feature",
      "geometry": {
        "type": "Point",
        "coordinates": [
          141.116581,
          39.300501
        ]
      },
      "properties": {
        "NO": 7619,
        "共通ID": "E0320600040121",
        "都道府県名及び市町村名": "岩手県北上市",
        "施設・場所名": "北上市総合福祉センター",
        "住所": "岩手県北上市常盤台2-1-63",
        "指定緊急避難場所との住所同一": "1",
        "その他市町村長が必要と認める事項": null,
        "受入対象者": "要配慮者",
        "備考": ""
      }
    },
    {
      "type": "Feature",
      "geometry": {
        "type": "Point",
        "coordinates": [
          141.110468,
          39.290212
        ]
      },
      "properties": {
        "NO": 7620,
        "共通ID": "E0320600042111",
        "都道府県名及び市町村名": "岩手県北上市",
        "施設・場所名": "専修大学北上高等学校",
        "住所": "岩手県北上市新穀町2-4-64",
        "指定緊急避難場所との住所同一": "1",
        "その他市町村長が必要と認める事項": null,
        "受入対象者": null,
        "備考": ""
      }
    },
    {
      "type": "Feature",
      "geometry": {
        "type": "Point",
        "coordinates": [
          141.129177,
          39.350532
        ]
      },
      "properties": {
        "NO": 7621,
        "共通ID": "E0320600044111",
        "都道府県名及び市町村名": "岩手県北上市",
        "施設・場所名": "北上市民成田スポーツ交流館",
        "住所": "岩手県北上市成田24-23",
        "指定緊急避難場所との住所同一": "1",
        "その他市町村長が必要と認める事項": null,
        "受入対象者": null,
        "備考": ""
      }
    },
    {
      "type": "Feature",
      "geometry": {
        "type": "Point",
        "coordinates": [
          141.094691,
          39.263635
        ]
      },
      "properties": {
        "NO": 7622,
        "共通ID": "E0320600047111",
        "都道府県名及び市町村名": "岩手県北上市",
        "施設・場所名": "南小学校",
        "住所": "岩手県北上市相去町葛西檀12-2",
        "指定緊急避難場所との住所同一": "1",
        "その他市町村長が必要と認める事項": null,
        "受入対象者": null,
        "備考": ""
      }
    },
    {
      "type": "Feature",
      "geometry": {
        "type": "Point",
        "coordinates": [
          141.090082,
          39.259081
        ]
      },
      "properties": {
        "NO": 7623,
        "共通ID": "E0320600048111",
        "都道府県名及び市町村名": "岩手県北上市",
        "施設・場所名": "県立北上翔南高等学校",
        "住所": "岩手県北上市相去町高前檀13",
        "指定緊急避難場所との住所同一": "1",
        "その他市町村長が必要と認める事項": null,
        "受入対象者": null,
        "備考": ""
      }
    },
    {
      "type": "Feature",
      "geometry": {
        "type": "Point",
        "coordinates": [
          141.092891,
          39.258834
        ]
      },
      "properties": {
        "NO": 7624,
        "共通ID": "E0320600049111",
        "都道府県名及び市町村名": "岩手県北上市",
        "施設・場所名": "北上総合体育館",
        "住所": "岩手県北上市相去町高前檀27-36",
        "指定緊急避難場所との住所同一": "1",
        "その他市町村長が必要と認める事項": null,
        "受入対象者": null,
        "備考": ""
      }
    },
    {
      "type": "Feature",
      "geometry": {
        "type": "Point",
        "coordinates": [
          141.11126,
          39.257082
        ]
      },
      "properties": {
        "NO": 7625,
        "共通ID": "E0320600050111",
        "都道府県名及び市町村名": "岩手県北上市",
        "施設・場所名": "相去体育館",
        "住所": "岩手県北上市相去町小糠沢19",
        "指定緊急避難場所との住所同一": "1",
        "その他市町村長が必要と認める事項": null,
        "受入対象者": null,
        "備考": ""
      }
    },
    {
      "type": "Feature",
      "geometry": {
        "type": "Point",
        "coordinates": [
          141.111223,
          39.256789
        ]
      },
      "properties": {
        "NO": 7626,
        "共通ID": "E0320600050112",
        "都道府県名及び市町村名": "岩手県北上市",
        "施設・場所名": "相去地区交流センター",
        "住所": "岩手県北上市相去町小糠沢19",
        "指定緊急避難場所との住所同一": "1",
        "その他市町村長が必要と認める事項": null,
        "受入対象者": null,
        "備考": ""
      }
    },
    {
      "type": "Feature",
      "geometry": {
        "type": "Point",
        "coordinates": [
          141.090648,
          39.264447
        ]
      },
      "properties": {
        "NO": 7627,
        "共通ID": "E0320600051111",
        "都道府県名及び市町村名": "岩手県北上市",
        "施設・場所名": "南中学校",
        "住所": "岩手県北上市相去町滝の沢7-2",
        "指定緊急避難場所との住所同一": "1",
        "その他市町村長が必要と認める事項": null,
        "受入対象者": null,
        "備考": ""
      }
    },
    {
      "type": "Feature",
      "geometry": {
        "type": "Point",
        "coordinates": [
          141.095436,
          39.341362
        ]
      },
      "properties": {
        "NO": 7628,
        "共通ID": "E0320600053111",
        "都道府県名及び市町村名": "岩手県北上市",
        "施設・場所名": "飯豊小学校",
        "住所": "岩手県北上市村崎野11-101",
        "指定緊急避難場所との住所同一": "1",
        "その他市町村長が必要と認める事項": null,
        "受入対象者": null,
        "備考": ""
      }
    },
    {
      "type": "Feature",
      "geometry": {
        "type": "Point",
        "coordinates": [
          141.098198,
          39.339533
        ]
      },
      "properties": {
        "NO": 7629,
        "共通ID": "E0320600054111",
        "都道府県名及び市町村名": "岩手県北上市",
        "施設・場所名": "飯豊中学校",
        "住所": "岩手県北上市村崎野11-200",
        "指定緊急避難場所との住所同一": "1",
        "その他市町村長が必要と認める事項": null,
        "受入対象者": null,
        "備考": ""
      }
    },
    {
      "type": "Feature",
      "geometry": {
        "type": "Point",
        "coordinates": [
          141.099388,
          39.332959
        ]
      },
      "properties": {
        "NO": 7630,
        "共通ID": "E0320600055111",
        "都道府県名及び市町村名": "岩手県北上市",
        "施設・場所名": "飯豊地区交流センター",
        "住所": "岩手県北上市村崎野12-67-6",
        "指定緊急避難場所との住所同一": "1",
        "その他市町村長が必要と認める事項": null,
        "受入対象者": null,
        "備考": ""
      }
    },
    {
      "type": "Feature",
      "geometry": {
        "type": "Point",
        "coordinates": [
          141.12592,
          39.328636
        ]
      },
      "properties": {
        "NO": 7631,
        "共通ID": "E0320600056111",
        "都道府県名及び市町村名": "岩手県北上市",
        "施設・場所名": "県立黒沢尻工業高等学校",
        "住所": "岩手県北上市村崎野24-19",
        "指定緊急避難場所との住所同一": "1",
        "その他市町村長が必要と認める事項": null,
        "受入対象者": null,
        "備考": ""
      }
    },
    {
      "type": "Feature",
      "geometry": {
        "type": "Point",
        "coordinates": [
          141.120238,
          39.282202
        ]
      },
      "properties": {
        "NO": 7632,
        "共通ID": "E0320600106111",
        "都道府県名及び市町村名": "岩手県北上市",
        "施設・場所名": "生涯学習センター",
        "住所": "岩手県北上市大通り1-3-1",
        "指定緊急避難場所との住所同一": "1",
        "その他市町村長が必要と認める事項": "",
        "受入対象者": "",
        "備考": ""
      }
    },
    {
      "type": "Feature",
      "geometry": {
        "type": "Point",
        "coordinates": [
          141.107599,
          39.28848
        ]
      },
      "properties": {
        "NO": 7633,
        "共通ID": "E0320600064111",
        "都道府県名及び市町村名": "岩手県北上市",
        "施設・場所名": "専修大学北上福祉教育専門学校",
        "住所": "岩手県北上市鍛冶町1-3-1",
        "指定緊急避難場所との住所同一": "1",
        "その他市町村長が必要と認める事項": null,
        "受入対象者": null,
        "備考": ""
      }
    },
    {
      "type": "Feature",
      "geometry": {
        "type": "Point",
        "coordinates": [
          141.124604,
          39.287787
        ]
      },
      "properties": {
        "NO": 7634,
        "共通ID": "E0320600065111",
        "都道府県名及び市町村名": "岩手県北上市",
        "施設・場所名": "黒沢尻東地区交流センター",
        "住所": "岩手県北上市中野町1-5-46",
        "指定緊急避難場所との住所同一": "1",
        "その他市町村長が必要と認める事項": null,
        "受入対象者": null,
        "備考": ""
      }
    },
    {
      "type": "Feature",
      "geometry": {
        "type": "Point",
        "coordinates": [
          141.125241,
          39.289102
        ]
      },
      "properties": {
        "NO": 7635,
        "共通ID": "E0320600066111",
        "都道府県名及び市町村名": "岩手県北上市",
        "施設・場所名": "黒沢尻東小学校",
        "住所": "岩手県北上市中野町1-8-1",
        "指定緊急避難場所との住所同一": "1",
        "その他市町村長が必要と認める事項": null,
        "受入対象者": null,
        "備考": ""
      }
    },
    {
      "type": "Feature",
      "geometry": {
        "type": "Point",
        "coordinates": [
          141.135663,
          39.327024
        ]
      },
      "properties": {
        "NO": 7636,
        "共通ID": "E0320600069111",
        "都道府県名及び市町村名": "岩手県北上市",
        "施設・場所名": "北上北中学校",
        "住所": "岩手県北上市二子町秋子沢13",
        "指定緊急避難場所との住所同一": "1",
        "その他市町村長が必要と認める事項": null,
        "受入対象者": null,
        "備考": ""
      }
    },
    {
      "type": "Feature",
      "geometry": {
        "type": "Point",
        "coordinates": [
          141.138433,
          39.322421
        ]
      },
      "properties": {
        "NO": 7637,
        "共通ID": "E0320600070111",
        "都道府県名及び市町村名": "岩手県北上市",
        "施設・場所名": "二子小学校",
        "住所": "岩手県北上市二子町鳥喰22-2",
        "指定緊急避難場所との住所同一": "1",
        "その他市町村長が必要と認める事項": null,
        "受入対象者": null,
        "備考": ""
      }
    },
    {
      "type": "Feature",
      "geometry": {
        "type": "Point",
        "coordinates": [
          141.138213,
          39.320017
        ]
      },
      "properties": {
        "NO": 7638,
        "共通ID": "E0320600071111",
        "都道府県名及び市町村名": "岩手県北上市",
        "施設・場所名": "二子地区交流センター",
        "住所": "岩手県北上市二子町鳥喰前49-4",
        "指定緊急避難場所との住所同一": "1",
        "その他市町村長が必要と認める事項": null,
        "受入対象者": null,
        "備考": ""
      }
    },
    {
      "type": "Feature",
      "geometry": {
        "type": "Point",
        "coordinates": [
          141.085462,
          39.313889
        ]
      },
      "properties": {
        "NO": 7639,
        "共通ID": "E0320600072111",
        "都道府県名及び市町村名": "岩手県北上市",
        "施設・場所名": "江釣子共同福祉施設",
        "住所": "岩手県北上市鳩岡崎2-51-1",
        "指定緊急避難場所との住所同一": "1",
        "その他市町村長が必要と認める事項": null,
        "受入対象者": null,
        "備考": ""
      }
    },
    {
      "type": "Feature",
      "geometry": {
        "type": "Point",
        "coordinates": [
          141.09222,
          39.291665
        ]
      },
      "properties": {
        "NO": 7640,
        "共通ID": "E0320600074111",
        "都道府県名及び市町村名": "岩手県北上市",
        "施設・場所名": "江釣子１７区公民館",
        "住所": "岩手県北上市北鬼柳21-92-1",
        "指定緊急避難場所との住所同一": "1",
        "その他市町村長が必要と認める事項": null,
        "受入対象者": null,
        "備考": ""
      }
    },
    {
      "type": "Feature",
      "geometry": {
        "type": "Point",
        "coordinates": [
          141.097119,
          39.291544
        ]
      },
      "properties": {
        "NO": 7641,
        "共通ID": "E0320600075111",
        "都道府県名及び市町村名": "岩手県北上市",
        "施設・場所名": "江釣子勤労者体育センター",
        "住所": "岩手県北上市北鬼柳22-52-3",
        "指定緊急避難場所との住所同一": "1",
        "その他市町村長が必要と認める事項": null,
        "受入対象者": null,
        "備考": ""
      }
    },
    {
      "type": "Feature",
      "geometry": {
        "type": "Point",
        "coordinates": [
          141.100174,
          39.307387
        ]
      },
      "properties": {
        "NO": 7642,
        "共通ID": "E0320600076111",
        "都道府県名及び市町村名": "岩手県北上市",
        "施設・場所名": "江釣子１５区曽山公民館",
        "住所": "岩手県北上市北鬼柳3-76",
        "指定緊急避難場所との住所同一": "1",
        "その他市町村長が必要と認める事項": null,
        "受入対象者": null,
        "備考": ""
      }
    },
    {
      "type": "Feature",
      "geometry": {
        "type": "Point",
        "coordinates": [
          141.121659,
          39.329773
        ]
      },
      "properties": {
        "NO": 7643,
        "共通ID": "E0320600077111",
        "都道府県名及び市町村名": "岩手県北上市",
        "施設・場所名": "村崎野勤労者体育館",
        "住所": "岩手県北上市北工業団地1-7",
        "指定緊急避難場所との住所同一": "1",
        "その他市町村長が必要と認める事項": null,
        "受入対象者": null,
        "備考": ""
      }
    },
    {
      "type": "Feature",
      "geometry": {
        "type": "Point",
        "coordinates": [
          141.112996,
          39.291131
        ]
      },
      "properties": {
        "NO": 7644,
        "共通ID": "E0320600078111",
        "都道府県名及び市町村名": "岩手県北上市",
        "施設・場所名": "黒沢尻西地区交流センター",
        "住所": "岩手県北上市本石町1-6-20",
        "指定緊急避難場所との住所同一": "1",
        "その他市町村長が必要と認める事項": null,
        "受入対象者": null,
        "備考": ""
      }
    },
    {
      "type": "Feature",
      "geometry": {
        "type": "Point",
        "coordinates": [
          141.11386,
          39.291063
        ]
      },
      "properties": {
        "NO": 7645,
        "共通ID": "E0320600079111",
        "都道府県名及び市町村名": "岩手県北上市",
        "施設・場所名": "黒沢尻西小学校",
        "住所": "岩手県北上市本石町1-6-71",
        "指定緊急避難場所との住所同一": "1",
        "その他市町村長が必要と認める事項": null,
        "受入対象者": null,
        "備考": ""
      }
    },
    {
      "type": "Feature",
      "geometry": {
        "type": "Point",
        "coordinates": [
          141.116549,
          39.29217
        ]
      },
      "properties": {
        "NO": 7646,
        "共通ID": "E0320600080111",
        "都道府県名及び市町村名": "岩手県北上市",
        "施設・場所名": "黒沢尻体育館",
        "住所": "岩手県北上市本石町2-5-1",
        "指定緊急避難場所との住所同一": "1",
        "その他市町村長が必要と認める事項": null,
        "受入対象者": null,
        "備考": ""
      }
    },
    {
      "type": "Feature",
      "geometry": {
        "type": "Point",
        "coordinates": [
          141.114505,
          39.292898
        ]
      },
      "properties": {
        "NO": 7647,
        "共通ID": "E0320600082111",
        "都道府県名及び市町村名": "岩手県北上市",
        "施設・場所名": "日本現代詩歌文学館",
        "住所": "岩手県北上市本石町2-5-60",
        "指定緊急避難場所との住所同一": "1",
        "その他市町村長が必要と認める事項": null,
        "受入対象者": null,
        "備考": ""
      }
    },
    {
      "type": "Feature",
      "geometry": {
        "type": "Point",
        "coordinates": [
          141.144341,
          39.290682
        ]
      },
      "properties": {
        "NO": 7648,
        "共通ID": "E0320600084111",
        "都道府県名及び市町村名": "岩手県北上市",
        "施設・場所名": "東陵中学校",
        "住所": "岩手県北上市立花1-8",
        "指定緊急避難場所との住所同一": "1",
        "その他市町村長が必要と認める事項": null,
        "受入対象者": null,
        "備考": ""
      }
    },
    {
      "type": "Feature",
      "geometry": {
        "type": "Point",
        "coordinates": [
          141.142036,
          39.284368
        ]
      },
      "properties": {
        "NO": 7649,
        "共通ID": "E0320600085111",
        "都道府県名及び市町村名": "岩手県北上市",
        "施設・場所名": "立花地区交流センター",
        "住所": "岩手県北上市立花20-57-14",
        "指定緊急避難場所との住所同一": "1",
        "その他市町村長が必要と認める事項": null,
        "受入対象者": null,
        "備考": ""
      }
    },
    {
      "type": "Feature",
      "geometry": {
        "type": "Point",
        "coordinates": [
          140.979802,
          39.306664
        ]
      },
      "properties": {
        "NO": 7650,
        "共通ID": "E0320600087121",
        "都道府県名及び市町村名": "岩手県北上市",
        "施設・場所名": "和賀町総合福祉センター",
        "住所": "岩手県北上市和賀町横川目10-20-3",
        "指定緊急避難場所との住所同一": "1",
        "その他市町村長が必要と認める事項": null,
        "受入対象者": "要配慮者",
        "備考": ""
      }
    },
    {
      "type": "Feature",
      "geometry": {
        "type": "Point",
        "coordinates": [
          140.977338,
          39.312352
        ]
      },
      "properties": {
        "NO": 7651,
        "共通ID": "E0320600088111",
        "都道府県名及び市町村名": "岩手県北上市",
        "施設・場所名": "和賀西中学校",
        "住所": "岩手県北上市和賀町横川目13-64-1",
        "指定緊急避難場所との住所同一": "1",
        "その他市町村長が必要と認める事項": null,
        "受入対象者": null,
        "備考": ""
      }
    },
    {
      "type": "Feature",
      "geometry": {
        "type": "Point",
        "coordinates": [
          140.979846,
          39.324402
        ]
      },
      "properties": {
        "NO": 7652,
        "共通ID": "E0320600089111",
        "都道府県名及び市町村名": "岩手県北上市",
        "施設・場所名": "横川目多目的集会施設",
        "住所": "岩手県北上市和賀町横川目16-283-2",
        "指定緊急避難場所との住所同一": "1",
        "その他市町村長が必要と認める事項": null,
        "受入対象者": null,
        "備考": ""
      }
    },
    {
      "type": "Feature",
      "geometry": {
        "type": "Point",
        "coordinates": [
          140.983873,
          39.333497
        ]
      },
      "properties": {
        "NO": 7653,
        "共通ID": "E0320600090111",
        "都道府県名及び市町村名": "岩手県北上市",
        "施設・場所名": "津村田生活改善センター",
        "住所": "岩手県北上市和賀町横川目27-140-2",
        "指定緊急避難場所との住所同一": "1",
        "その他市町村長が必要と認める事項": null,
        "受入対象者": null,
        "備考": ""
      }
    },
    {
      "type": "Feature",
      "geometry": {
        "type": "Point",
        "coordinates": [
          140.971204,
          39.312273
        ]
      },
      "properties": {
        "NO": 7654,
        "共通ID": "E0320600091111",
        "都道府県名及び市町村名": "岩手県北上市",
        "施設・場所名": "和賀西小学校",
        "住所": "岩手県北上市和賀町横川目7-134-3",
        "指定緊急避難場所との住所同一": "1",
        "その他市町村長が必要と認める事項": null,
        "受入対象者": null,
        "備考": ""
      }
    },
    {
      "type": "Feature",
      "geometry": {
        "type": "Point",
        "coordinates": [
          141.041166,
          39.28183
        ]
      },
      "properties": {
        "NO": 7655,
        "共通ID": "E0320600092111",
        "都道府県名及び市町村名": "岩手県北上市",
        "施設・場所名": "いわさき小学校",
        "住所": "岩手県北上市和賀町岩崎18-53-3",
        "指定緊急避難場所との住所同一": "1",
        "その他市町村長が必要と認める事項": null,
        "受入対象者": null,
        "備考": ""
      }
    },
    {
      "type": "Feature",
      "geometry": {
        "type": "Point",
        "coordinates": [
          141.042985,
          39.281552
        ]
      },
      "properties": {
        "NO": 7656,
        "共通ID": "E0320600093111",
        "都道府県名及び市町村名": "岩手県北上市",
        "施設・場所名": "岩崎地区交流センター",
        "住所": "岩手県北上市和賀町岩崎18-53-8",
        "指定緊急避難場所との住所同一": "1",
        "その他市町村長が必要と認める事項": null,
        "受入対象者": null,
        "備考": ""
      }
    },
    {
      "type": "Feature",
      "geometry": {
        "type": "Point",
        "coordinates": [
          140.931575,
          39.301034
        ]
      },
      "properties": {
        "NO": 7657,
        "共通ID": "E0320600094111",
        "都道府県名及び市町村名": "岩手県北上市",
        "施設・場所名": "羽山ふれあいセンター",
        "住所": "岩手県北上市和賀町岩沢9-1-3",
        "指定緊急避難場所との住所同一": "1",
        "その他市町村長が必要と認める事項": null,
        "受入対象者": null,
        "備考": ""
      }
    },
    {
      "type": "Feature",
      "geometry": {
        "type": "Point",
        "coordinates": [
          140.993543,
          39.339791
        ]
      },
      "properties": {
        "NO": 7658,
        "共通ID": "E0320600096111",
        "都道府県名及び市町村名": "岩手県北上市",
        "施設・場所名": "後藤野自治公民館",
        "住所": "岩手県北上市和賀町後藤1-354",
        "指定緊急避難場所との住所同一": "1",
        "その他市町村長が必要と認める事項": "",
        "受入対象者": "",
        "備考": ""
      }
    },
    {
      "type": "Feature",
      "geometry": {
        "type": "Point",
        "coordinates": [
          141.039089,
          39.335259
        ]
      },
      "properties": {
        "NO": 7659,
        "共通ID": "E0320600095111",
        "都道府県名及び市町村名": "岩手県北上市",
        "施設・場所名": "後藤１区自治公民館",
        "住所": "岩手県北上市和賀町後藤11-54-4",
        "指定緊急避難場所との住所同一": "1",
        "その他市町村長が必要と認める事項": "",
        "受入対象者": "",
        "備考": ""
      }
    },
    {
      "type": "Feature",
      "geometry": {
        "type": "Point",
        "coordinates": [
          140.972563,
          39.296515
        ]
      },
      "properties": {
        "NO": 7660,
        "共通ID": "E0320600097111",
        "都道府県名及び市町村名": "岩手県北上市",
        "施設・場所名": "ふるさと体験館北上",
        "住所": "岩手県北上市和賀町山口23-24-5",
        "指定緊急避難場所との住所同一": "1",
        "その他市町村長が必要と認める事項": null,
        "受入対象者": null,
        "備考": ""
      }
    },
    {
      "type": "Feature",
      "geometry": {
        "type": "Point",
        "coordinates": [
          140.912957,
          39.3076
        ]
      },
      "properties": {
        "NO": 7661,
        "共通ID": "E0320600098111",
        "都道府県名及び市町村名": "岩手県北上市",
        "施設・場所名": "仙人公民館",
        "住所": "岩手県北上市和賀町仙人7-5",
        "指定緊急避難場所との住所同一": "1",
        "その他市町村長が必要と認める事項": null,
        "受入対象者": null,
        "備考": ""
      }
    },
    {
      "type": "Feature",
      "geometry": {
        "type": "Point",
        "coordinates": [
          140.996748,
          39.30591
        ]
      },
      "properties": {
        "NO": 7662,
        "共通ID": "E0320600099111",
        "都道府県名及び市町村名": "岩手県北上市",
        "施設・場所名": "和賀地区交流センター",
        "住所": "岩手県北上市和賀町竪川目1-1-13",
        "指定緊急避難場所との住所同一": "1",
        "その他市町村長が必要と認める事項": null,
        "受入対象者": null,
        "備考": ""
      }
    },
    {
      "type": "Feature",
      "geometry": {
        "type": "Point",
        "coordinates": [
          141.028749,
          39.297681
        ]
      },
      "properties": {
        "NO": 7663,
        "共通ID": "E0320600100111",
        "都道府県名及び市町村名": "岩手県北上市",
        "施設・場所名": "和賀東中学校",
        "住所": "岩手県北上市和賀町長沼6-1",
        "指定緊急避難場所との住所同一": "1",
        "その他市町村長が必要と認める事項": null,
        "受入対象者": null,
        "備考": ""
      }
    },
    {
      "type": "Feature",
      "geometry": {
        "type": "Point",
        "coordinates": [
          141.031093,
          39.316481
        ]
      },
      "properties": {
        "NO": 7664,
        "共通ID": "E0320600101111",
        "都道府県名及び市町村名": "岩手県北上市",
        "施設・場所名": "藤根地区交流センター",
        "住所": "岩手県北上市和賀町藤根14-147-3",
        "指定緊急避難場所との住所同一": "1",
        "その他市町村長が必要と認める事項": null,
        "受入対象者": null,
        "備考": ""
      }
    },
    {
      "type": "Feature",
      "geometry": {
        "type": "Point",
        "coordinates": [
          141.029288,
          39.303827
        ]
      },
      "properties": {
        "NO": 7665,
        "共通ID": "E0320600102111",
        "都道府県名及び市町村名": "岩手県北上市",
        "施設・場所名": "和賀東小学校",
        "住所": "岩手県北上市和賀町藤根17-100-2",
        "指定緊急避難場所との住所同一": "1",
        "その他市町村長が必要と認める事項": null,
        "受入対象者": null,
        "備考": ""
      }
    }
  ]
}