{
  "type": "FeatureCollection",
  "name": "032158",
  "features": [
    {
      "type": "Feature",
      "geometry": {
        "type": "Point",
        "coordinates": [
          141.095172,
          39.02
        ]
      },
      "properties": {
        "NO": 8056,
        "共通ID": "E0321500001111",
        "都道府県名及び市町村名": "岩手県奥州市",
        "施設・場所名": "奥州市立衣里小学校",
        "住所": "岩手県奥州市衣川堰下7-2",
        "指定緊急避難場所との住所同一": "1",
        "その他市町村長が必要と認める事項": null,
        "受入対象者": null,
        "備考": ""
      }
    },
    {
      "type": "Feature",
      "geometry": {
        "type": "Point",
        "coordinates": [
          141.011307,
          39.045065
        ]
      },
      "properties": {
        "NO": 8057,
        "共通ID": "E0321500003111",
        "都道府県名及び市町村名": "岩手県奥州市",
        "施設・場所名": "衣川ふるさと自然塾",
        "住所": "岩手県奥州市衣川下大森109-3",
        "指定緊急避難場所との住所同一": "1",
        "その他市町村長が必要と認める事項": null,
        "受入対象者": null,
        "備考": ""
      }
    },
    {
      "type": "Feature",
      "geometry": {
        "type": "Point",
        "coordinates": [
          141.065818,
          39.040487
        ]
      },
      "properties": {
        "NO": 8058,
        "共通ID": "E0321500005111",
        "都道府県名及び市町村名": "岩手県奥州市",
        "施設・場所名": "奥州市衣川地区センター",
        "住所": "岩手県奥州市衣川古戸15-10",
        "指定緊急避難場所との住所同一": "1",
        "その他市町村長が必要と認める事項": null,
        "受入対象者": null,
        "備考": ""
      }
    },
    {
      "type": "Feature",
      "geometry": {
        "type": "Point",
        "coordinates": [
          141.06547,
          39.039428
        ]
      },
      "properties": {
        "NO": 8059,
        "共通ID": "E0321500006111",
        "都道府県名及び市町村名": "岩手県奥州市",
        "施設・場所名": "衣川セミナーハウス",
        "住所": "岩手県奥州市衣川古戸29-2",
        "指定緊急避難場所との住所同一": "1",
        "その他市町村長が必要と認める事項": null,
        "受入対象者": null,
        "備考": ""
      }
    },
    {
      "type": "Feature",
      "geometry": {
        "type": "Point",
        "coordinates": [
          141.066802,
          39.041991
        ]
      },
      "properties": {
        "NO": 8060,
        "共通ID": "E0321500007111",
        "都道府県名及び市町村名": "岩手県奥州市",
        "施設・場所名": "奥州市立衣川中学校",
        "住所": "岩手県奥州市衣川古戸403-1",
        "指定緊急避難場所との住所同一": "1",
        "その他市町村長が必要と認める事項": null,
        "受入対象者": null,
        "備考": ""
      }
    },
    {
      "type": "Feature",
      "geometry": {
        "type": "Point",
        "coordinates": [
          141.067607,
          39.041441
        ]
      },
      "properties": {
        "NO": 8061,
        "共通ID": "E0321500008111",
        "都道府県名及び市町村名": "岩手県奥州市",
        "施設・場所名": "奥州市立衣川小学校",
        "住所": "岩手県奥州市衣川古戸414-1",
        "指定緊急避難場所との住所同一": "1",
        "その他市町村長が必要と認める事項": null,
        "受入対象者": null,
        "備考": ""
      }
    },
    {
      "type": "Feature",
      "geometry": {
        "type": "Point",
        "coordinates": [
          141.06858,
          39.039901
        ]
      },
      "properties": {
        "NO": 8062,
        "共通ID": "E0321500009111",
        "都道府県名及び市町村名": "岩手県奥州市",
        "施設・場所名": "衣川社会体育館",
        "住所": "岩手県奥州市衣川古戸420",
        "指定緊急避難場所との住所同一": "1",
        "その他市町村長が必要と認める事項": null,
        "受入対象者": null,
        "備考": ""
      }
    },
    {
      "type": "Feature",
      "geometry": {
        "type": "Point",
        "coordinates": [
          141.068634,
          39.039392
        ]
      },
      "properties": {
        "NO": 8063,
        "共通ID": "E0321500010111",
        "都道府県名及び市町村名": "岩手県奥州市",
        "施設・場所名": "衣川柔剣道場",
        "住所": "岩手県奥州市衣川古戸422-4",
        "指定緊急避難場所との住所同一": "1",
        "その他市町村長が必要と認める事項": null,
        "受入対象者": null,
        "備考": ""
      }
    },
    {
      "type": "Feature",
      "geometry": {
        "type": "Point",
        "coordinates": [
          141.067693,
          39.039565
        ]
      },
      "properties": {
        "NO": 8064,
        "共通ID": "E0321500011111",
        "都道府県名及び市町村名": "岩手県奥州市",
        "施設・場所名": "衣川総合支所",
        "住所": "岩手県奥州市衣川古戸64-4",
        "指定緊急避難場所との住所同一": "1",
        "その他市町村長が必要と認める事項": null,
        "受入対象者": null,
        "備考": ""
      }
    },
    {
      "type": "Feature",
      "geometry": {
        "type": "Point",
        "coordinates": [
          140.987146,
          39.086824
        ]
      },
      "properties": {
        "NO": 8065,
        "共通ID": "E0321500012111",
        "都道府県名及び市町村名": "岩手県奥州市",
        "施設・場所名": "奥州市北股地区センター",
        "住所": "岩手県奥州市衣川小田212",
        "指定緊急避難場所との住所同一": "1",
        "その他市町村長が必要と認める事項": null,
        "受入対象者": null,
        "備考": ""
      }
    },
    {
      "type": "Feature",
      "geometry": {
        "type": "Point",
        "coordinates": [
          141.003955,
          39.003954
        ]
      },
      "properties": {
        "NO": 8066,
        "共通ID": "E0321500013111",
        "都道府県名及び市町村名": "岩手県奥州市",
        "施設・場所名": "奥州市南股地区センター",
        "住所": "岩手県奥州市衣川沼野38-9",
        "指定緊急避難場所との住所同一": "1",
        "その他市町村長が必要と認める事項": null,
        "受入対象者": null,
        "備考": ""
      }
    },
    {
      "type": "Feature",
      "geometry": {
        "type": "Point",
        "coordinates": [
          140.998498,
          39.07943
        ]
      },
      "properties": {
        "NO": 8067,
        "共通ID": "E0321500017111",
        "都道府県名及び市町村名": "岩手県奥州市",
        "施設・場所名": "旧国見平温泉",
        "住所": "岩手県奥州市衣川長袋230-5",
        "指定緊急避難場所との住所同一": "1",
        "その他市町村長が必要と認める事項": "",
        "受入対象者": "",
        "備考": ""
      }
    },
    {
      "type": "Feature",
      "geometry": {
        "type": "Point",
        "coordinates": [
          141.090814,
          39.021617
        ]
      },
      "properties": {
        "NO": 8068,
        "共通ID": "E0321500019111",
        "都道府県名及び市町村名": "岩手県奥州市",
        "施設・場所名": "奥州市衣里地区センター",
        "住所": "岩手県奥州市衣川富田44-1",
        "指定緊急避難場所との住所同一": "1",
        "その他市町村長が必要と認める事項": null,
        "受入対象者": null,
        "備考": ""
      }
    },
    {
      "type": "Feature",
      "geometry": {
        "type": "Point",
        "coordinates": [
          141.152733,
          39.178146
        ]
      },
      "properties": {
        "NO": 8069,
        "共通ID": "E0321500021111",
        "都道府県名及び市町村名": "岩手県奥州市",
        "施設・場所名": "江刺西体育館",
        "住所": "岩手県奥州市江刺愛宕字宿150",
        "指定緊急避難場所との住所同一": "1",
        "その他市町村長が必要と認める事項": null,
        "受入対象者": null,
        "備考": ""
      }
    },
    {
      "type": "Feature",
      "geometry": {
        "type": "Point",
        "coordinates": [
          141.152978,
          39.178607
        ]
      },
      "properties": {
        "NO": 8070,
        "共通ID": "E0321500022111",
        "都道府県名及び市町村名": "岩手県奥州市",
        "施設・場所名": "奥州市江刺愛宕地区センター",
        "住所": "岩手県奥州市江刺愛宕字宿98-1",
        "指定緊急避難場所との住所同一": "1",
        "その他市町村長が必要と認める事項": null,
        "受入対象者": null,
        "備考": ""
      }
    },
    {
      "type": "Feature",
      "geometry": {
        "type": "Point",
        "coordinates": [
          141.150849,
          39.176589
        ]
      },
      "properties": {
        "NO": 8071,
        "共通ID": "E0321500024111",
        "都道府県名及び市町村名": "岩手県奥州市",
        "施設・場所名": "奥州市立江刺愛宕小学校",
        "住所": "岩手県奥州市江刺愛宕字西下川原8",
        "指定緊急避難場所との住所同一": "1",
        "その他市町村長が必要と認める事項": null,
        "受入対象者": null,
        "備考": ""
      }
    },
    {
      "type": "Feature",
      "geometry": {
        "type": "Point",
        "coordinates": [
          141.303183,
          39.177877
        ]
      },
      "properties": {
        "NO": 8072,
        "共通ID": "E0321500027112",
        "都道府県名及び市町村名": "岩手県奥州市",
        "施設・場所名": "奥州市伊手地区センター",
        "住所": "岩手県奥州市江刺伊手字西風54",
        "指定緊急避難場所との住所同一": "1",
        "その他市町村長が必要と認める事項": null,
        "受入対象者": null,
        "備考": ""
      }
    },
    {
      "type": "Feature",
      "geometry": {
        "type": "Point",
        "coordinates": [
          141.156849,
          39.216518
        ]
      },
      "properties": {
        "NO": 8073,
        "共通ID": "E0321500028111",
        "都道府県名及び市町村名": "岩手県奥州市",
        "施設・場所名": "奥州市立稲瀬小学校",
        "住所": "岩手県奥州市江刺稲瀬字下台12",
        "指定緊急避難場所との住所同一": "1",
        "その他市町村長が必要と認める事項": null,
        "受入対象者": null,
        "備考": ""
      }
    },
    {
      "type": "Feature",
      "geometry": {
        "type": "Point",
        "coordinates": [
          141.153256,
          39.215016
        ]
      },
      "properties": {
        "NO": 8074,
        "共通ID": "E0321500031111",
        "都道府県名及び市町村名": "岩手県奥州市",
        "施設・場所名": "稲瀬体育センター",
        "住所": "岩手県奥州市江刺稲瀬字谷地16",
        "指定緊急避難場所との住所同一": "1",
        "その他市町村長が必要と認める事項": null,
        "受入対象者": null,
        "備考": ""
      }
    },
    {
      "type": "Feature",
      "geometry": {
        "type": "Point",
        "coordinates": [
          141.153484,
          39.215477
        ]
      },
      "properties": {
        "NO": 8075,
        "共通ID": "E0321500032111",
        "都道府県名及び市町村名": "岩手県奥州市",
        "施設・場所名": "奥州市稲瀬地区センター",
        "住所": "岩手県奥州市江刺稲瀬字谷地16-1",
        "指定緊急避難場所との住所同一": "1",
        "その他市町村長が必要と認める事項": null,
        "受入対象者": null,
        "備考": ""
      }
    },
    {
      "type": "Feature",
      "geometry": {
        "type": "Point",
        "coordinates": [
          141.169402,
          39.194744
        ]
      },
      "properties": {
        "NO": 8076,
        "共通ID": "E0321500034111",
        "都道府県名及び市町村名": "岩手県奥州市",
        "施設・場所名": "奥州市立岩谷堂小学校",
        "住所": "岩手県奥州市江刺岩谷堂字一本松32",
        "指定緊急避難場所との住所同一": "1",
        "その他市町村長が必要と認める事項": null,
        "受入対象者": null,
        "備考": ""
      }
    },
    {
      "type": "Feature",
      "geometry": {
        "type": "Point",
        "coordinates": [
          141.179043,
          39.228998
        ]
      },
      "properties": {
        "NO": 8077,
        "共通ID": "E0321500035111",
        "都道府県名及び市町村名": "岩手県奥州市",
        "施設・場所名": "歌読会館",
        "住所": "岩手県奥州市江刺岩谷堂字歌読84",
        "指定緊急避難場所との住所同一": "1",
        "その他市町村長が必要と認める事項": null,
        "受入対象者": null,
        "備考": ""
      }
    },
    {
      "type": "Feature",
      "geometry": {
        "type": "Point",
        "coordinates": [
          141.169753,
          39.204631
        ]
      },
      "properties": {
        "NO": 8078,
        "共通ID": "E0321500038111",
        "都道府県名及び市町村名": "岩手県奥州市",
        "施設・場所名": "岩手県立岩谷堂高等学校",
        "住所": "岩手県奥州市江刺岩谷堂字根岸116",
        "指定緊急避難場所との住所同一": "1",
        "その他市町村長が必要と認める事項": null,
        "受入対象者": null,
        "備考": ""
      }
    },
    {
      "type": "Feature",
      "geometry": {
        "type": "Point",
        "coordinates": [
          141.190187,
          39.178514
        ]
      },
      "properties": {
        "NO": 8079,
        "共通ID": "E0321500041111",
        "都道府県名及び市町村名": "岩手県奥州市",
        "施設・場所名": "餅田会館",
        "住所": "岩手県奥州市江刺岩谷堂字中堰143-2",
        "指定緊急避難場所との住所同一": "1",
        "その他市町村長が必要と認める事項": null,
        "受入対象者": null,
        "備考": ""
      }
    },
    {
      "type": "Feature",
      "geometry": {
        "type": "Point",
        "coordinates": [
          141.191936,
          39.20551
        ]
      },
      "properties": {
        "NO": 8080,
        "共通ID": "E0321500042111",
        "都道府県名及び市町村名": "岩手県奥州市",
        "施設・場所名": "増沢ふれあいセンター",
        "住所": "岩手県奥州市江刺岩谷堂字中野41",
        "指定緊急避難場所との住所同一": "1",
        "その他市町村長が必要と認める事項": null,
        "受入対象者": null,
        "備考": ""
      }
    },
    {
      "type": "Feature",
      "geometry": {
        "type": "Point",
        "coordinates": [
          141.245545,
          39.228093
        ]
      },
      "properties": {
        "NO": 8081,
        "共通ID": "E0321500044111",
        "都道府県名及び市町村名": "岩手県奥州市",
        "施設・場所名": "奥州市玉里地区センター",
        "住所": "岩手県奥州市江刺玉里字青篠199-3",
        "指定緊急避難場所との住所同一": "1",
        "その他市町村長が必要と認める事項": null,
        "受入対象者": null,
        "備考": ""
      }
    },
    {
      "type": "Feature",
      "geometry": {
        "type": "Point",
        "coordinates": [
          141.241197,
          39.229041
        ]
      },
      "properties": {
        "NO": 8082,
        "共通ID": "E0321500045111",
        "都道府県名及び市町村名": "岩手県奥州市",
        "施設・場所名": "奥州市立江刺ひがし小学校",
        "住所": "岩手県奥州市江刺玉里字大松沢108",
        "指定緊急避難場所との住所同一": "1",
        "その他市町村長が必要と認める事項": "",
        "受入対象者": "",
        "備考": ""
      }
    },
    {
      "type": "Feature",
      "geometry": {
        "type": "Point",
        "coordinates": [
          141.243782,
          39.230248
        ]
      },
      "properties": {
        "NO": 8083,
        "共通ID": "E0321500046111",
        "都道府県名及び市町村名": "岩手県奥州市",
        "施設・場所名": "江刺農業者トレーニングセンター",
        "住所": "岩手県奥州市江刺玉里字大松沢85",
        "指定緊急避難場所との住所同一": "1",
        "その他市町村長が必要と認める事項": null,
        "受入対象者": null,
        "備考": ""
      }
    },
    {
      "type": "Feature",
      "geometry": {
        "type": "Point",
        "coordinates": [
          141.21002,
          39.252557
        ]
      },
      "properties": {
        "NO": 8084,
        "共通ID": "E0321500049111",
        "都道府県名及び市町村名": "岩手県奥州市",
        "施設・場所名": "奥州市広瀬地区センター",
        "住所": "岩手県奥州市江刺広瀬字柿ノ木443-4",
        "指定緊急避難場所との住所同一": "1",
        "その他市町村長が必要と認める事項": null,
        "受入対象者": null,
        "備考": ""
      }
    },
    {
      "type": "Feature",
      "geometry": {
        "type": "Point",
        "coordinates": [
          141.173715,
          39.182483
        ]
      },
      "properties": {
        "NO": 8085,
        "共通ID": "E0321500050112",
        "都道府県名及び市町村名": "岩手県奥州市",
        "施設・場所名": "江刺中央体育館",
        "住所": "岩手県奥州市江刺杉ノ町9-1",
        "指定緊急避難場所との住所同一": "1",
        "その他市町村長が必要と認める事項": null,
        "受入対象者": null,
        "備考": ""
      }
    },
    {
      "type": "Feature",
      "geometry": {
        "type": "Point",
        "coordinates": [
          141.172219,
          39.19195
        ]
      },
      "properties": {
        "NO": 8086,
        "共通ID": "E0321500051111",
        "都道府県名及び市町村名": "岩手県奥州市",
        "施設・場所名": "江刺防災センター",
        "住所": "岩手県奥州市江刺西大通り3-8",
        "指定緊急避難場所との住所同一": "1",
        "その他市町村長が必要と認める事項": null,
        "受入対象者": null,
        "備考": ""
      }
    },
    {
      "type": "Feature",
      "geometry": {
        "type": "Point",
        "coordinates": [
          141.173329,
          39.193553
        ]
      },
      "properties": {
        "NO": 8087,
        "共通ID": "E0321500052111",
        "都道府県名及び市町村名": "岩手県奥州市",
        "施設・場所名": "江刺保健センター",
        "住所": "岩手県奥州市江刺西大通り4-11-3",
        "指定緊急避難場所との住所同一": "1",
        "その他市町村長が必要と認める事項": null,
        "受入対象者": null,
        "備考": ""
      }
    },
    {
      "type": "Feature",
      "geometry": {
        "type": "Point",
        "coordinates": [
          141.173643,
          39.191995
        ]
      },
      "properties": {
        "NO": 8088,
        "共通ID": "E0321500053111",
        "都道府県名及び市町村名": "岩手県奥州市",
        "施設・場所名": "江刺生涯学習センター",
        "住所": "岩手県奥州市江刺大通り1-54",
        "指定緊急避難場所との住所同一": "1",
        "その他市町村長が必要と認める事項": null,
        "受入対象者": null,
        "備考": ""
      }
    },
    {
      "type": "Feature",
      "geometry": {
        "type": "Point",
        "coordinates": [
          141.174601,
          39.192055
        ]
      },
      "properties": {
        "NO": 8089,
        "共通ID": "E0321500054111",
        "都道府県名及び市町村名": "岩手県奥州市",
        "施設・場所名": "江刺体育文化会館",
        "住所": "岩手県奥州市江刺大通り1-59",
        "指定緊急避難場所との住所同一": "1",
        "その他市町村長が必要と認める事項": null,
        "受入対象者": null,
        "備考": ""
      }
    },
    {
      "type": "Feature",
      "geometry": {
        "type": "Point",
        "coordinates": [
          141.173635,
          39.191439
        ]
      },
      "properties": {
        "NO": 8090,
        "共通ID": "E0321500056111",
        "都道府県名及び市町村名": "岩手県奥州市",
        "施設・場所名": "江刺総合支所",
        "住所": "岩手県奥州市江刺大通り1-8",
        "指定緊急避難場所との住所同一": "1",
        "その他市町村長が必要と認める事項": null,
        "受入対象者": null,
        "備考": ""
      }
    },
    {
      "type": "Feature",
      "geometry": {
        "type": "Point",
        "coordinates": [
          141.211164,
          39.154547
        ]
      },
      "properties": {
        "NO": 8091,
        "共通ID": "E0321500058111",
        "都道府県名及び市町村名": "岩手県奥州市",
        "施設・場所名": "奥州市立田原小学校",
        "住所": "岩手県奥州市江刺田原字駒場108",
        "指定緊急避難場所との住所同一": "1",
        "その他市町村長が必要と認める事項": null,
        "受入対象者": null,
        "備考": ""
      }
    },
    {
      "type": "Feature",
      "geometry": {
        "type": "Point",
        "coordinates": [
          141.195819,
          39.16419
        ]
      },
      "properties": {
        "NO": 8092,
        "共通ID": "E0321500059111",
        "都道府県名及び市町村名": "岩手県奥州市",
        "施設・場所名": "石谷会館",
        "住所": "岩手県奥州市江刺田原字御免124",
        "指定緊急避難場所との住所同一": "1",
        "その他市町村長が必要と認める事項": null,
        "受入対象者": null,
        "備考": ""
      }
    },
    {
      "type": "Feature",
      "geometry": {
        "type": "Point",
        "coordinates": [
          141.222461,
          39.153456
        ]
      },
      "properties": {
        "NO": 8093,
        "共通ID": "E0321500060111",
        "都道府県名及び市町村名": "岩手県奥州市",
        "施設・場所名": "奥州市田原地区センター",
        "住所": "岩手県奥州市江刺田原字深沢166-1",
        "指定緊急避難場所との住所同一": "1",
        "その他市町村長が必要と認める事項": null,
        "受入対象者": null,
        "備考": ""
      }
    },
    {
      "type": "Feature",
      "geometry": {
        "type": "Point",
        "coordinates": [
          141.222011,
          39.153614
        ]
      },
      "properties": {
        "NO": 8094,
        "共通ID": "E0321500061111",
        "都道府県名及び市町村名": "岩手県奥州市",
        "施設・場所名": "江刺農業者健康増進センター",
        "住所": "岩手県奥州市江刺田原字深沢240-1",
        "指定緊急避難場所との住所同一": "1",
        "その他市町村長が必要と認める事項": null,
        "受入対象者": null,
        "備考": ""
      }
    },
    {
      "type": "Feature",
      "geometry": {
        "type": "Point",
        "coordinates": [
          141.248293,
          39.182751
        ]
      },
      "properties": {
        "NO": 8095,
        "共通ID": "E0321500066111",
        "都道府県名及び市町村名": "岩手県奥州市",
        "施設・場所名": "奥州市藤里地区センター",
        "住所": "岩手県奥州市江刺藤里字上長沢27",
        "指定緊急避難場所との住所同一": "1",
        "その他市町村長が必要と認める事項": null,
        "受入対象者": null,
        "備考": ""
      }
    },
    {
      "type": "Feature",
      "geometry": {
        "type": "Point",
        "coordinates": [
          141.1822,
          39.190533
        ]
      },
      "properties": {
        "NO": 8096,
        "共通ID": "E0321500068111",
        "都道府県名及び市町村名": "岩手県奥州市",
        "施設・場所名": "フロンティア奥州えさし",
        "住所": "岩手県奥州市江刺南町4-8",
        "指定緊急避難場所との住所同一": "1",
        "その他市町村長が必要と認める事項": "",
        "受入対象者": "",
        "備考": ""
      }
    },
    {
      "type": "Feature",
      "geometry": {
        "type": "Point",
        "coordinates": [
          141.310106,
          39.233478
        ]
      },
      "properties": {
        "NO": 8097,
        "共通ID": "E0321500213112",
        "都道府県名及び市町村名": "岩手県奥州市",
        "施設・場所名": "米里体育センター",
        "住所": "岩手県奥州市江刺米里字八幡72-1",
        "指定緊急避難場所との住所同一": "",
        "その他市町村長が必要と認める事項": "",
        "受入対象者": "",
        "備考": ""
      }
    },
    {
      "type": "Feature",
      "geometry": {
        "type": "Point",
        "coordinates": [
          141.310219,
          39.233755
        ]
      },
      "properties": {
        "NO": 8098,
        "共通ID": "E0321500213111",
        "都道府県名及び市町村名": "岩手県奥州市",
        "施設・場所名": "奥州市米里地区センター",
        "住所": "岩手県奥州市江刺米里字八幡72-1",
        "指定緊急避難場所との住所同一": "",
        "その他市町村長が必要と認める事項": "",
        "受入対象者": "",
        "備考": ""
      }
    },
    {
      "type": "Feature",
      "geometry": {
        "type": "Point",
        "coordinates": [
          141.180666,
          39.185707
        ]
      },
      "properties": {
        "NO": 8099,
        "共通ID": "E0321500072111",
        "都道府県名及び市町村名": "岩手県奥州市",
        "施設・場所名": "江刺ターミナルプラザ",
        "住所": "岩手県奥州市江刺豊田町3-1-27",
        "指定緊急避難場所との住所同一": "1",
        "その他市町村長が必要と認める事項": null,
        "受入対象者": null,
        "備考": ""
      }
    },
    {
      "type": "Feature",
      "geometry": {
        "type": "Point",
        "coordinates": [
          141.265089,
          39.281957
        ]
      },
      "properties": {
        "NO": 8100,
        "共通ID": "E0321500075111",
        "都道府県名及び市町村名": "岩手県奥州市",
        "施設・場所名": "奥州市林業者等健康増進センター",
        "住所": "岩手県奥州市江刺梁川字日ノ神86",
        "指定緊急避難場所との住所同一": "1",
        "その他市町村長が必要と認める事項": null,
        "受入対象者": null,
        "備考": ""
      }
    },
    {
      "type": "Feature",
      "geometry": {
        "type": "Point",
        "coordinates": [
          141.264652,
          39.282096
        ]
      },
      "properties": {
        "NO": 8101,
        "共通ID": "E0321500076111",
        "都道府県名及び市町村名": "岩手県奥州市",
        "施設・場所名": "奥州市梁川地区センター",
        "住所": "岩手県奥州市江刺梁川字日ノ神90",
        "指定緊急避難場所との住所同一": "1",
        "その他市町村長が必要と認める事項": null,
        "受入対象者": null,
        "備考": ""
      }
    },
    {
      "type": "Feature",
      "geometry": {
        "type": "Point",
        "coordinates": [
          141.188863,
          39.143853
        ]
      },
      "properties": {
        "NO": 8102,
        "共通ID": "E0321500077111",
        "都道府県名及び市町村名": "岩手県奥州市",
        "施設・場所名": "荒神社参集殿",
        "住所": "岩手県奥州市水沢羽田町駅前1-28",
        "指定緊急避難場所との住所同一": "1",
        "その他市町村長が必要と認める事項": null,
        "受入対象者": null,
        "備考": ""
      }
    },
    {
      "type": "Feature",
      "geometry": {
        "type": "Point",
        "coordinates": [
          141.195686,
          39.129232
        ]
      },
      "properties": {
        "NO": 8103,
        "共通ID": "E0321500079111",
        "都道府県名及び市町村名": "岩手県奥州市",
        "施設・場所名": "奥州市総合体育館",
        "住所": "岩手県奥州市水沢羽田町字うぐいす平72",
        "指定緊急避難場所との住所同一": "1",
        "その他市町村長が必要と認める事項": null,
        "受入対象者": null,
        "備考": ""
      }
    },
    {
      "type": "Feature",
      "geometry": {
        "type": "Point",
        "coordinates": [
          141.179546,
          39.139794
        ]
      },
      "properties": {
        "NO": 8104,
        "共通ID": "E0321500080111",
        "都道府県名及び市町村名": "岩手県奥州市",
        "施設・場所名": "川前会館",
        "住所": "岩手県奥州市水沢羽田町字粟ノ瀬90",
        "指定緊急避難場所との住所同一": "1",
        "その他市町村長が必要と認める事項": null,
        "受入対象者": null,
        "備考": ""
      }
    },
    {
      "type": "Feature",
      "geometry": {
        "type": "Point",
        "coordinates": [
          141.190608,
          39.148229
        ]
      },
      "properties": {
        "NO": 8105,
        "共通ID": "E0321500081111",
        "都道府県名及び市町村名": "岩手県奥州市",
        "施設・場所名": "御山下子供会館",
        "住所": "岩手県奥州市水沢羽田町字御山下165",
        "指定緊急避難場所との住所同一": "1",
        "その他市町村長が必要と認める事項": null,
        "受入対象者": null,
        "備考": ""
      }
    },
    {
      "type": "Feature",
      "geometry": {
        "type": "Point",
        "coordinates": [
          141.190763,
          39.13496
        ]
      },
      "properties": {
        "NO": 8106,
        "共通ID": "E0321500082111",
        "都道府県名及び市町村名": "岩手県奥州市",
        "施設・場所名": "奥州市立羽田小学校",
        "住所": "岩手県奥州市水沢羽田町字洗田362",
        "指定緊急避難場所との住所同一": "1",
        "その他市町村長が必要と認める事項": null,
        "受入対象者": null,
        "備考": ""
      }
    },
    {
      "type": "Feature",
      "geometry": {
        "type": "Point",
        "coordinates": [
          141.184147,
          39.138868
        ]
      },
      "properties": {
        "NO": 8107,
        "共通ID": "E0321500083111",
        "都道府県名及び市町村名": "岩手県奥州市",
        "施設・場所名": "奥州市鋳物技術交流センター",
        "住所": "岩手県奥州市水沢羽田町字明正131",
        "指定緊急避難場所との住所同一": "1",
        "その他市町村長が必要と認める事項": null,
        "受入対象者": null,
        "備考": ""
      }
    },
    {
      "type": "Feature",
      "geometry": {
        "type": "Point",
        "coordinates": [
          141.210903,
          39.122279
        ]
      },
      "properties": {
        "NO": 8108,
        "共通ID": "E0321500084111",
        "都道府県名及び市町村名": "岩手県奥州市",
        "施設・場所名": "黒田助会館",
        "住所": "岩手県奥州市水沢羽田町字門下77-2",
        "指定緊急避難場所との住所同一": "1",
        "その他市町村長が必要と認める事項": null,
        "受入対象者": null,
        "備考": ""
      }
    },
    {
      "type": "Feature",
      "geometry": {
        "type": "Point",
        "coordinates": [
          141.213204,
          39.098149
        ]
      },
      "properties": {
        "NO": 8109,
        "共通ID": "E0321500086111",
        "都道府県名及び市町村名": "岩手県奥州市",
        "施設・場所名": "小黒石自然体験交流館",
        "住所": "岩手県奥州市水沢黒石町字下ノ在家5",
        "指定緊急避難場所との住所同一": "1",
        "その他市町村長が必要と認める事項": "",
        "受入対象者": "",
        "備考": ""
      }
    },
    {
      "type": "Feature",
      "geometry": {
        "type": "Point",
        "coordinates": [
          141.197338,
          39.078315
        ]
      },
      "properties": {
        "NO": 8110,
        "共通ID": "E0321500087111",
        "都道府県名及び市町村名": "岩手県奥州市",
        "施設・場所名": "しもやなぎ交流館",
        "住所": "岩手県奥州市水沢黒石町字下柳79-134",
        "指定緊急避難場所との住所同一": "1",
        "その他市町村長が必要と認める事項": null,
        "受入対象者": null,
        "備考": ""
      }
    },
    {
      "type": "Feature",
      "geometry": {
        "type": "Point",
        "coordinates": [
          141.223042,
          39.067633
        ]
      },
      "properties": {
        "NO": 8111,
        "共通ID": "E0321500089111",
        "都道府県名及び市町村名": "岩手県奥州市",
        "施設・場所名": "正法寺会館",
        "住所": "岩手県奥州市水沢黒石町字正法寺62",
        "指定緊急避難場所との住所同一": "1",
        "その他市町村長が必要と認める事項": null,
        "受入対象者": null,
        "備考": ""
      }
    },
    {
      "type": "Feature",
      "geometry": {
        "type": "Point",
        "coordinates": [
          141.209013,
          39.103495
        ]
      },
      "properties": {
        "NO": 8112,
        "共通ID": "E0321500091111",
        "都道府県名及び市町村名": "岩手県奥州市",
        "施設・場所名": "高清水会館",
        "住所": "岩手県奥州市水沢黒石町字長田24-4",
        "指定緊急避難場所との住所同一": "1",
        "その他市町村長が必要と認める事項": null,
        "受入対象者": null,
        "備考": ""
      }
    },
    {
      "type": "Feature",
      "geometry": {
        "type": "Point",
        "coordinates": [
          141.190322,
          39.091772
        ]
      },
      "properties": {
        "NO": 8113,
        "共通ID": "E0321500212111",
        "都道府県名及び市町村名": "岩手県奥州市",
        "施設・場所名": "鶴城集会所",
        "住所": "岩手県奥州市水沢黒石町字鶴城63-1",
        "指定緊急避難場所との住所同一": "",
        "その他市町村長が必要と認める事項": null,
        "受入対象者": null,
        "備考": ""
      }
    },
    {
      "type": "Feature",
      "geometry": {
        "type": "Point",
        "coordinates": [
          141.194166,
          39.095112
        ]
      },
      "properties": {
        "NO": 8114,
        "共通ID": "E0321500092111",
        "都道府県名及び市町村名": "岩手県奥州市",
        "施設・場所名": "奥州市黒石地区センター",
        "住所": "岩手県奥州市水沢黒石町字鶴城9-2",
        "指定緊急避難場所との住所同一": "1",
        "その他市町村長が必要と認める事項": null,
        "受入対象者": null,
        "備考": ""
      }
    },
    {
      "type": "Feature",
      "geometry": {
        "type": "Point",
        "coordinates": [
          141.180405,
          39.074046
        ]
      },
      "properties": {
        "NO": 8115,
        "共通ID": "E0321500093111",
        "都道府県名及び市町村名": "岩手県奥州市",
        "施設・場所名": "二渡会館",
        "住所": "岩手県奥州市水沢黒石町字二渡616",
        "指定緊急避難場所との住所同一": "1",
        "その他市町村長が必要と認める事項": null,
        "受入対象者": null,
        "備考": ""
      }
    },
    {
      "type": "Feature",
      "geometry": {
        "type": "Point",
        "coordinates": [
          141.191187,
          39.07091
        ]
      },
      "properties": {
        "NO": 8116,
        "共通ID": "E0321500094111",
        "都道府県名及び市町村名": "岩手県奥州市",
        "施設・場所名": "白石沢子供会館",
        "住所": "岩手県奥州市水沢黒石町字白石沢43-1",
        "指定緊急避難場所との住所同一": "1",
        "その他市町村長が必要と認める事項": null,
        "受入対象者": null,
        "備考": ""
      }
    },
    {
      "type": "Feature",
      "geometry": {
        "type": "Point",
        "coordinates": [
          141.112902,
          39.163002
        ]
      },
      "properties": {
        "NO": 8117,
        "共通ID": "E0321500095111",
        "都道府県名及び市町村名": "岩手県奥州市",
        "施設・場所名": "一本木会館",
        "住所": "岩手県奥州市水沢佐倉河字一本木25-1",
        "指定緊急避難場所との住所同一": "1",
        "その他市町村長が必要と認める事項": null,
        "受入対象者": null,
        "備考": ""
      }
    },
    {
      "type": "Feature",
      "geometry": {
        "type": "Point",
        "coordinates": [
          141.150318,
          39.165005
        ]
      },
      "properties": {
        "NO": 8118,
        "共通ID": "E0321500096111",
        "都道府県名及び市町村名": "岩手県奥州市",
        "施設・場所名": "水沢勤労者体育館",
        "住所": "岩手県奥州市水沢佐倉河字舘下65-8",
        "指定緊急避難場所との住所同一": "1",
        "その他市町村長が必要と認める事項": null,
        "受入対象者": null,
        "備考": ""
      }
    },
    {
      "type": "Feature",
      "geometry": {
        "type": "Point",
        "coordinates": [
          141.092197,
          39.154838
        ]
      },
      "properties": {
        "NO": 8119,
        "共通ID": "E0321500097111",
        "都道府県名及び市町村名": "岩手県奥州市",
        "施設・場所名": "栃の木会館",
        "住所": "岩手県奥州市水沢佐倉河字玉ノ木248",
        "指定緊急避難場所との住所同一": "1",
        "その他市町村長が必要と認める事項": null,
        "受入対象者": null,
        "備考": ""
      }
    },
    {
      "type": "Feature",
      "geometry": {
        "type": "Point",
        "coordinates": [
          141.136297,
          39.176514
        ]
      },
      "properties": {
        "NO": 8120,
        "共通ID": "E0321500098111",
        "都道府県名及び市町村名": "岩手県奥州市",
        "施設・場所名": "八幡会館",
        "住所": "岩手県奥州市水沢佐倉河字九蔵田100-1",
        "指定緊急避難場所との住所同一": "1",
        "その他市町村長が必要と認める事項": null,
        "受入対象者": null,
        "備考": ""
      }
    },
    {
      "type": "Feature",
      "geometry": {
        "type": "Point",
        "coordinates": [
          141.145782,
          39.164425
        ]
      },
      "properties": {
        "NO": 8121,
        "共通ID": "E0321500102111",
        "都道府県名及び市町村名": "岩手県奥州市",
        "施設・場所名": "舘会館",
        "住所": "岩手県奥州市水沢佐倉河字寺西58",
        "指定緊急避難場所との住所同一": "1",
        "その他市町村長が必要と認める事項": null,
        "受入対象者": null,
        "備考": ""
      }
    },
    {
      "type": "Feature",
      "geometry": {
        "type": "Point",
        "coordinates": [
          141.117355,
          39.174651
        ]
      },
      "properties": {
        "NO": 8122,
        "共通ID": "E0321500103111",
        "都道府県名及び市町村名": "岩手県奥州市",
        "施設・場所名": "佐野会館",
        "住所": "岩手県奥州市水沢佐倉河字宿93-2",
        "指定緊急避難場所との住所同一": "1",
        "その他市町村長が必要と認める事項": null,
        "受入対象者": null,
        "備考": ""
      }
    },
    {
      "type": "Feature",
      "geometry": {
        "type": "Point",
        "coordinates": [
          141.166695,
          39.140326
        ]
      },
      "properties": {
        "NO": 8123,
        "共通ID": "E0321500104111",
        "都道府県名及び市町村名": "岩手県奥州市",
        "施設・場所名": "奥州市立東水沢中学校",
        "住所": "岩手県奥州市水沢佐倉河字瀬ノ上2-5",
        "指定緊急避難場所との住所同一": "1",
        "その他市町村長が必要と認める事項": null,
        "受入対象者": null,
        "備考": ""
      }
    },
    {
      "type": "Feature",
      "geometry": {
        "type": "Point",
        "coordinates": [
          141.130215,
          39.165758
        ]
      },
      "properties": {
        "NO": 8124,
        "共通ID": "E0321500105111",
        "都道府県名及び市町村名": "岩手県奥州市",
        "施設・場所名": "奥州市佐倉河地区センター",
        "住所": "岩手県奥州市水沢佐倉河字西沖ノ目4-1",
        "指定緊急避難場所との住所同一": "1",
        "その他市町村長が必要と認める事項": null,
        "受入対象者": null,
        "備考": ""
      }
    },
    {
      "type": "Feature",
      "geometry": {
        "type": "Point",
        "coordinates": [
          141.099338,
          39.163701
        ]
      },
      "properties": {
        "NO": 8125,
        "共通ID": "E0321500106111",
        "都道府県名及び市町村名": "岩手県奥州市",
        "施設・場所名": "上幅会館",
        "住所": "岩手県奥州市水沢佐倉河字西田中24",
        "指定緊急避難場所との住所同一": "1",
        "その他市町村長が必要と認める事項": null,
        "受入対象者": null,
        "備考": ""
      }
    },
    {
      "type": "Feature",
      "geometry": {
        "type": "Point",
        "coordinates": [
          141.153464,
          39.146327
        ]
      },
      "properties": {
        "NO": 8126,
        "共通ID": "E0321500107111",
        "都道府県名及び市町村名": "岩手県奥州市",
        "施設・場所名": "奥州市文化会館",
        "住所": "岩手県奥州市水沢佐倉河字石橋41",
        "指定緊急避難場所との住所同一": "1",
        "その他市町村長が必要と認める事項": null,
        "受入対象者": null,
        "備考": ""
      }
    },
    {
      "type": "Feature",
      "geometry": {
        "type": "Point",
        "coordinates": [
          141.128291,
          39.165467
        ]
      },
      "properties": {
        "NO": 8127,
        "共通ID": "E0321500108111",
        "都道府県名及び市町村名": "岩手県奥州市",
        "施設・場所名": "奥州市立佐倉河小学校",
        "住所": "岩手県奥州市水沢佐倉河字曾根7",
        "指定緊急避難場所との住所同一": "1",
        "その他市町村長が必要と認める事項": null,
        "受入対象者": null,
        "備考": ""
      }
    },
    {
      "type": "Feature",
      "geometry": {
        "type": "Point",
        "coordinates": [
          141.15125,
          39.155713
        ]
      },
      "properties": {
        "NO": 8128,
        "共通ID": "E0321500109111",
        "都道府県名及び市町村名": "岩手県奥州市",
        "施設・場所名": "岩手県立水沢工業高等学校",
        "住所": "岩手県奥州市水沢佐倉河字道下100-1",
        "指定緊急避難場所との住所同一": "1",
        "その他市町村長が必要と認める事項": null,
        "受入対象者": null,
        "備考": ""
      }
    },
    {
      "type": "Feature",
      "geometry": {
        "type": "Point",
        "coordinates": [
          141.159082,
          39.149074
        ]
      },
      "properties": {
        "NO": 8129,
        "共通ID": "E0321500110111",
        "都道府県名及び市町村名": "岩手県奥州市",
        "施設・場所名": "北常盤交流館",
        "住所": "岩手県奥州市水沢佐倉河字冨堂32",
        "指定緊急避難場所との住所同一": "1",
        "その他市町村長が必要と認める事項": null,
        "受入対象者": null,
        "備考": ""
      }
    },
    {
      "type": "Feature",
      "geometry": {
        "type": "Point",
        "coordinates": [
          141.121332,
          39.165027
        ]
      },
      "properties": {
        "NO": 8130,
        "共通ID": "E0321500111111",
        "都道府県名及び市町村名": "岩手県奥州市",
        "施設・場所名": "宮田会館",
        "住所": "岩手県奥州市水沢佐倉河字面塚40-2",
        "指定緊急避難場所との住所同一": "1",
        "その他市町村長が必要と認める事項": null,
        "受入対象者": null,
        "備考": ""
      }
    },
    {
      "type": "Feature",
      "geometry": {
        "type": "Point",
        "coordinates": [
          141.166142,
          39.106995
        ]
      },
      "properties": {
        "NO": 8131,
        "共通ID": "E0321500113111",
        "都道府県名及び市町村名": "岩手県奥州市",
        "施設・場所名": "奥州市立姉体小学校",
        "住所": "岩手県奥州市水沢姉体町字京原70",
        "指定緊急避難場所との住所同一": "1",
        "その他市町村長が必要と認める事項": null,
        "受入対象者": null,
        "備考": ""
      }
    },
    {
      "type": "Feature",
      "geometry": {
        "type": "Point",
        "coordinates": [
          141.168451,
          39.090946
        ]
      },
      "properties": {
        "NO": 8132,
        "共通ID": "E0321500114111",
        "都道府県名及び市町村名": "岩手県奥州市",
        "施設・場所名": "下姉体会館",
        "住所": "岩手県奥州市水沢姉体町字漆林59-3",
        "指定緊急避難場所との住所同一": "1",
        "その他市町村長が必要と認める事項": null,
        "受入対象者": null,
        "備考": ""
      }
    },
    {
      "type": "Feature",
      "geometry": {
        "type": "Point",
        "coordinates": [
          141.17768,
          39.098361
        ]
      },
      "properties": {
        "NO": 8133,
        "共通ID": "E0321500115111",
        "都道府県名及び市町村名": "岩手県奥州市",
        "施設・場所名": "奥州市姉体地区センター",
        "住所": "岩手県奥州市水沢姉体町字宿8-3",
        "指定緊急避難場所との住所同一": "1",
        "その他市町村長が必要と認める事項": null,
        "受入対象者": null,
        "備考": ""
      }
    },
    {
      "type": "Feature",
      "geometry": {
        "type": "Point",
        "coordinates": [
          141.175525,
          39.112373
        ]
      },
      "properties": {
        "NO": 8134,
        "共通ID": "E0321500116111",
        "都道府県名及び市町村名": "岩手県奥州市",
        "施設・場所名": "上島会館",
        "住所": "岩手県奥州市水沢姉体町字上島122",
        "指定緊急避難場所との住所同一": "1",
        "その他市町村長が必要と認める事項": null,
        "受入対象者": null,
        "備考": ""
      }
    },
    {
      "type": "Feature",
      "geometry": {
        "type": "Point",
        "coordinates": [
          141.169411,
          39.085549
        ]
      },
      "properties": {
        "NO": 8135,
        "共通ID": "E0321500117111",
        "都道府県名及び市町村名": "岩手県奥州市",
        "施設・場所名": "姉体南方会館",
        "住所": "岩手県奥州市水沢姉体町字野中16-3",
        "指定緊急避難場所との住所同一": "1",
        "その他市町村長が必要と認める事項": null,
        "受入対象者": null,
        "備考": ""
      }
    },
    {
      "type": "Feature",
      "geometry": {
        "type": "Point",
        "coordinates": [
          141.124731,
          39.121713
        ]
      },
      "properties": {
        "NO": 8136,
        "共通ID": "E0321500118111",
        "都道府県名及び市町村名": "岩手県奥州市",
        "施設・場所名": "さくら会館",
        "住所": "岩手県奥州市水沢字桜屋敷西110-1",
        "指定緊急避難場所との住所同一": "1",
        "その他市町村長が必要と認める事項": null,
        "受入対象者": null,
        "備考": ""
      }
    },
    {
      "type": "Feature",
      "geometry": {
        "type": "Point",
        "coordinates": [
          141.14394,
          39.140248
        ]
      },
      "properties": {
        "NO": 8137,
        "共通ID": "E0321500119111",
        "都道府県名及び市町村名": "岩手県奥州市",
        "施設・場所名": "大林寺",
        "住所": "岩手県奥州市水沢字寺小路1",
        "指定緊急避難場所との住所同一": "1",
        "その他市町村長が必要と認める事項": null,
        "受入対象者": null,
        "備考": ""
      }
    },
    {
      "type": "Feature",
      "geometry": {
        "type": "Point",
        "coordinates": [
          141.144319,
          39.141427
        ]
      },
      "properties": {
        "NO": 8138,
        "共通ID": "E0321500120111",
        "都道府県名及び市町村名": "岩手県奥州市",
        "施設・場所名": "増長寺",
        "住所": "岩手県奥州市水沢字寺小路26",
        "指定緊急避難場所との住所同一": "1",
        "その他市町村長が必要と認める事項": null,
        "受入対象者": null,
        "備考": ""
      }
    },
    {
      "type": "Feature",
      "geometry": {
        "type": "Point",
        "coordinates": [
          141.143584,
          39.142659
        ]
      },
      "properties": {
        "NO": 8139,
        "共通ID": "E0321500121111",
        "都道府県名及び市町村名": "岩手県奥州市",
        "施設・場所名": "長光寺",
        "住所": "岩手県奥州市水沢字寺小路33",
        "指定緊急避難場所との住所同一": "1",
        "その他市町村長が必要と認める事項": null,
        "受入対象者": null,
        "備考": ""
      }
    },
    {
      "type": "Feature",
      "geometry": {
        "type": "Point",
        "coordinates": [
          141.120639,
          39.145819
        ]
      },
      "properties": {
        "NO": 8140,
        "共通ID": "E0321500122111",
        "都道府県名及び市町村名": "岩手県奥州市",
        "施設・場所名": "石田北集会所",
        "住所": "岩手県奥州市水沢字寺領216",
        "指定緊急避難場所との住所同一": "1",
        "その他市町村長が必要と認める事項": null,
        "受入対象者": null,
        "備考": ""
      }
    },
    {
      "type": "Feature",
      "geometry": {
        "type": "Point",
        "coordinates": [
          141.112463,
          39.122515
        ]
      },
      "properties": {
        "NO": 8141,
        "共通ID": "E0321500123111",
        "都道府県名及び市町村名": "岩手県奥州市",
        "施設・場所名": "水沢第一高等学校",
        "住所": "岩手県奥州市水沢字森下20-1",
        "指定緊急避難場所との住所同一": "1",
        "その他市町村長が必要と認める事項": null,
        "受入対象者": null,
        "備考": ""
      }
    },
    {
      "type": "Feature",
      "geometry": {
        "type": "Point",
        "coordinates": [
          141.131971,
          39.148071
        ]
      },
      "properties": {
        "NO": 8142,
        "共通ID": "E0321500124112",
        "都道府県名及び市町村名": "岩手県奥州市",
        "施設・場所名": "奥州市水沢地区センター",
        "住所": "岩手県奥州市水沢字聖天85-2",
        "指定緊急避難場所との住所同一": "1",
        "その他市町村長が必要と認める事項": "",
        "受入対象者": "",
        "備考": ""
      }
    },
    {
      "type": "Feature",
      "geometry": {
        "type": "Point",
        "coordinates": [
          141.12577,
          39.14366
        ]
      },
      "properties": {
        "NO": 8143,
        "共通ID": "E0321500126111",
        "都道府県名及び市町村名": "岩手県奥州市",
        "施設・場所名": "岩手県立水沢商業高等学校",
        "住所": "岩手県奥州市水沢字土器田1",
        "指定緊急避難場所との住所同一": "1",
        "その他市町村長が必要と認める事項": null,
        "受入対象者": null,
        "備考": ""
      }
    },
    {
      "type": "Feature",
      "geometry": {
        "type": "Point",
        "coordinates": [
          141.14298,
          39.139191
        ]
      },
      "properties": {
        "NO": 8144,
        "共通ID": "E0321500127111",
        "都道府県名及び市町村名": "岩手県奥州市",
        "施設・場所名": "大安寺",
        "住所": "岩手県奥州市水沢字東町2",
        "指定緊急避難場所との住所同一": "1",
        "その他市町村長が必要と認める事項": null,
        "受入対象者": null,
        "備考": ""
      }
    },
    {
      "type": "Feature",
      "geometry": {
        "type": "Point",
        "coordinates": [
          141.136922,
          39.153368
        ]
      },
      "properties": {
        "NO": 8145,
        "共通ID": "E0321500128111",
        "都道府県名及び市町村名": "岩手県奥州市",
        "施設・場所名": "奥州市立水沢中学校",
        "住所": "岩手県奥州市水沢字南丑沢10-1",
        "指定緊急避難場所との住所同一": "1",
        "その他市町村長が必要と認める事項": null,
        "受入対象者": null,
        "備考": ""
      }
    },
    {
      "type": "Feature",
      "geometry": {
        "type": "Point",
        "coordinates": [
          141.112453,
          39.154952
        ]
      },
      "properties": {
        "NO": 8146,
        "共通ID": "E0321500130111",
        "都道府県名及び市町村名": "岩手県奥州市",
        "施設・場所名": "北下巾会館",
        "住所": "岩手県奥州市水沢字北半郷24-1",
        "指定緊急避難場所との住所同一": "1",
        "その他市町村長が必要と認める事項": null,
        "受入対象者": null,
        "備考": ""
      }
    },
    {
      "type": "Feature",
      "geometry": {
        "type": "Point",
        "coordinates": [
          141.133443,
          39.146307
        ]
      },
      "properties": {
        "NO": 8147,
        "共通ID": "E0321500131111",
        "都道府県名及び市町村名": "岩手県奥州市",
        "施設・場所名": "奥州市立水沢小学校",
        "住所": "岩手県奥州市水沢字堀ノ内4-2",
        "指定緊急避難場所との住所同一": "1",
        "その他市町村長が必要と認める事項": null,
        "受入対象者": null,
        "備考": ""
      }
    },
    {
      "type": "Feature",
      "geometry": {
        "type": "Point",
        "coordinates": [
          141.139908,
          39.123584
        ]
      },
      "properties": {
        "NO": 8148,
        "共通ID": "E0321500132111",
        "都道府県名及び市町村名": "岩手県奥州市",
        "施設・場所名": "岩手県立水沢高等学校",
        "住所": "岩手県奥州市水沢字龍ケ馬場5-1",
        "指定緊急避難場所との住所同一": "1",
        "その他市町村長が必要と認める事項": null,
        "受入対象者": null,
        "備考": ""
      }
    },
    {
      "type": "Feature",
      "geometry": {
        "type": "Point",
        "coordinates": [
          141.143006,
          39.148127
        ]
      },
      "properties": {
        "NO": 8149,
        "共通ID": "E0321500134111",
        "都道府県名及び市町村名": "岩手県奥州市",
        "施設・場所名": "水沢武道館",
        "住所": "岩手県奥州市水沢秋葉町24-3",
        "指定緊急避難場所との住所同一": "1",
        "その他市町村長が必要と認める事項": null,
        "受入対象者": null,
        "備考": ""
      }
    },
    {
      "type": "Feature",
      "geometry": {
        "type": "Point",
        "coordinates": [
          141.163711,
          39.117087
        ]
      },
      "properties": {
        "NO": 8150,
        "共通ID": "E0321500135111",
        "都道府県名及び市町村名": "岩手県奥州市",
        "施設・場所名": "上姉体会館",
        "住所": "岩手県奥州市水沢上姉体2-1-20",
        "指定緊急避難場所との住所同一": "1",
        "その他市町村長が必要と認める事項": null,
        "受入対象者": null,
        "備考": ""
      }
    },
    {
      "type": "Feature",
      "geometry": {
        "type": "Point",
        "coordinates": [
          141.163116,
          39.119789
        ]
      },
      "properties": {
        "NO": 8151,
        "共通ID": "E0321500136111",
        "都道府県名及び市町村名": "岩手県奥州市",
        "施設・場所名": "北姉体会館",
        "住所": "岩手県奥州市水沢上姉体5-15-5",
        "指定緊急避難場所との住所同一": "1",
        "その他市町村長が必要と認める事項": null,
        "受入対象者": null,
        "備考": ""
      }
    },
    {
      "type": "Feature",
      "geometry": {
        "type": "Point",
        "coordinates": [
          141.147896,
          39.114299
        ]
      },
      "properties": {
        "NO": 8152,
        "共通ID": "E0321500137111",
        "都道府県名及び市町村名": "岩手県奥州市",
        "施設・場所名": "奥州市真城地区センター",
        "住所": "岩手県奥州市水沢真城字柿ノ木下99",
        "指定緊急避難場所との住所同一": "1",
        "その他市町村長が必要と認める事項": null,
        "受入対象者": null,
        "備考": ""
      }
    },
    {
      "type": "Feature",
      "geometry": {
        "type": "Point",
        "coordinates": [
          141.129948,
          39.097685
        ]
      },
      "properties": {
        "NO": 8153,
        "共通ID": "E0321500138111",
        "都道府県名及び市町村名": "岩手県奥州市",
        "施設・場所名": "折居町会館",
        "住所": "岩手県奥州市水沢真城字宮沢5-7",
        "指定緊急避難場所との住所同一": "1",
        "その他市町村長が必要と認める事項": null,
        "受入対象者": null,
        "備考": ""
      }
    },
    {
      "type": "Feature",
      "geometry": {
        "type": "Point",
        "coordinates": [
          141.157181,
          39.118115
        ]
      },
      "properties": {
        "NO": 8154,
        "共通ID": "E0321500139111",
        "都道府県名及び市町村名": "岩手県奥州市",
        "施設・場所名": "西姉体会館",
        "住所": "岩手県奥州市水沢真城字迎畑183",
        "指定緊急避難場所との住所同一": "1",
        "その他市町村長が必要と認める事項": null,
        "受入対象者": null,
        "備考": ""
      }
    },
    {
      "type": "Feature",
      "geometry": {
        "type": "Point",
        "coordinates": [
          141.15209,
          39.096212
        ]
      },
      "properties": {
        "NO": 8155,
        "共通ID": "E0321500140111",
        "都道府県名及び市町村名": "岩手県奥州市",
        "施設・場所名": "高根会館",
        "住所": "岩手県奥州市水沢真城字高根74",
        "指定緊急避難場所との住所同一": "1",
        "その他市町村長が必要と認める事項": null,
        "受入対象者": null,
        "備考": ""
      }
    },
    {
      "type": "Feature",
      "geometry": {
        "type": "Point",
        "coordinates": [
          141.145451,
          39.114106
        ]
      },
      "properties": {
        "NO": 8156,
        "共通ID": "E0321500141111",
        "都道府県名及び市町村名": "岩手県奥州市",
        "施設・場所名": "奥州市立真城小学校",
        "住所": "岩手県奥州市水沢真城字高田44-1",
        "指定緊急避難場所との住所同一": "1",
        "その他市町村長が必要と認める事項": null,
        "受入対象者": null,
        "備考": ""
      }
    },
    {
      "type": "Feature",
      "geometry": {
        "type": "Point",
        "coordinates": [
          141.14285,
          39.118631
        ]
      },
      "properties": {
        "NO": 8157,
        "共通ID": "E0321500142111",
        "都道府県名及び市町村名": "岩手県奥州市",
        "施設・場所名": "奥州市立水沢南中学校",
        "住所": "岩手県奥州市水沢真城字大檀39-1",
        "指定緊急避難場所との住所同一": "1",
        "その他市町村長が必要と認める事項": null,
        "受入対象者": null,
        "備考": ""
      }
    },
    {
      "type": "Feature",
      "geometry": {
        "type": "Point",
        "coordinates": [
          141.154995,
          39.106747
        ]
      },
      "properties": {
        "NO": 8158,
        "共通ID": "E0321500143111",
        "都道府県名及び市町村名": "岩手県奥州市",
        "施設・場所名": "中平集会所",
        "住所": "岩手県奥州市水沢真城字中平88-1",
        "指定緊急避難場所との住所同一": "1",
        "その他市町村長が必要と認める事項": null,
        "受入対象者": null,
        "備考": ""
      }
    },
    {
      "type": "Feature",
      "geometry": {
        "type": "Point",
        "coordinates": [
          141.161431,
          39.127251
        ]
      },
      "properties": {
        "NO": 8159,
        "共通ID": "E0321500144111",
        "都道府県名及び市町村名": "岩手県奥州市",
        "施設・場所名": "瀬台野交流館",
        "住所": "岩手県奥州市水沢真城字町屋敷54-2",
        "指定緊急避難場所との住所同一": "1",
        "その他市町村長が必要と認める事項": null,
        "受入対象者": null,
        "備考": ""
      }
    },
    {
      "type": "Feature",
      "geometry": {
        "type": "Point",
        "coordinates": [
          141.138484,
          39.107835
        ]
      },
      "properties": {
        "NO": 8160,
        "共通ID": "E0321500145111",
        "都道府県名及び市町村名": "岩手県奥州市",
        "施設・場所名": "大深沢交流館",
        "住所": "岩手県奥州市水沢真城字東大深沢19-3",
        "指定緊急避難場所との住所同一": "1",
        "その他市町村長が必要と認める事項": null,
        "受入対象者": null,
        "備考": ""
      }
    },
    {
      "type": "Feature",
      "geometry": {
        "type": "Point",
        "coordinates": [
          141.148349,
          39.125459
        ]
      },
      "properties": {
        "NO": 8161,
        "共通ID": "E0321500146111",
        "都道府県名及び市町村名": "岩手県奥州市",
        "施設・場所名": "須江交流館",
        "住所": "岩手県奥州市水沢真城字堂林前2-1",
        "指定緊急避難場所との住所同一": "1",
        "その他市町村長が必要と認める事項": null,
        "受入対象者": null,
        "備考": ""
      }
    },
    {
      "type": "Feature",
      "geometry": {
        "type": "Point",
        "coordinates": [
          141.15773,
          39.139878
        ]
      },
      "properties": {
        "NO": 8162,
        "共通ID": "E0321500148111",
        "都道府県名及び市町村名": "岩手県奥州市",
        "施設・場所名": "奥州市立常盤小学校",
        "住所": "岩手県奥州市水沢神明町1-1-5",
        "指定緊急避難場所との住所同一": "1",
        "その他市町村長が必要と認める事項": null,
        "受入対象者": null,
        "備考": ""
      }
    },
    {
      "type": "Feature",
      "geometry": {
        "type": "Point",
        "coordinates": [
          141.155461,
          39.132047
        ]
      },
      "properties": {
        "NO": 8163,
        "共通ID": "E0321500150111",
        "都道府県名及び市町村名": "岩手県奥州市",
        "施設・場所名": "奥州市常盤地区センター",
        "住所": "岩手県奥州市水沢台町2-12",
        "指定緊急避難場所との住所同一": "1",
        "その他市町村長が必要と認める事項": null,
        "受入対象者": null,
        "備考": ""
      }
    },
    {
      "type": "Feature",
      "geometry": {
        "type": "Point",
        "coordinates": [
          141.139791,
          39.146078
        ]
      },
      "properties": {
        "NO": 8164,
        "共通ID": "E0321500151111",
        "都道府県名及び市町村名": "岩手県奥州市",
        "施設・場所名": "奥州市水沢保健センター",
        "住所": "岩手県奥州市水沢大手町3-2",
        "指定緊急避難場所との住所同一": "1",
        "その他市町村長が必要と認める事項": null,
        "受入対象者": null,
        "備考": ""
      }
    },
    {
      "type": "Feature",
      "geometry": {
        "type": "Point",
        "coordinates": [
          141.137199,
          39.129074
        ]
      },
      "properties": {
        "NO": 8165,
        "共通ID": "E0321500153111",
        "都道府県名及び市町村名": "岩手県奥州市",
        "施設・場所名": "奥州市水沢南地区センター",
        "住所": "岩手県奥州市水沢大鐘町2-12",
        "指定緊急避難場所との住所同一": "1",
        "その他市町村長が必要と認める事項": null,
        "受入対象者": null,
        "備考": ""
      }
    },
    {
      "type": "Feature",
      "geometry": {
        "type": "Point",
        "coordinates": [
          141.138162,
          39.135657
        ]
      },
      "properties": {
        "NO": 8166,
        "共通ID": "E0321500155111",
        "都道府県名及び市町村名": "岩手県奥州市",
        "施設・場所名": "水沢体育館",
        "住所": "岩手県奥州市水沢中上野町1-85",
        "指定緊急避難場所との住所同一": "1",
        "その他市町村長が必要と認める事項": null,
        "受入対象者": null,
        "備考": ""
      }
    },
    {
      "type": "Feature",
      "geometry": {
        "type": "Point",
        "coordinates": [
          141.149194,
          39.140371
        ]
      },
      "properties": {
        "NO": 8167,
        "共通ID": "E0321500157111",
        "都道府県名及び市町村名": "岩手県奥州市",
        "施設・場所名": "岩手ふるさと農業協同組合水沢支店",
        "住所": "岩手県奥州市水沢東大通り1-8-17",
        "指定緊急避難場所との住所同一": "1",
        "その他市町村長が必要と認める事項": "",
        "受入対象者": "",
        "備考": ""
      }
    },
    {
      "type": "Feature",
      "geometry": {
        "type": "Point",
        "coordinates": [
          141.145989,
          39.135851
        ]
      },
      "properties": {
        "NO": 8168,
        "共通ID": "E0321500159111",
        "都道府県名及び市町村名": "岩手県奥州市",
        "施設・場所名": "奥州市総合福祉センター",
        "住所": "岩手県奥州市水沢南町5-12",
        "指定緊急避難場所との住所同一": "1",
        "その他市町村長が必要と認める事項": null,
        "受入対象者": null,
        "備考": ""
      }
    },
    {
      "type": "Feature",
      "geometry": {
        "type": "Point",
        "coordinates": [
          141.131707,
          39.131673
        ]
      },
      "properties": {
        "NO": 8169,
        "共通ID": "E0321500160111",
        "都道府県名及び市町村名": "岩手県奥州市",
        "施設・場所名": "奥州市立水沢南小学校",
        "住所": "岩手県奥州市水沢福吉町3-24",
        "指定緊急避難場所との住所同一": "1",
        "その他市町村長が必要と認める事項": null,
        "受入対象者": null,
        "備考": ""
      }
    },
    {
      "type": "Feature",
      "geometry": {
        "type": "Point",
        "coordinates": [
          141.137045,
          39.079276
        ]
      },
      "properties": {
        "NO": 8170,
        "共通ID": "E0321500162111",
        "都道府県名及び市町村名": "岩手県奥州市",
        "施設・場所名": "奥州市古城地区センター",
        "住所": "岩手県奥州市前沢古城字東見寺下290",
        "指定緊急避難場所との住所同一": "1",
        "その他市町村長が必要と認める事項": null,
        "受入対象者": null,
        "備考": ""
      }
    },
    {
      "type": "Feature",
      "geometry": {
        "type": "Point",
        "coordinates": [
          141.141624,
          39.057365
        ]
      },
      "properties": {
        "NO": 8171,
        "共通ID": "E0321500165111",
        "都道府県名及び市町村名": "岩手県奥州市",
        "施設・場所名": "前沢いきいきスポーツランド",
        "住所": "岩手県奥州市前沢字阿部舘27-1",
        "指定緊急避難場所との住所同一": "1",
        "その他市町村長が必要と認める事項": null,
        "受入対象者": null,
        "備考": ""
      }
    },
    {
      "type": "Feature",
      "geometry": {
        "type": "Point",
        "coordinates": [
          141.131374,
          39.023002
        ]
      },
      "properties": {
        "NO": 8172,
        "共通ID": "E0321500166111",
        "都道府県名及び市町村名": "岩手県奥州市",
        "施設・場所名": "白鳥地区防災センター",
        "住所": "岩手県奥州市前沢字鵜ノ木56-23",
        "指定緊急避難場所との住所同一": "1",
        "その他市町村長が必要と認める事項": null,
        "受入対象者": null,
        "備考": ""
      }
    },
    {
      "type": "Feature",
      "geometry": {
        "type": "Point",
        "coordinates": [
          141.133586,
          39.062813
        ]
      },
      "properties": {
        "NO": 8173,
        "共通ID": "E0321500167111",
        "都道府県名及び市町村名": "岩手県奥州市",
        "施設・場所名": "奥州市立前沢小学校",
        "住所": "岩手県奥州市前沢字河ノ畑71-1",
        "指定緊急避難場所との住所同一": "1",
        "その他市町村長が必要と認める事項": null,
        "受入対象者": null,
        "備考": ""
      }
    },
    {
      "type": "Feature",
      "geometry": {
        "type": "Point",
        "coordinates": [
          141.138758,
          39.057966
        ]
      },
      "properties": {
        "NO": 8174,
        "共通ID": "E0321500168111",
        "都道府県名及び市町村名": "岩手県奥州市",
        "施設・場所名": "奥州市立前沢中学校",
        "住所": "岩手県奥州市前沢字久田31",
        "指定緊急避難場所との住所同一": "1",
        "その他市町村長が必要と認める事項": null,
        "受入対象者": null,
        "備考": ""
      }
    },
    {
      "type": "Feature",
      "geometry": {
        "type": "Point",
        "coordinates": [
          141.122394,
          39.063309
        ]
      },
      "properties": {
        "NO": 8175,
        "共通ID": "E0321500169111",
        "都道府県名及び市町村名": "岩手県奥州市",
        "施設・場所名": "岩手県立前沢高等学校",
        "住所": "岩手県奥州市前沢字狐石36-1",
        "指定緊急避難場所との住所同一": "1",
        "その他市町村長が必要と認める事項": null,
        "受入対象者": null,
        "備考": ""
      }
    },
    {
      "type": "Feature",
      "geometry": {
        "type": "Point",
        "coordinates": [
          141.133538,
          39.050529
        ]
      },
      "properties": {
        "NO": 8176,
        "共通ID": "E0321500170111",
        "都道府県名及び市町村名": "岩手県奥州市",
        "施設・場所名": "前沢勤労者研修センター",
        "住所": "岩手県奥州市前沢字五合田19-5",
        "指定緊急避難場所との住所同一": "1",
        "その他市町村長が必要と認める事項": null,
        "受入対象者": null,
        "備考": ""
      }
    },
    {
      "type": "Feature",
      "geometry": {
        "type": "Point",
        "coordinates": [
          141.112112,
          39.040298
        ]
      },
      "properties": {
        "NO": 8177,
        "共通ID": "E0321500172111",
        "都道府県名及び市町村名": "岩手県奥州市",
        "施設・場所名": "奥州市前沢地区センター白鳥分館",
        "住所": "岩手県奥州市前沢字合ノ沢106-4",
        "指定緊急避難場所との住所同一": "1",
        "その他市町村長が必要と認める事項": null,
        "受入対象者": null,
        "備考": ""
      }
    },
    {
      "type": "Feature",
      "geometry": {
        "type": "Point",
        "coordinates": [
          141.125399,
          39.051771
        ]
      },
      "properties": {
        "NO": 8178,
        "共通ID": "E0321500173111",
        "都道府県名及び市町村名": "岩手県奥州市",
        "施設・場所名": "前沢ふれあいセンター",
        "住所": "岩手県奥州市前沢字七日町裏104",
        "指定緊急避難場所との住所同一": "1",
        "その他市町村長が必要と認める事項": null,
        "受入対象者": null,
        "備考": ""
      }
    },
    {
      "type": "Feature",
      "geometry": {
        "type": "Point",
        "coordinates": [
          141.126145,
          39.051901
        ]
      },
      "properties": {
        "NO": 8179,
        "共通ID": "E0321500174111",
        "都道府県名及び市町村名": "岩手県奥州市",
        "施設・場所名": "奥州市前沢地区センター",
        "住所": "岩手県奥州市前沢字七日町裏131-1",
        "指定緊急避難場所との住所同一": "1",
        "その他市町村長が必要と認める事項": null,
        "受入対象者": null,
        "備考": ""
      }
    },
    {
      "type": "Feature",
      "geometry": {
        "type": "Point",
        "coordinates": [
          141.124146,
          39.051093
        ]
      },
      "properties": {
        "NO": 8180,
        "共通ID": "E0321500175111",
        "都道府県名及び市町村名": "岩手県奥州市",
        "施設・場所名": "前沢総合支所",
        "住所": "岩手県奥州市前沢字七日町裏71",
        "指定緊急避難場所との住所同一": "1",
        "その他市町村長が必要と認める事項": null,
        "受入対象者": null,
        "備考": ""
      }
    },
    {
      "type": "Feature",
      "geometry": {
        "type": "Point",
        "coordinates": [
          141.126295,
          39.060807
        ]
      },
      "properties": {
        "NO": 8181,
        "共通ID": "E0321500176111",
        "都道府県名及び市町村名": "岩手県奥州市",
        "施設・場所名": "岩手県立前沢明峰支援学校",
        "住所": "岩手県奥州市前沢字田畠18-1",
        "指定緊急避難場所との住所同一": "1",
        "その他市町村長が必要と認める事項": null,
        "受入対象者": null,
        "備考": ""
      }
    },
    {
      "type": "Feature",
      "geometry": {
        "type": "Point",
        "coordinates": [
          141.120069,
          39.04069
        ]
      },
      "properties": {
        "NO": 8182,
        "共通ID": "E0321500177111",
        "都道府県名及び市町村名": "岩手県奥州市",
        "施設・場所名": "前沢スポーツセンター",
        "住所": "岩手県奥州市前沢字塔ケ崎7",
        "指定緊急避難場所との住所同一": "1",
        "その他市町村長が必要と認める事項": null,
        "受入対象者": null,
        "備考": ""
      }
    },
    {
      "type": "Feature",
      "geometry": {
        "type": "Point",
        "coordinates": [
          141.144457,
          39.046717
        ]
      },
      "properties": {
        "NO": 8183,
        "共通ID": "E0321500178112",
        "都道府県名及び市町村名": "岩手県奥州市",
        "施設・場所名": "奥州市前沢地区センター目呂木分館",
        "住所": "岩手県奥州市前沢字道場3",
        "指定緊急避難場所との住所同一": "1",
        "その他市町村長が必要と認める事項": null,
        "受入対象者": null,
        "備考": ""
      }
    },
    {
      "type": "Feature",
      "geometry": {
        "type": "Point",
        "coordinates": [
          141.144714,
          39.046817
        ]
      },
      "properties": {
        "NO": 8184,
        "共通ID": "E0321500178111",
        "都道府県名及び市町村名": "岩手県奥州市",
        "施設・場所名": "目呂木勤労者体育館",
        "住所": "岩手県奥州市前沢字道場3",
        "指定緊急避難場所との住所同一": "1",
        "その他市町村長が必要と認める事項": null,
        "受入対象者": null,
        "備考": ""
      }
    },
    {
      "type": "Feature",
      "geometry": {
        "type": "Point",
        "coordinates": [
          141.12403,
          39.02698
        ]
      },
      "properties": {
        "NO": 8185,
        "共通ID": "E0321500179111",
        "都道府県名及び市町村名": "岩手県奥州市",
        "施設・場所名": "牛の博物館",
        "住所": "岩手県奥州市前沢字南陣場103-1",
        "指定緊急避難場所との住所同一": "1",
        "その他市町村長が必要と認める事項": null,
        "受入対象者": null,
        "備考": ""
      }
    },
    {
      "type": "Feature",
      "geometry": {
        "type": "Point",
        "coordinates": [
          141.109178,
          39.060247
        ]
      },
      "properties": {
        "NO": 8186,
        "共通ID": "E0321500181111",
        "都道府県名及び市町村名": "岩手県奥州市",
        "施設・場所名": "奥州市前沢地区センター上野原分館",
        "住所": "岩手県奥州市前沢字養ケ森45-1",
        "指定緊急避難場所との住所同一": "1",
        "その他市町村長が必要と認める事項": null,
        "受入対象者": null,
        "備考": ""
      }
    },
    {
      "type": "Feature",
      "geometry": {
        "type": "Point",
        "coordinates": [
          141.136796,
          39.055615
        ]
      },
      "properties": {
        "NO": 8187,
        "共通ID": "E0321500182111",
        "都道府県名及び市町村名": "岩手県奥州市",
        "施設・場所名": "前沢さわやか健康センター",
        "住所": "岩手県奥州市前沢字立石180-1",
        "指定緊急避難場所との住所同一": "1",
        "その他市町村長が必要と認める事項": null,
        "受入対象者": null,
        "備考": ""
      }
    },
    {
      "type": "Feature",
      "geometry": {
        "type": "Point",
        "coordinates": [
          141.160871,
          39.045278
        ]
      },
      "properties": {
        "NO": 8188,
        "共通ID": "E0321500183111",
        "都道府県名及び市町村名": "岩手県奥州市",
        "施設・場所名": "奥州市生母地区センター",
        "住所": "岩手県奥州市前沢生母字羽場69-1",
        "指定緊急避難場所との住所同一": "1",
        "その他市町村長が必要と認める事項": null,
        "受入対象者": null,
        "備考": ""
      }
    },
    {
      "type": "Feature",
      "geometry": {
        "type": "Point",
        "coordinates": [
          141.15169,
          39.034417
        ]
      },
      "properties": {
        "NO": 8189,
        "共通ID": "E0321500184111",
        "都道府県名及び市町村名": "岩手県奥州市",
        "施設・場所名": "奥州市生母地区センター赤生津分館",
        "住所": "岩手県奥州市前沢生母字荒谷24-12",
        "指定緊急避難場所との住所同一": "1",
        "その他市町村長が必要と認める事項": null,
        "受入対象者": null,
        "備考": ""
      }
    },
    {
      "type": "Feature",
      "geometry": {
        "type": "Point",
        "coordinates": [
          141.198706,
          39.05131
        ]
      },
      "properties": {
        "NO": 8190,
        "共通ID": "E0321500185111",
        "都道府県名及び市町村名": "岩手県奥州市",
        "施設・場所名": "成岡田自治公民館",
        "住所": "岩手県奥州市前沢生母字地蔵壇18-13",
        "指定緊急避難場所との住所同一": "1",
        "その他市町村長が必要と認める事項": null,
        "受入対象者": null,
        "備考": ""
      }
    },
    {
      "type": "Feature",
      "geometry": {
        "type": "Point",
        "coordinates": [
          141.18682,
          39.066998
        ]
      },
      "properties": {
        "NO": 8191,
        "共通ID": "E0321500186111",
        "都道府県名及び市町村名": "岩手県奥州市",
        "施設・場所名": "天王自治公民館",
        "住所": "岩手県奥州市前沢生母字天王29",
        "指定緊急避難場所との住所同一": "1",
        "その他市町村長が必要と認める事項": null,
        "受入対象者": null,
        "備考": ""
      }
    },
    {
      "type": "Feature",
      "geometry": {
        "type": "Point",
        "coordinates": [
          141.16217,
          39.070699
        ]
      },
      "properties": {
        "NO": 8192,
        "共通ID": "E0321500189111",
        "都道府県名及び市町村名": "岩手県奥州市",
        "施設・場所名": "奥州市白山地区センター",
        "住所": "岩手県奥州市前沢白山字古宿37-3",
        "指定緊急避難場所との住所同一": "1",
        "その他市町村長が必要と認める事項": null,
        "受入対象者": null,
        "備考": ""
      }
    },
    {
      "type": "Feature",
      "geometry": {
        "type": "Point",
        "coordinates": [
          140.986084,
          39.126437
        ]
      },
      "properties": {
        "NO": 8193,
        "共通ID": "E0321500191111",
        "都道府県名及び市町村名": "岩手県奥州市",
        "施設・場所名": "奥州市胆沢愛宕地区センター",
        "住所": "岩手県奥州市胆沢若柳字愛宕155",
        "指定緊急避難場所との住所同一": "1",
        "その他市町村長が必要と認める事項": null,
        "受入対象者": null,
        "備考": ""
      }
    },
    {
      "type": "Feature",
      "geometry": {
        "type": "Point",
        "coordinates": [
          141.063036,
          39.131595
        ]
      },
      "properties": {
        "NO": 8194,
        "共通ID": "E0321500194111",
        "都道府県名及び市町村名": "岩手県奥州市",
        "施設・場所名": "奥州市若柳地区センター",
        "住所": "岩手県奥州市胆沢若柳字相馬檀144",
        "指定緊急避難場所との住所同一": "1",
        "その他市町村長が必要と認める事項": null,
        "受入対象者": null,
        "備考": ""
      }
    },
    {
      "type": "Feature",
      "geometry": {
        "type": "Point",
        "coordinates": [
          140.944239,
          39.115486
        ]
      },
      "properties": {
        "NO": 8195,
        "共通ID": "E0321500195111",
        "都道府県名及び市町村名": "岩手県奥州市",
        "施設・場所名": "焼石クアパークひめかゆ・やけいし館",
        "住所": "岩手県奥州市胆沢若柳字天沢52-7",
        "指定緊急避難場所との住所同一": "1",
        "その他市町村長が必要と認める事項": "",
        "受入対象者": "",
        "備考": ""
      }
    },
    {
      "type": "Feature",
      "geometry": {
        "type": "Point",
        "coordinates": [
          140.934299,
          39.120317
        ]
      },
      "properties": {
        "NO": 8196,
        "共通ID": "E0321500197111",
        "都道府県名及び市町村名": "岩手県奥州市",
        "施設・場所名": "奥州湖交流館",
        "住所": "岩手県奥州市胆沢若柳字馬留81-1",
        "指定緊急避難場所との住所同一": "1",
        "その他市町村長が必要と認める事項": null,
        "受入対象者": null,
        "備考": ""
      }
    },
    {
      "type": "Feature",
      "geometry": {
        "type": "Point",
        "coordinates": [
          141.058058,
          39.129853
        ]
      },
      "properties": {
        "NO": 8197,
        "共通ID": "E0321500198111",
        "都道府県名及び市町村名": "岩手県奥州市",
        "施設・場所名": "奥州市立若柳小学校",
        "住所": "岩手県奥州市胆沢若柳字箸塚181",
        "指定緊急避難場所との住所同一": "1",
        "その他市町村長が必要と認める事項": null,
        "受入対象者": null,
        "備考": ""
      }
    },
    {
      "type": "Feature",
      "geometry": {
        "type": "Point",
        "coordinates": [
          141.11556,
          39.113592
        ]
      },
      "properties": {
        "NO": 8198,
        "共通ID": "E0321500200111",
        "都道府県名及び市町村名": "岩手県奥州市",
        "施設・場所名": "岩手県立水沢農業高等学校",
        "住所": "岩手県奥州市胆沢小山字笹森1",
        "指定緊急避難場所との住所同一": "1",
        "その他市町村長が必要と認める事項": null,
        "受入対象者": null,
        "備考": ""
      }
    },
    {
      "type": "Feature",
      "geometry": {
        "type": "Point",
        "coordinates": [
          141.07954,
          39.097097
        ]
      },
      "properties": {
        "NO": 8199,
        "共通ID": "E0321500201111",
        "都道府県名及び市町村名": "岩手県奥州市",
        "施設・場所名": "奥州市立胆沢第一小学校",
        "住所": "岩手県奥州市胆沢小山字道場30",
        "指定緊急避難場所との住所同一": "1",
        "その他市町村長が必要と認める事項": null,
        "受入対象者": null,
        "備考": ""
      }
    },
    {
      "type": "Feature",
      "geometry": {
        "type": "Point",
        "coordinates": [
          141.082177,
          39.097053
        ]
      },
      "properties": {
        "NO": 8200,
        "共通ID": "E0321500202111",
        "都道府県名及び市町村名": "岩手県奥州市",
        "施設・場所名": "奥州市小山地区センター",
        "住所": "岩手県奥州市胆沢小山字道場40-1",
        "指定緊急避難場所との住所同一": "1",
        "その他市町村長が必要と認める事項": null,
        "受入対象者": null,
        "備考": ""
      }
    },
    {
      "type": "Feature",
      "geometry": {
        "type": "Point",
        "coordinates": [
          141.069551,
          39.119389
        ]
      },
      "properties": {
        "NO": 8201,
        "共通ID": "E0321500204111",
        "都道府県名及び市町村名": "岩手県奥州市",
        "施設・場所名": "胆沢文化創造センター",
        "住所": "岩手県奥州市胆沢南都田字加賀谷地1-1",
        "指定緊急避難場所との住所同一": "1",
        "その他市町村長が必要と認める事項": null,
        "受入対象者": null,
        "備考": ""
      }
    },
    {
      "type": "Feature",
      "geometry": {
        "type": "Point",
        "coordinates": [
          141.069879,
          39.117059
        ]
      },
      "properties": {
        "NO": 8202,
        "共通ID": "E0321500205111",
        "都道府県名及び市町村名": "岩手県奥州市",
        "施設・場所名": "胆沢総合支所",
        "住所": "岩手県奥州市胆沢南都田字加賀谷地270",
        "指定緊急避難場所との住所同一": "1",
        "その他市町村長が必要と認める事項": null,
        "受入対象者": null,
        "備考": ""
      }
    },
    {
      "type": "Feature",
      "geometry": {
        "type": "Point",
        "coordinates": [
          141.068358,
          39.122594
        ]
      },
      "properties": {
        "NO": 8203,
        "共通ID": "E0321500206111",
        "都道府県名及び市町村名": "岩手県奥州市",
        "施設・場所名": "胆沢総合体育館",
        "住所": "岩手県奥州市胆沢南都田字小十文字160",
        "指定緊急避難場所との住所同一": "1",
        "その他市町村長が必要と認める事項": null,
        "受入対象者": null,
        "備考": ""
      }
    },
    {
      "type": "Feature",
      "geometry": {
        "type": "Point",
        "coordinates": [
          141.069855,
          39.114996
        ]
      },
      "properties": {
        "NO": 8204,
        "共通ID": "E0321500209111",
        "都道府県名及び市町村名": "岩手県奥州市",
        "施設・場所名": "奥州市立胆沢中学校",
        "住所": "岩手県奥州市胆沢南都田字蛸の手6-1",
        "指定緊急避難場所との住所同一": "1",
        "その他市町村長が必要と認める事項": null,
        "受入対象者": null,
        "備考": ""
      }
    },
    {
      "type": "Feature",
      "geometry": {
        "type": "Point",
        "coordinates": [
          141.088048,
          39.139784
        ]
      },
      "properties": {
        "NO": 8205,
        "共通ID": "E0321500210111",
        "都道府県名及び市町村名": "岩手県奥州市",
        "施設・場所名": "奥州市立南都田小学校",
        "住所": "岩手県奥州市胆沢南都田字塚田126",
        "指定緊急避難場所との住所同一": "1",
        "その他市町村長が必要と認める事項": null,
        "受入対象者": null,
        "備考": ""
      }
    },
    {
      "type": "Feature",
      "geometry": {
        "type": "Point",
        "coordinates": [
          141.086817,
          39.139101
        ]
      },
      "properties": {
        "NO": 8206,
        "共通ID": "E0321500211111",
        "都道府県名及び市町村名": "岩手県奥州市",
        "施設・場所名": "奥州市南都田地区センター",
        "住所": "岩手県奥州市胆沢南都田字塚田126-8",
        "指定緊急避難場所との住所同一": "1",
        "その他市町村長が必要と認める事項": null,
        "受入対象者": null,
        "備考": ""
      }
    }
  ]
}