{
  "type": "FeatureCollection",
  "name": "033031",
  "features": [
    {
      "type": "Feature",
      "geometry": {
        "type": "Point",
        "coordinates": [
          141.167699,
          39.969171
        ]
      },
      "properties": {
        "NO": 8274,
        "共通ID": "E0330300001111",
        "都道府県名及び市町村名": "岩手県岩手町",
        "施設・場所名": "一方井健康センター",
        "住所": "岩手県岩手町大字一方井14-67",
        "指定緊急避難場所との住所同一": "1",
        "その他市町村長が必要と認める事項": null,
        "受入対象者": null,
        "備考": ""
      }
    },
    {
      "type": "Feature",
      "geometry": {
        "type": "Point",
        "coordinates": [
          141.16801,
          39.969672
        ]
      },
      "properties": {
        "NO": 8275,
        "共通ID": "E0330300001112",
        "都道府県名及び市町村名": "岩手県岩手町",
        "施設・場所名": "一方井公民館",
        "住所": "岩手県岩手町大字一方井14-67",
        "指定緊急避難場所との住所同一": "1",
        "その他市町村長が必要と認める事項": null,
        "受入対象者": null,
        "備考": ""
      }
    },
    {
      "type": "Feature",
      "geometry": {
        "type": "Point",
        "coordinates": [
          141.170224,
          39.972172
        ]
      },
      "properties": {
        "NO": 8276,
        "共通ID": "E0330300002111",
        "都道府県名及び市町村名": "岩手県岩手町",
        "施設・場所名": "一方井小学校",
        "住所": "岩手県岩手町大字一方井15-45-1",
        "指定緊急避難場所との住所同一": "1",
        "その他市町村長が必要と認める事項": null,
        "受入対象者": null,
        "備考": ""
      }
    },
    {
      "type": "Feature",
      "geometry": {
        "type": "Point",
        "coordinates": [
          141.190756,
          39.947214
        ]
      },
      "properties": {
        "NO": 8277,
        "共通ID": "E0330300003111",
        "都道府県名及び市町村名": "岩手県岩手町",
        "施設・場所名": "久保公民館",
        "住所": "岩手県岩手町大字久保10-54-6",
        "指定緊急避難場所との住所同一": "1",
        "その他市町村長が必要と認める事項": null,
        "受入対象者": null,
        "備考": ""
      }
    },
    {
      "type": "Feature",
      "geometry": {
        "type": "Point",
        "coordinates": [
          141.190006,
          39.948158
        ]
      },
      "properties": {
        "NO": 8278,
        "共通ID": "E0330300004111",
        "都道府県名及び市町村名": "岩手県岩手町",
        "施設・場所名": "旧久保小学校",
        "住所": "岩手県岩手町大字久保10-57-2",
        "指定緊急避難場所との住所同一": "1",
        "その他市町村長が必要と認める事項": null,
        "受入対象者": null,
        "備考": ""
      }
    },
    {
      "type": "Feature",
      "geometry": {
        "type": "Point",
        "coordinates": [
          141.213786,
          39.9686
        ]
      },
      "properties": {
        "NO": 8279,
        "共通ID": "E0330300005111",
        "都道府県名及び市町村名": "岩手県岩手町",
        "施設・場所名": "道の駅石神の丘",
        "住所": "岩手県岩手町大字五日市10-121-20",
        "指定緊急避難場所との住所同一": "1",
        "その他市町村長が必要と認める事項": null,
        "受入対象者": null,
        "備考": ""
      }
    },
    {
      "type": "Feature",
      "geometry": {
        "type": "Point",
        "coordinates": [
          141.211356,
          39.969562
        ]
      },
      "properties": {
        "NO": 8280,
        "共通ID": "E0330300006111",
        "都道府県名及び市町村名": "岩手県岩手町",
        "施設・場所名": "沼宮内高等学校",
        "住所": "岩手県岩手町大字五日市10-4",
        "指定緊急避難場所との住所同一": "1",
        "その他市町村長が必要と認める事項": null,
        "受入対象者": null,
        "備考": ""
      }
    },
    {
      "type": "Feature",
      "geometry": {
        "type": "Point",
        "coordinates": [
          141.21393,
          39.961295
        ]
      },
      "properties": {
        "NO": 8281,
        "共通ID": "E0330300007111",
        "都道府県名及び市町村名": "岩手県岩手町",
        "施設・場所名": "林業研修センター",
        "住所": "岩手県岩手町大字五日市12-81-1",
        "指定緊急避難場所との住所同一": "1",
        "その他市町村長が必要と認める事項": null,
        "受入対象者": null,
        "備考": ""
      }
    },
    {
      "type": "Feature",
      "geometry": {
        "type": "Point",
        "coordinates": [
          141.224623,
          39.980946
        ]
      },
      "properties": {
        "NO": 8282,
        "共通ID": "E0330300008111",
        "都道府県名及び市町村名": "岩手県岩手町",
        "施設・場所名": "沼宮内中学校",
        "住所": "岩手県岩手町大字五日市8-30-2",
        "指定緊急避難場所との住所同一": "1",
        "その他市町村長が必要と認める事項": null,
        "受入対象者": null,
        "備考": ""
      }
    },
    {
      "type": "Feature",
      "geometry": {
        "type": "Point",
        "coordinates": [
          141.220427,
          39.969225
        ]
      },
      "properties": {
        "NO": 8283,
        "共通ID": "E0330300009111",
        "都道府県名及び市町村名": "岩手県岩手町",
        "施設・場所名": "沼宮内保育所",
        "住所": "岩手県岩手町大字江刈内9-65-17",
        "指定緊急避難場所との住所同一": "1",
        "その他市町村長が必要と認める事項": null,
        "受入対象者": null,
        "備考": ""
      }
    },
    {
      "type": "Feature",
      "geometry": {
        "type": "Point",
        "coordinates": [
          141.205714,
          39.954129
        ]
      },
      "properties": {
        "NO": 8284,
        "共通ID": "E0330300010111",
        "都道府県名及び市町村名": "岩手県岩手町",
        "施設・場所名": "スポーツ文化センター",
        "住所": "岩手県岩手町大字子抱5-142",
        "指定緊急避難場所との住所同一": "1",
        "その他市町村長が必要と認める事項": null,
        "受入対象者": null,
        "備考": ""
      }
    },
    {
      "type": "Feature",
      "geometry": {
        "type": "Point",
        "coordinates": [
          141.239339,
          40.006669
        ]
      },
      "properties": {
        "NO": 8285,
        "共通ID": "E0330300011111",
        "都道府県名及び市町村名": "岩手県岩手町",
        "施設・場所名": "旧水堀小学校",
        "住所": "岩手県岩手町大字沼宮内20-15-1",
        "指定緊急避難場所との住所同一": "1",
        "その他市町村長が必要と認める事項": null,
        "受入対象者": null,
        "備考": ""
      }
    },
    {
      "type": "Feature",
      "geometry": {
        "type": "Point",
        "coordinates": [
          141.238862,
          40.008265
        ]
      },
      "properties": {
        "NO": 8286,
        "共通ID": "E0330300012111",
        "都道府県名及び市町村名": "岩手県岩手町",
        "施設・場所名": "水堀いきがい交流センター",
        "住所": "岩手県岩手町大字沼宮内20-8-1",
        "指定緊急避難場所との住所同一": "1",
        "その他市町村長が必要と認める事項": null,
        "受入対象者": null,
        "備考": ""
      }
    },
    {
      "type": "Feature",
      "geometry": {
        "type": "Point",
        "coordinates": [
          141.223165,
          39.973033
        ]
      },
      "properties": {
        "NO": 8287,
        "共通ID": "E0330300013111",
        "都道府県名及び市町村名": "岩手県岩手町",
        "施設・場所名": "沼宮内公民館",
        "住所": "岩手県岩手町大字沼宮内7-33",
        "指定緊急避難場所との住所同一": "1",
        "その他市町村長が必要と認める事項": null,
        "受入対象者": null,
        "備考": ""
      }
    },
    {
      "type": "Feature",
      "geometry": {
        "type": "Point",
        "coordinates": [
          141.227158,
          39.974915
        ]
      },
      "properties": {
        "NO": 8288,
        "共通ID": "E0330300014111",
        "都道府県名及び市町村名": "岩手県岩手町",
        "施設・場所名": "沼宮内小学校",
        "住所": "岩手県岩手町大字沼宮内9-57-2",
        "指定緊急避難場所との住所同一": "1",
        "その他市町村長が必要と認める事項": null,
        "受入対象者": null,
        "備考": ""
      }
    },
    {
      "type": "Feature",
      "geometry": {
        "type": "Point",
        "coordinates": [
          141.202305,
          39.915222
        ]
      },
      "properties": {
        "NO": 8289,
        "共通ID": "E0330300015111",
        "都道府県名及び市町村名": "岩手県岩手町",
        "施設・場所名": "川口公民館別館",
        "住所": "岩手県岩手町大字川口12-10",
        "指定緊急避難場所との住所同一": "1",
        "その他市町村長が必要と認める事項": "",
        "受入対象者": "",
        "備考": ""
      }
    },
    {
      "type": "Feature",
      "geometry": {
        "type": "Point",
        "coordinates": [
          141.205306,
          39.925728
        ]
      },
      "properties": {
        "NO": 8290,
        "共通ID": "E0330300016111",
        "都道府県名及び市町村名": "岩手県岩手町",
        "施設・場所名": "川口小学校",
        "住所": "岩手県岩手町大字川口15-91-2",
        "指定緊急避難場所との住所同一": "1",
        "その他市町村長が必要と認める事項": null,
        "受入対象者": null,
        "備考": ""
      }
    },
    {
      "type": "Feature",
      "geometry": {
        "type": "Point",
        "coordinates": [
          141.204342,
          39.925981
        ]
      },
      "properties": {
        "NO": 8291,
        "共通ID": "E0330300017111",
        "都道府県名及び市町村名": "岩手県岩手町",
        "施設・場所名": "川口保育所",
        "住所": "岩手県岩手町大字川口16-26-4",
        "指定緊急避難場所との住所同一": "1",
        "その他市町村長が必要と認める事項": null,
        "受入対象者": null,
        "備考": ""
      }
    },
    {
      "type": "Feature",
      "geometry": {
        "type": "Point",
        "coordinates": [
          141.301737,
          39.898513
        ]
      },
      "properties": {
        "NO": 8292,
        "共通ID": "E0330300018112",
        "都道府県名及び市町村名": "岩手県岩手町",
        "施設・場所名": "南山形公民館",
        "住所": "岩手県岩手町大字川口26-52-2",
        "指定緊急避難場所との住所同一": "1",
        "その他市町村長が必要と認める事項": "",
        "受入対象者": "",
        "備考": ""
      }
    },
    {
      "type": "Feature",
      "geometry": {
        "type": "Point",
        "coordinates": [
          141.326728,
          39.942491
        ]
      },
      "properties": {
        "NO": 8293,
        "共通ID": "E0330300019111",
        "都道府県名及び市町村名": "岩手県岩手町",
        "施設・場所名": "旧東部中学校",
        "住所": "岩手県岩手町大字川口41-145-2",
        "指定緊急避難場所との住所同一": "1",
        "その他市町村長が必要と認める事項": null,
        "受入対象者": null,
        "備考": ""
      }
    },
    {
      "type": "Feature",
      "geometry": {
        "type": "Point",
        "coordinates": [
          141.325781,
          39.942446
        ]
      },
      "properties": {
        "NO": 8294,
        "共通ID": "E0330300019112",
        "都道府県名及び市町村名": "岩手県岩手町",
        "施設・場所名": "旧北山形小学校",
        "住所": "岩手県岩手町大字川口41-145-2",
        "指定緊急避難場所との住所同一": "1",
        "その他市町村長が必要と認める事項": null,
        "受入対象者": null,
        "備考": ""
      }
    },
    {
      "type": "Feature",
      "geometry": {
        "type": "Point",
        "coordinates": [
          141.327349,
          39.942917
        ]
      },
      "properties": {
        "NO": 8295,
        "共通ID": "E0330300020111",
        "都道府県名及び市町村名": "岩手県岩手町",
        "施設・場所名": "北山形公民館",
        "住所": "岩手県岩手町大字川口43-192-5",
        "指定緊急避難場所との住所同一": "1",
        "その他市町村長が必要と認める事項": null,
        "受入対象者": null,
        "備考": ""
      }
    },
    {
      "type": "Feature",
      "geometry": {
        "type": "Point",
        "coordinates": [
          141.201287,
          39.921461
        ]
      },
      "properties": {
        "NO": 8296,
        "共通ID": "E0330300021111",
        "都道府県名及び市町村名": "岩手県岩手町",
        "施設・場所名": "川口社会体育館",
        "住所": "岩手県岩手町大字川口9-34",
        "指定緊急避難場所との住所同一": "1",
        "その他市町村長が必要と認める事項": null,
        "受入対象者": null,
        "備考": ""
      }
    },
    {
      "type": "Feature",
      "geometry": {
        "type": "Point",
        "coordinates": [
          141.201644,
          39.921434
        ]
      },
      "properties": {
        "NO": 8297,
        "共通ID": "E0330300021112",
        "都道府県名及び市町村名": "岩手県岩手町",
        "施設・場所名": "川口公民館",
        "住所": "岩手県岩手町大字川口9-34",
        "指定緊急避難場所との住所同一": "1",
        "その他市町村長が必要と認める事項": null,
        "受入対象者": null,
        "備考": ""
      }
    },
    {
      "type": "Feature",
      "geometry": {
        "type": "Point",
        "coordinates": [
          141.335068,
          39.970764
        ]
      },
      "properties": {
        "NO": 8298,
        "共通ID": "E0330300022112",
        "都道府県名及び市町村名": "岩手県岩手町",
        "施設・場所名": "岩瀬張地区体育館",
        "住所": "岩手県岩手町大字大坊5-8-1",
        "指定緊急避難場所との住所同一": "1",
        "その他市町村長が必要と認める事項": "",
        "受入対象者": "",
        "備考": ""
      }
    },
    {
      "type": "Feature",
      "geometry": {
        "type": "Point",
        "coordinates": [
          141.161129,
          39.943154
        ]
      },
      "properties": {
        "NO": 8299,
        "共通ID": "E0330300023111",
        "都道府県名及び市町村名": "岩手県岩手町",
        "施設・場所名": "浮島公民館",
        "住所": "岩手県岩手町大字土川1-131-1",
        "指定緊急避難場所との住所同一": "1",
        "その他市町村長が必要と認める事項": null,
        "受入対象者": null,
        "備考": ""
      }
    }
  ]
}