{
  "type": "FeatureCollection",
  "name": "033227",
  "features": [
    {
      "type": "Feature",
      "geometry": {
        "type": "Point",
        "coordinates": [
          141.123118,
          39.622203
        ]
      },
      "properties": {
        "NO": 8386,
        "共通ID": "E0332200001111",
        "都道府県名及び市町村名": "岩手県矢巾町",
        "施設・場所名": "煙山自治公民館",
        "住所": "岩手県矢巾町大字煙山18-11-3",
        "指定緊急避難場所との住所同一": "",
        "その他市町村長が必要と認める事項": null,
        "受入対象者": null,
        "備考": ""
      }
    },
    {
      "type": "Feature",
      "geometry": {
        "type": "Point",
        "coordinates": [
          141.131508,
          39.607318
        ]
      },
      "properties": {
        "NO": 8387,
        "共通ID": "E0332200004111",
        "都道府県名及び市町村名": "岩手県矢巾町",
        "施設・場所名": "南煙山転作研修センター",
        "住所": "岩手県矢巾町大字煙山31-86",
        "指定緊急避難場所との住所同一": "",
        "その他市町村長が必要と認める事項": null,
        "受入対象者": null,
        "備考": ""
      }
    },
    {
      "type": "Feature",
      "geometry": {
        "type": "Point",
        "coordinates": [
          141.114217,
          39.614917
        ]
      },
      "properties": {
        "NO": 8388,
        "共通ID": "E0332200005111",
        "都道府県名及び市町村名": "岩手県矢巾町",
        "施設・場所名": "城内公民館",
        "住所": "岩手県矢巾町大字煙山8-83-2",
        "指定緊急避難場所との住所同一": "",
        "その他市町村長が必要と認める事項": null,
        "受入対象者": null,
        "備考": ""
      }
    },
    {
      "type": "Feature",
      "geometry": {
        "type": "Point",
        "coordinates": [
          141.172239,
          39.596919
        ]
      },
      "properties": {
        "NO": 8389,
        "共通ID": "E0332200006111",
        "都道府県名及び市町村名": "岩手県矢巾町",
        "施設・場所名": "間野々公民館",
        "住所": "岩手県矢巾町大字間野々12-95-1",
        "指定緊急避難場所との住所同一": "",
        "その他市町村長が必要と認める事項": null,
        "受入対象者": null,
        "備考": ""
      }
    },
    {
      "type": "Feature",
      "geometry": {
        "type": "Point",
        "coordinates": [
          141.106,
          39.583046
        ]
      },
      "properties": {
        "NO": 8390,
        "共通ID": "E0332200009111",
        "都道府県名及び市町村名": "岩手県矢巾町",
        "施設・場所名": "岩清水コミュニティセンター",
        "住所": "岩手県矢巾町大字岩清水5-199-1",
        "指定緊急避難場所との住所同一": "",
        "その他市町村長が必要と認める事項": null,
        "受入対象者": null,
        "備考": ""
      }
    },
    {
      "type": "Feature",
      "geometry": {
        "type": "Point",
        "coordinates": [
          141.092093,
          39.625266
        ]
      },
      "properties": {
        "NO": 8391,
        "共通ID": "E0332200011111",
        "都道府県名及び市町村名": "岩手県矢巾町",
        "施設・場所名": "南昌コミュニティセンター",
        "住所": "岩手県矢巾町大字広宮沢1-2-129",
        "指定緊急避難場所との住所同一": "",
        "その他市町村長が必要と認める事項": null,
        "受入対象者": null,
        "備考": ""
      }
    },
    {
      "type": "Feature",
      "geometry": {
        "type": "Point",
        "coordinates": [
          141.08754,
          39.62235
        ]
      },
      "properties": {
        "NO": 8392,
        "共通ID": "E0332200012121",
        "都道府県名及び市町村名": "岩手県矢巾町",
        "施設・場所名": "介護老人保健施設敬愛荘",
        "住所": "岩手県矢巾町大字広宮沢1-2-181",
        "指定緊急避難場所との住所同一": "",
        "その他市町村長が必要と認める事項": null,
        "受入対象者": "要配慮者",
        "備考": ""
      }
    },
    {
      "type": "Feature",
      "geometry": {
        "type": "Point",
        "coordinates": [
          141.089092,
          39.623263
        ]
      },
      "properties": {
        "NO": 8393,
        "共通ID": "E0332200013121",
        "都道府県名及び市町村名": "岩手県矢巾町",
        "施設・場所名": "介護老人福祉施設悠和荘",
        "住所": "岩手県矢巾町大字広宮沢1-2-312",
        "指定緊急避難場所との住所同一": "",
        "その他市町村長が必要と認める事項": null,
        "受入対象者": "要配慮者",
        "備考": ""
      }
    },
    {
      "type": "Feature",
      "geometry": {
        "type": "Point",
        "coordinates": [
          141.119707,
          39.634219
        ]
      },
      "properties": {
        "NO": 8394,
        "共通ID": "E0332200010111",
        "都道府県名及び市町村名": "岩手県矢巾町",
        "施設・場所名": "広宮沢玉生会館",
        "住所": "岩手県矢巾町大字広宮沢10-501-29",
        "指定緊急避難場所との住所同一": "",
        "その他市町村長が必要と認める事項": null,
        "受入対象者": null,
        "備考": ""
      }
    },
    {
      "type": "Feature",
      "geometry": {
        "type": "Point",
        "coordinates": [
          141.123217,
          39.630849
        ]
      },
      "properties": {
        "NO": 8395,
        "共通ID": "E0332200014111",
        "都道府県名及び市町村名": "岩手県矢巾町",
        "施設・場所名": "広宮沢１区公民館",
        "住所": "岩手県矢巾町大字広宮沢5-53",
        "指定緊急避難場所との住所同一": "",
        "その他市町村長が必要と認める事項": null,
        "受入対象者": null,
        "備考": ""
      }
    },
    {
      "type": "Feature",
      "geometry": {
        "type": "Point",
        "coordinates": [
          141.092992,
          39.626083
        ]
      },
      "properties": {
        "NO": 8396,
        "共通ID": "E0332200015121",
        "都道府県名及び市町村名": "岩手県矢巾町",
        "施設・場所名": "介護老人福祉施設志和荘",
        "住所": "岩手県矢巾町大字広宮沢矢巾町大字広宮沢1-100",
        "指定緊急避難場所との住所同一": "",
        "その他市町村長が必要と認める事項": null,
        "受入対象者": "要配慮者",
        "備考": ""
      }
    },
    {
      "type": "Feature",
      "geometry": {
        "type": "Point",
        "coordinates": [
          141.172366,
          39.62772
        ]
      },
      "properties": {
        "NO": 8397,
        "共通ID": "E0332200016111",
        "都道府県名及び市町村名": "岩手県矢巾町",
        "施設・場所名": "高田コミュニティセンター",
        "住所": "岩手県矢巾町大字高田12-66",
        "指定緊急避難場所との住所同一": "",
        "その他市町村長が必要と認める事項": null,
        "受入対象者": null,
        "備考": ""
      }
    },
    {
      "type": "Feature",
      "geometry": {
        "type": "Point",
        "coordinates": [
          141.125623,
          39.593875
        ]
      },
      "properties": {
        "NO": 8398,
        "共通ID": "E0332200019111",
        "都道府県名及び市町村名": "岩手県矢巾町",
        "施設・場所名": "矢巾町農村環境改善センター",
        "住所": "岩手県矢巾町大字室岡11-132-1",
        "指定緊急避難場所との住所同一": "",
        "その他市町村長が必要と認める事項": null,
        "受入対象者": null,
        "備考": ""
      }
    },
    {
      "type": "Feature",
      "geometry": {
        "type": "Point",
        "coordinates": [
          141.125201,
          39.595713
        ]
      },
      "properties": {
        "NO": 8399,
        "共通ID": "E0332200020121",
        "都道府県名及び市町村名": "岩手県矢巾町",
        "施設・場所名": "障害者支援施設新生園",
        "住所": "岩手県矢巾町大字室岡12-125",
        "指定緊急避難場所との住所同一": "",
        "その他市町村長が必要と認める事項": null,
        "受入対象者": "要配慮者",
        "備考": ""
      }
    },
    {
      "type": "Feature",
      "geometry": {
        "type": "Point",
        "coordinates": [
          141.124629,
          39.59413
        ]
      },
      "properties": {
        "NO": 8400,
        "共通ID": "E0332200021111",
        "都道府県名及び市町村名": "岩手県矢巾町",
        "施設・場所名": "不動小学校",
        "住所": "岩手県矢巾町大字室岡12-50",
        "指定緊急避難場所との住所同一": "1",
        "その他市町村長が必要と認める事項": null,
        "受入対象者": null,
        "備考": ""
      }
    },
    {
      "type": "Feature",
      "geometry": {
        "type": "Point",
        "coordinates": [
          141.121974,
          39.595197
        ]
      },
      "properties": {
        "NO": 8401,
        "共通ID": "E0332200022111",
        "都道府県名及び市町村名": "岩手県矢巾町",
        "施設・場所名": "室岡公民館",
        "住所": "岩手県矢巾町大字室岡6-40-6",
        "指定緊急避難場所との住所同一": "",
        "その他市町村長が必要と認める事項": null,
        "受入対象者": null,
        "備考": ""
      }
    },
    {
      "type": "Feature",
      "geometry": {
        "type": "Point",
        "coordinates": [
          141.14244,
          39.626117
        ]
      },
      "properties": {
        "NO": 8402,
        "共通ID": "E0332200025111",
        "都道府県名及び市町村名": "岩手県矢巾町",
        "施設・場所名": "矢巾北中学校",
        "住所": "岩手県矢巾町大字上矢次7-115",
        "指定緊急避難場所との住所同一": "1",
        "その他市町村長が必要と認める事項": null,
        "受入対象者": null,
        "備考": ""
      }
    },
    {
      "type": "Feature",
      "geometry": {
        "type": "Point",
        "coordinates": [
          141.142096,
          39.6226
        ]
      },
      "properties": {
        "NO": 8403,
        "共通ID": "E0332200026111",
        "都道府県名及び市町村名": "岩手県矢巾町",
        "施設・場所名": "煙山保育園",
        "住所": "岩手県矢巾町大字上矢次7-29-1",
        "指定緊急避難場所との住所同一": "",
        "その他市町村長が必要と認める事項": null,
        "受入対象者": null,
        "備考": ""
      }
    },
    {
      "type": "Feature",
      "geometry": {
        "type": "Point",
        "coordinates": [
          141.193357,
          39.598366
        ]
      },
      "properties": {
        "NO": 8404,
        "共通ID": "E0332200027111",
        "都道府県名及び市町村名": "岩手県矢巾町",
        "施設・場所名": "清掃センターふれあい館",
        "住所": "岩手県矢巾町大字西徳田12-168-2",
        "指定緊急避難場所との住所同一": "",
        "その他市町村長が必要と認める事項": null,
        "受入対象者": null,
        "備考": ""
      }
    },
    {
      "type": "Feature",
      "geometry": {
        "type": "Point",
        "coordinates": [
          141.169169,
          39.611025
        ]
      },
      "properties": {
        "NO": 8405,
        "共通ID": "E0332200029111",
        "都道府県名及び市町村名": "岩手県矢巾町",
        "施設・場所名": "西徳田１区公民館",
        "住所": "岩手県矢巾町大字西徳田4-9-27",
        "指定緊急避難場所との住所同一": "",
        "その他市町村長が必要と認める事項": null,
        "受入対象者": null,
        "備考": ""
      }
    },
    {
      "type": "Feature",
      "geometry": {
        "type": "Point",
        "coordinates": [
          141.170928,
          39.612301
        ]
      },
      "properties": {
        "NO": 8406,
        "共通ID": "E0332200030121",
        "都道府県名及び市町村名": "岩手県矢巾町",
        "施設・場所名": "デイサービスセンター「百万石」矢巾口",
        "住所": "岩手県矢巾町大字西徳田5-200-12",
        "指定緊急避難場所との住所同一": "",
        "その他市町村長が必要と認める事項": null,
        "受入対象者": "要配慮者",
        "備考": ""
      }
    },
    {
      "type": "Feature",
      "geometry": {
        "type": "Point",
        "coordinates": [
          141.172585,
          39.608686
        ]
      },
      "properties": {
        "NO": 8407,
        "共通ID": "E0332200031111",
        "都道府県名及び市町村名": "岩手県矢巾町",
        "施設・場所名": "徳田小学校",
        "住所": "岩手県矢巾町大字西徳田6-53",
        "指定緊急避難場所との住所同一": "1",
        "その他市町村長が必要と認める事項": null,
        "受入対象者": null,
        "備考": ""
      }
    },
    {
      "type": "Feature",
      "geometry": {
        "type": "Point",
        "coordinates": [
          141.175975,
          39.609463
        ]
      },
      "properties": {
        "NO": 8408,
        "共通ID": "E0332200032111",
        "都道府県名及び市町村名": "岩手県矢巾町",
        "施設・場所名": "西徳田２区公民館",
        "住所": "岩手県矢巾町大字西徳田7-91-1",
        "指定緊急避難場所との住所同一": "",
        "その他市町村長が必要と認める事項": null,
        "受入対象者": null,
        "備考": ""
      }
    },
    {
      "type": "Feature",
      "geometry": {
        "type": "Point",
        "coordinates": [
          141.148651,
          39.631519
        ]
      },
      "properties": {
        "NO": 8409,
        "共通ID": "E0332200033111",
        "都道府県名及び市町村名": "岩手県矢巾町",
        "施設・場所名": "下赤林集落センター",
        "住所": "岩手県矢巾町大字赤林16-13-23",
        "指定緊急避難場所との住所同一": "",
        "その他市町村長が必要と認める事項": null,
        "受入対象者": null,
        "備考": ""
      }
    },
    {
      "type": "Feature",
      "geometry": {
        "type": "Point",
        "coordinates": [
          141.134022,
          39.642229
        ]
      },
      "properties": {
        "NO": 8410,
        "共通ID": "E0332200036111",
        "都道府県名及び市町村名": "岩手県矢巾町",
        "施設・場所名": "上赤林公民館",
        "住所": "岩手県矢巾町大字赤林5-120",
        "指定緊急避難場所との住所同一": "",
        "その他市町村長が必要と認める事項": null,
        "受入対象者": null,
        "備考": ""
      }
    },
    {
      "type": "Feature",
      "geometry": {
        "type": "Point",
        "coordinates": [
          141.133988,
          39.583045
        ]
      },
      "properties": {
        "NO": 8411,
        "共通ID": "E0332200037111",
        "都道府県名及び市町村名": "岩手県矢巾町",
        "施設・場所名": "太田農事交流センター",
        "住所": "岩手県矢巾町大字太田11-1-10",
        "指定緊急避難場所との住所同一": "1",
        "その他市町村長が必要と認める事項": null,
        "受入対象者": null,
        "備考": ""
      }
    },
    {
      "type": "Feature",
      "geometry": {
        "type": "Point",
        "coordinates": [
          141.140345,
          39.573943
        ]
      },
      "properties": {
        "NO": 8412,
        "共通ID": "E0332200038121",
        "都道府県名及び市町村名": "岩手県矢巾町",
        "施設・場所名": "矢巾町南デイサービスセンター",
        "住所": "岩手県矢巾町大字太田17-13-1",
        "指定緊急避難場所との住所同一": "",
        "その他市町村長が必要と認める事項": null,
        "受入対象者": "要配慮者",
        "備考": ""
      }
    },
    {
      "type": "Feature",
      "geometry": {
        "type": "Point",
        "coordinates": [
          141.140047,
          39.573715
        ]
      },
      "properties": {
        "NO": 8413,
        "共通ID": "E0332200038122",
        "都道府県名及び市町村名": "岩手県矢巾町",
        "施設・場所名": "小規模多機能型居宅介護むつき",
        "住所": "岩手県矢巾町大字太田17-13-1",
        "指定緊急避難場所との住所同一": "",
        "その他市町村長が必要と認める事項": null,
        "受入対象者": "要配慮者",
        "備考": ""
      }
    },
    {
      "type": "Feature",
      "geometry": {
        "type": "Point",
        "coordinates": [
          141.13883,
          39.573286
        ]
      },
      "properties": {
        "NO": 8414,
        "共通ID": "E0332200039121",
        "都道府県名及び市町村名": "岩手県矢巾町",
        "施設・場所名": "障害者支援施設第二新生園",
        "住所": "岩手県矢巾町大字太田17-54",
        "指定緊急避難場所との住所同一": "",
        "その他市町村長が必要と認める事項": null,
        "受入対象者": "要配慮者",
        "備考": ""
      }
    },
    {
      "type": "Feature",
      "geometry": {
        "type": "Point",
        "coordinates": [
          141.172089,
          39.583284
        ]
      },
      "properties": {
        "NO": 8415,
        "共通ID": "E0332200040121",
        "都道府県名及び市町村名": "岩手県矢巾町",
        "施設・場所名": "介護老人保健施設シェーンハイムやはば",
        "住所": "岩手県矢巾町大字土橋11-35-1",
        "指定緊急避難場所との住所同一": "",
        "その他市町村長が必要と認める事項": null,
        "受入対象者": "要配慮者",
        "備考": ""
      }
    },
    {
      "type": "Feature",
      "geometry": {
        "type": "Point",
        "coordinates": [
          141.178036,
          39.586314
        ]
      },
      "properties": {
        "NO": 8416,
        "共通ID": "E0332200042111",
        "都道府県名及び市町村名": "岩手県矢巾町",
        "施設・場所名": "矢巾地区農業構造改善センター",
        "住所": "岩手県矢巾町大字土橋8-104",
        "指定緊急避難場所との住所同一": "",
        "その他市町村長が必要と認める事項": null,
        "受入対象者": null,
        "備考": ""
      }
    },
    {
      "type": "Feature",
      "geometry": {
        "type": "Point",
        "coordinates": [
          141.183989,
          39.603879
        ]
      },
      "properties": {
        "NO": 8417,
        "共通ID": "E0332200043111",
        "都道府県名及び市町村名": "岩手県矢巾町",
        "施設・場所名": "東徳田公民館",
        "住所": "岩手県矢巾町大字東徳田11-216",
        "指定緊急避難場所との住所同一": "",
        "その他市町村長が必要と認める事項": null,
        "受入対象者": null,
        "備考": ""
      }
    },
    {
      "type": "Feature",
      "geometry": {
        "type": "Point",
        "coordinates": [
          141.162023,
          39.6091
        ]
      },
      "properties": {
        "NO": 8418,
        "共通ID": "E0332200044111",
        "都道府県名及び市町村名": "岩手県矢巾町",
        "施設・場所名": "三谷公民館",
        "住所": "岩手県矢巾町大字東徳田4-131",
        "指定緊急避難場所との住所同一": "1",
        "その他市町村長が必要と認める事項": null,
        "受入対象者": null,
        "備考": ""
      }
    },
    {
      "type": "Feature",
      "geometry": {
        "type": "Point",
        "coordinates": [
          141.162337,
          39.615434
        ]
      },
      "properties": {
        "NO": 8419,
        "共通ID": "E0332200045111",
        "都道府県名及び市町村名": "岩手県矢巾町",
        "施設・場所名": "学校法人岩手医科大学附属病院エネルギーセンター",
        "住所": "岩手県矢巾町大字藤沢1",
        "指定緊急避難場所との住所同一": "",
        "その他市町村長が必要と認める事項": null,
        "受入対象者": null,
        "備考": ""
      }
    },
    {
      "type": "Feature",
      "geometry": {
        "type": "Point",
        "coordinates": [
          141.163498,
          39.619725
        ]
      },
      "properties": {
        "NO": 8420,
        "共通ID": "E0332200046111",
        "都道府県名及び市町村名": "岩手県矢巾町",
        "施設・場所名": "矢巾東小学校",
        "住所": "岩手県矢巾町大字藤沢2-11",
        "指定緊急避難場所との住所同一": "1",
        "その他市町村長が必要と認める事項": null,
        "受入対象者": null,
        "備考": ""
      }
    },
    {
      "type": "Feature",
      "geometry": {
        "type": "Point",
        "coordinates": [
          141.169418,
          39.617001
        ]
      },
      "properties": {
        "NO": 8421,
        "共通ID": "E0332200047111",
        "都道府県名及び市町村名": "岩手県矢巾町",
        "施設・場所名": "藤澤自治会館",
        "住所": "岩手県矢巾町大字藤沢7-34-5",
        "指定緊急避難場所との住所同一": "",
        "その他市町村長が必要と認める事項": null,
        "受入対象者": null,
        "備考": ""
      }
    },
    {
      "type": "Feature",
      "geometry": {
        "type": "Point",
        "coordinates": [
          141.148219,
          39.6053
        ]
      },
      "properties": {
        "NO": 8422,
        "共通ID": "E0332200048111",
        "都道府県名及び市町村名": "岩手県矢巾町",
        "施設・場所名": "南矢幅５区公民館",
        "住所": "岩手県矢巾町大字南矢幅11-8-4",
        "指定緊急避難場所との住所同一": "",
        "その他市町村長が必要と認める事項": null,
        "受入対象者": null,
        "備考": ""
      }
    },
    {
      "type": "Feature",
      "geometry": {
        "type": "Point",
        "coordinates": [
          141.144028,
          39.606242
        ]
      },
      "properties": {
        "NO": 8423,
        "共通ID": "E0332200049111",
        "都道府県名及び市町村名": "岩手県矢巾町",
        "施設・場所名": "矢巾町民総合体育館",
        "住所": "岩手県矢巾町大字南矢幅13-118",
        "指定緊急避難場所との住所同一": "",
        "その他市町村長が必要と認める事項": null,
        "受入対象者": null,
        "備考": ""
      }
    },
    {
      "type": "Feature",
      "geometry": {
        "type": "Point",
        "coordinates": [
          141.141987,
          39.606036
        ]
      },
      "properties": {
        "NO": 8424,
        "共通ID": "E0332200050111",
        "都道府県名及び市町村名": "岩手県矢巾町",
        "施設・場所名": "矢巾町公民館",
        "住所": "岩手県矢巾町大字南矢幅13-123",
        "指定緊急避難場所との住所同一": "",
        "その他市町村長が必要と認める事項": null,
        "受入対象者": null,
        "備考": ""
      }
    },
    {
      "type": "Feature",
      "geometry": {
        "type": "Point",
        "coordinates": [
          141.144408,
          39.604845
        ]
      },
      "properties": {
        "NO": 8425,
        "共通ID": "E0332200051111",
        "都道府県名及び市町村名": "岩手県矢巾町",
        "施設・場所名": "南矢幅４区公民館",
        "住所": "岩手県矢巾町大字南矢幅14-15-196",
        "指定緊急避難場所との住所同一": "",
        "その他市町村長が必要と認める事項": null,
        "受入対象者": null,
        "備考": ""
      }
    },
    {
      "type": "Feature",
      "geometry": {
        "type": "Point",
        "coordinates": [
          141.140498,
          39.605387
        ]
      },
      "properties": {
        "NO": 8426,
        "共通ID": "E0332200052111",
        "都道府県名及び市町村名": "岩手県矢巾町",
        "施設・場所名": "矢巾町保健福祉交流センター",
        "住所": "岩手県矢巾町大字南矢幅14-78",
        "指定緊急避難場所との住所同一": "1",
        "その他市町村長が必要と認める事項": null,
        "受入対象者": null,
        "備考": ""
      }
    },
    {
      "type": "Feature",
      "geometry": {
        "type": "Point",
        "coordinates": [
          141.146333,
          39.608828
        ]
      },
      "properties": {
        "NO": 8427,
        "共通ID": "E0332200053111",
        "都道府県名及び市町村名": "岩手県矢巾町",
        "施設・場所名": "南矢幅公民館",
        "住所": "岩手県矢巾町大字南矢幅5-93-8",
        "指定緊急避難場所との住所同一": "",
        "その他市町村長が必要と認める事項": null,
        "受入対象者": null,
        "備考": ""
      }
    },
    {
      "type": "Feature",
      "geometry": {
        "type": "Point",
        "coordinates": [
          141.143106,
          39.601167
        ]
      },
      "properties": {
        "NO": 8428,
        "共通ID": "E0332200054111",
        "都道府県名及び市町村名": "岩手県矢巾町",
        "施設・場所名": "森が丘公民館",
        "住所": "岩手県矢巾町大字南矢幅6-175-5",
        "指定緊急避難場所との住所同一": "",
        "その他市町村長が必要と認める事項": null,
        "受入対象者": null,
        "備考": ""
      }
    },
    {
      "type": "Feature",
      "geometry": {
        "type": "Point",
        "coordinates": [
          141.146122,
          39.612262
        ]
      },
      "properties": {
        "NO": 8429,
        "共通ID": "E0332200056111",
        "都道府県名及び市町村名": "岩手県矢巾町",
        "施設・場所名": "新田自治公民館",
        "住所": "岩手県矢巾町大字南矢幅6-558",
        "指定緊急避難場所との住所同一": "",
        "その他市町村長が必要と認める事項": null,
        "受入対象者": null,
        "備考": ""
      }
    },
    {
      "type": "Feature",
      "geometry": {
        "type": "Point",
        "coordinates": [
          141.147202,
          39.611711
        ]
      },
      "properties": {
        "NO": 8430,
        "共通ID": "E0332200057121",
        "都道府県名及び市町村名": "岩手県矢巾町",
        "施設・場所名": "老人デイサービスセンター「百万石」矢幅駅西口",
        "住所": "岩手県矢巾町大字南矢幅6-606",
        "指定緊急避難場所との住所同一": "",
        "その他市町村長が必要と認める事項": null,
        "受入対象者": "要配慮者",
        "備考": ""
      }
    },
    {
      "type": "Feature",
      "geometry": {
        "type": "Point",
        "coordinates": [
          141.153576,
          39.607836
        ]
      },
      "properties": {
        "NO": 8431,
        "共通ID": "E0332200059111",
        "都道府県名及び市町村名": "岩手県矢巾町",
        "施設・場所名": "矢巾町防災コミュニティセンター",
        "住所": "岩手県矢巾町大字南矢幅8-96-1",
        "指定緊急避難場所との住所同一": "",
        "その他市町村長が必要と認める事項": null,
        "受入対象者": null,
        "備考": ""
      }
    },
    {
      "type": "Feature",
      "geometry": {
        "type": "Point",
        "coordinates": [
          141.154807,
          39.610622
        ]
      },
      "properties": {
        "NO": 8432,
        "共通ID": "E0332200061111",
        "都道府県名及び市町村名": "岩手県矢巾町",
        "施設・場所名": "矢巾３区公民館",
        "住所": "岩手県矢巾町大字南矢幅9-194-2",
        "指定緊急避難場所との住所同一": "",
        "その他市町村長が必要と認める事項": null,
        "受入対象者": null,
        "備考": ""
      }
    },
    {
      "type": "Feature",
      "geometry": {
        "type": "Point",
        "coordinates": [
          141.149788,
          39.60174
        ]
      },
      "properties": {
        "NO": 8433,
        "共通ID": "E0332200062111",
        "都道府県名及び市町村名": "岩手県矢巾町",
        "施設・場所名": "花矢巾公民館",
        "住所": "岩手県矢巾町大字白沢3-35-53",
        "指定緊急避難場所との住所同一": "",
        "その他市町村長が必要と認める事項": null,
        "受入対象者": null,
        "備考": ""
      }
    },
    {
      "type": "Feature",
      "geometry": {
        "type": "Point",
        "coordinates": [
          141.143721,
          39.598069
        ]
      },
      "properties": {
        "NO": 8434,
        "共通ID": "E0332200063111",
        "都道府県名及び市町村名": "岩手県矢巾町",
        "施設・場所名": "矢巾中学校",
        "住所": "岩手県矢巾町大字白沢5-220",
        "指定緊急避難場所との住所同一": "1",
        "その他市町村長が必要と認める事項": null,
        "受入対象者": null,
        "備考": ""
      }
    },
    {
      "type": "Feature",
      "geometry": {
        "type": "Point",
        "coordinates": [
          141.142847,
          39.595712
        ]
      },
      "properties": {
        "NO": 8435,
        "共通ID": "E0332200065111",
        "都道府県名及び市町村名": "岩手県矢巾町",
        "施設・場所名": "白沢集落センター",
        "住所": "岩手県矢巾町大字白沢7-201-1",
        "指定緊急避難場所との住所同一": "",
        "その他市町村長が必要と認める事項": null,
        "受入対象者": null,
        "備考": ""
      }
    },
    {
      "type": "Feature",
      "geometry": {
        "type": "Point",
        "coordinates": [
          141.156981,
          39.588458
        ]
      },
      "properties": {
        "NO": 8436,
        "共通ID": "E0332200066111",
        "都道府県名及び市町村名": "岩手県矢巾町",
        "施設・場所名": "北郡山公民館",
        "住所": "岩手県矢巾町大字北郡山6-173-2",
        "指定緊急避難場所との住所同一": "",
        "その他市町村長が必要と認める事項": null,
        "受入対象者": null,
        "備考": ""
      }
    },
    {
      "type": "Feature",
      "geometry": {
        "type": "Point",
        "coordinates": [
          141.124693,
          39.603031
        ]
      },
      "properties": {
        "NO": 8437,
        "共通ID": "E0332200067111",
        "都道府県名及び市町村名": "岩手県矢巾町",
        "施設・場所名": "桜屋公民館",
        "住所": "岩手県矢巾町大字北伝法寺15-51-5",
        "指定緊急避難場所との住所同一": "",
        "その他市町村長が必要と認める事項": null,
        "受入対象者": null,
        "備考": ""
      }
    },
    {
      "type": "Feature",
      "geometry": {
        "type": "Point",
        "coordinates": [
          141.111412,
          39.599539
        ]
      },
      "properties": {
        "NO": 8438,
        "共通ID": "E0332200068111",
        "都道府県名及び市町村名": "岩手県矢巾町",
        "施設・場所名": "舘前公民館",
        "住所": "岩手県矢巾町大字北伝法寺7-85-1",
        "指定緊急避難場所との住所同一": "",
        "その他市町村長が必要と認める事項": null,
        "受入対象者": null,
        "備考": ""
      }
    },
    {
      "type": "Feature",
      "geometry": {
        "type": "Point",
        "coordinates": [
          141.139858,
          39.62164
        ]
      },
      "properties": {
        "NO": 8439,
        "共通ID": "E0332200069111",
        "都道府県名及び市町村名": "岩手県矢巾町",
        "施設・場所名": "煙山小学校",
        "住所": "岩手県矢巾町大字北矢幅1-2",
        "指定緊急避難場所との住所同一": "1",
        "その他市町村長が必要と認める事項": null,
        "受入対象者": null,
        "備考": ""
      }
    },
    {
      "type": "Feature",
      "geometry": {
        "type": "Point",
        "coordinates": [
          141.153379,
          39.620587
        ]
      },
      "properties": {
        "NO": 8440,
        "共通ID": "E0332200070111",
        "都道府県名及び市町村名": "岩手県矢巾町",
        "施設・場所名": "下北公民館",
        "住所": "岩手県矢巾町大字北矢幅4-53-1",
        "指定緊急避難場所との住所同一": "",
        "その他市町村長が必要と認める事項": null,
        "受入対象者": null,
        "備考": ""
      }
    },
    {
      "type": "Feature",
      "geometry": {
        "type": "Point",
        "coordinates": [
          141.139235,
          39.619659
        ]
      },
      "properties": {
        "NO": 8441,
        "共通ID": "E0332200073111",
        "都道府県名及び市町村名": "岩手県矢巾町",
        "施設・場所名": "矢次公民館",
        "住所": "岩手県矢巾町大字又兵エ新田3-122-12",
        "指定緊急避難場所との住所同一": "",
        "その他市町村長が必要と認める事項": null,
        "受入対象者": null,
        "備考": ""
      }
    },
    {
      "type": "Feature",
      "geometry": {
        "type": "Point",
        "coordinates": [
          141.147072,
          39.613452
        ]
      },
      "properties": {
        "NO": 8442,
        "共通ID": "E0332200074121",
        "都道府県名及び市町村名": "岩手県矢巾町",
        "施設・場所名": "ケアセンター南昌",
        "住所": "岩手県矢巾町大字又兵エ新田5-335",
        "指定緊急避難場所との住所同一": "",
        "その他市町村長が必要と認める事項": null,
        "受入対象者": "要配慮者",
        "備考": ""
      }
    },
    {
      "type": "Feature",
      "geometry": {
        "type": "Point",
        "coordinates": [
          141.146191,
          39.614025
        ]
      },
      "properties": {
        "NO": 8443,
        "共通ID": "E0332200075121",
        "都道府県名及び市町村名": "岩手県矢巾町",
        "施設・場所名": "共生型福祉施設地域交流パレスいちご館",
        "住所": "岩手県矢巾町大字又兵エ新田5-339",
        "指定緊急避難場所との住所同一": "",
        "その他市町村長が必要と認める事項": null,
        "受入対象者": "要配慮者",
        "備考": ""
      }
    },
    {
      "type": "Feature",
      "geometry": {
        "type": "Point",
        "coordinates": [
          141.149936,
          39.613157
        ]
      },
      "properties": {
        "NO": 8444,
        "共通ID": "E0332200076111",
        "都道府県名及び市町村名": "岩手県矢巾町",
        "施設・場所名": "矢巾町活動交流センター「やはぱーく」",
        "住所": "岩手県矢巾町大字又兵エ新田6-15-5",
        "指定緊急避難場所との住所同一": "",
        "その他市町村長が必要と認める事項": null,
        "受入対象者": null,
        "備考": ""
      }
    },
    {
      "type": "Feature",
      "geometry": {
        "type": "Point",
        "coordinates": [
          141.15042,
          39.61397
        ]
      },
      "properties": {
        "NO": 8445,
        "共通ID": "E0332200077111",
        "都道府県名及び市町村名": "岩手県矢巾町",
        "施設・場所名": "矢巾１区公民館",
        "住所": "岩手県矢巾町大字又兵エ新田6-31-34",
        "指定緊急避難場所との住所同一": "",
        "その他市町村長が必要と認める事項": null,
        "受入対象者": null,
        "備考": ""
      }
    },
    {
      "type": "Feature",
      "geometry": {
        "type": "Point",
        "coordinates": [
          141.157741,
          39.613845
        ]
      },
      "properties": {
        "NO": 8446,
        "共通ID": "E0332200078111",
        "都道府県名及び市町村名": "岩手県矢巾町",
        "施設・場所名": "矢巾２区公民館",
        "住所": "岩手県矢巾町大字又兵エ新田7-143-3",
        "指定緊急避難場所との住所同一": "",
        "その他市町村長が必要と認める事項": null,
        "受入対象者": null,
        "備考": ""
      }
    },
    {
      "type": "Feature",
      "geometry": {
        "type": "Point",
        "coordinates": [
          141.157428,
          39.613528
        ]
      },
      "properties": {
        "NO": 8447,
        "共通ID": "E0332200079121",
        "都道府県名及び市町村名": "岩手県矢巾町",
        "施設・場所名": "ケアビレッジとくたんの郷",
        "住所": "岩手県矢巾町大字又兵エ新田7-212-1",
        "指定緊急避難場所との住所同一": "",
        "その他市町村長が必要と認める事項": null,
        "受入対象者": "要配慮者",
        "備考": ""
      }
    },
    {
      "type": "Feature",
      "geometry": {
        "type": "Point",
        "coordinates": [
          141.11191,
          39.638479
        ]
      },
      "properties": {
        "NO": 8448,
        "共通ID": "E0332200081111",
        "都道府県名及び市町村名": "岩手県矢巾町",
        "施設・場所名": "矢巾勤労者共同福祉センター",
        "住所": "岩手県矢巾町大字流通センター南1-2-7",
        "指定緊急避難場所との住所同一": "",
        "その他市町村長が必要と認める事項": null,
        "受入対象者": null,
        "備考": ""
      }
    },
    {
      "type": "Feature",
      "geometry": {
        "type": "Point",
        "coordinates": [
          141.107428,
          39.637093
        ]
      },
      "properties": {
        "NO": 8449,
        "共通ID": "E0332200083111",
        "都道府県名及び市町村名": "岩手県矢巾町",
        "施設・場所名": "流通センター公民館",
        "住所": "岩手県矢巾町大字流通センター南4-23",
        "指定緊急避難場所との住所同一": "",
        "その他市町村長が必要と認める事項": null,
        "受入対象者": null,
        "備考": ""
      }
    },
    {
      "type": "Feature",
      "geometry": {
        "type": "Point",
        "coordinates": [
          141.103082,
          39.603263
        ]
      },
      "properties": {
        "NO": 8450,
        "共通ID": "E0332200085111",
        "都道府県名及び市町村名": "岩手県矢巾町",
        "施設・場所名": "和味公民館",
        "住所": "岩手県矢巾町大字和味10-40-4",
        "指定緊急避難場所との住所同一": "",
        "その他市町村長が必要と認める事項": null,
        "受入対象者": null,
        "備考": ""
      }
    },
    {
      "type": "Feature",
      "geometry": {
        "type": "Point",
        "coordinates": [
          141.090548,
          39.598717
        ]
      },
      "properties": {
        "NO": 8451,
        "共通ID": "E0332200087121",
        "都道府県名及び市町村名": "岩手県矢巾町",
        "施設・場所名": "デイサービスセンター「百万石」",
        "住所": "岩手県矢巾町大字和味2-106-5",
        "指定緊急避難場所との住所同一": "",
        "その他市町村長が必要と認める事項": null,
        "受入対象者": "要配慮者",
        "備考": ""
      }
    },
    {
      "type": "Feature",
      "geometry": {
        "type": "Point",
        "coordinates": [
          141.119129,
          39.638507
        ]
      },
      "properties": {
        "NO": 8452,
        "共通ID": "E0332200088111",
        "都道府県名及び市町村名": "岩手県矢巾町",
        "施設・場所名": "岩手トラックターミナル荷扱いホーム第１棟東館２階第１会議室",
        "住所": "岩手県矢巾町流通センター南2-4-35",
        "指定緊急避難場所との住所同一": "",
        "その他市町村長が必要と認める事項": null,
        "受入対象者": null,
        "備考": ""
      }
    }
  ]
}