{
  "type": "FeatureCollection",
  "name": "034410",
  "features": [
    {
      "type": "Feature",
      "geometry": {
        "type": "Point",
        "coordinates": [
          141.557946,
          39.187271
        ]
      },
      "properties": {
        "NO": 8499,
        "共通ID": "E0344100053111",
        "都道府県名及び市町村名": "岩手県住田町",
        "施設・場所名": "下有住地区公民館",
        "住所": "岩手県住田町下有住字中上100-5",
        "指定緊急避難場所との住所同一": "",
        "その他市町村長が必要と認める事項": "",
        "受入対象者": "",
        "備考": ""
      }
    },
    {
      "type": "Feature",
      "geometry": {
        "type": "Point",
        "coordinates": [
          141.556639,
          39.187357
        ]
      },
      "properties": {
        "NO": 8500,
        "共通ID": "E0344100004111",
        "都道府県名及び市町村名": "岩手県住田町",
        "施設・場所名": "生涯スポーツセンター",
        "住所": "岩手県住田町下有住字中上291",
        "指定緊急避難場所との住所同一": "1",
        "その他市町村長が必要と認める事項": null,
        "受入対象者": null,
        "備考": ""
      }
    },
    {
      "type": "Feature",
      "geometry": {
        "type": "Point",
        "coordinates": [
          141.590344,
          39.199387
        ]
      },
      "properties": {
        "NO": 8501,
        "共通ID": "E0344100005111",
        "都道府県名及び市町村名": "岩手県住田町",
        "施設・場所名": "有住保育園",
        "住所": "岩手県住田町上有住字山脈地107-1",
        "指定緊急避難場所との住所同一": "1",
        "その他市町村長が必要と認める事項": null,
        "受入対象者": null,
        "備考": ""
      }
    },
    {
      "type": "Feature",
      "geometry": {
        "type": "Point",
        "coordinates": [
          141.588104,
          39.197332
        ]
      },
      "properties": {
        "NO": 8502,
        "共通ID": "E0344100056111",
        "都道府県名及び市町村名": "岩手県住田町",
        "施設・場所名": "上有住地区公民館",
        "住所": "岩手県住田町上有住字山脈地15-1",
        "指定緊急避難場所との住所同一": "1",
        "その他市町村長が必要と認める事項": "",
        "受入対象者": "",
        "備考": ""
      }
    },
    {
      "type": "Feature",
      "geometry": {
        "type": "Point",
        "coordinates": [
          141.588104,
          39.197332
        ]
      },
      "properties": {
        "NO": 8503,
        "共通ID": "E0344100056112",
        "都道府県名及び市町村名": "岩手県住田町",
        "施設・場所名": "上有住地区公民館",
        "住所": "岩手県住田町上有住字山脈地15-1",
        "指定緊急避難場所との住所同一": "1",
        "その他市町村長が必要と認める事項": "",
        "受入対象者": "",
        "備考": ""
      }
    },
    {
      "type": "Feature",
      "geometry": {
        "type": "Point",
        "coordinates": [
          141.588851,
          39.197706
        ]
      },
      "properties": {
        "NO": 8504,
        "共通ID": "E0344100055111",
        "都道府県名及び市町村名": "岩手県住田町",
        "施設・場所名": "有住小学校体育館",
        "住所": "岩手県住田町上有住字山脈地5-2",
        "指定緊急避難場所との住所同一": "",
        "その他市町村長が必要と認める事項": "",
        "受入対象者": "",
        "備考": ""
      }
    },
    {
      "type": "Feature",
      "geometry": {
        "type": "Point",
        "coordinates": [
          141.649702,
          39.201977
        ]
      },
      "properties": {
        "NO": 8505,
        "共通ID": "E0344100009111",
        "都道府県名及び市町村名": "岩手県住田町",
        "施設・場所名": "五葉地区公民館",
        "住所": "岩手県住田町上有住字中埣63",
        "指定緊急避難場所との住所同一": "1",
        "その他市町村長が必要と認める事項": null,
        "受入対象者": null,
        "備考": ""
      }
    },
    {
      "type": "Feature",
      "geometry": {
        "type": "Point",
        "coordinates": [
          141.587179,
          39.19616
        ]
      },
      "properties": {
        "NO": 8506,
        "共通ID": "E0344100054111",
        "都道府県名及び市町村名": "岩手県住田町",
        "施設・場所名": "旧有住中学校体育館",
        "住所": "岩手県住田町上有住字櫃割12-1",
        "指定緊急避難場所との住所同一": "",
        "その他市町村長が必要と認める事項": "",
        "受入対象者": "",
        "備考": ""
      }
    },
    {
      "type": "Feature",
      "geometry": {
        "type": "Point",
        "coordinates": [
          141.492021,
          39.146107
        ]
      },
      "properties": {
        "NO": 8507,
        "共通ID": "E0344100017111",
        "都道府県名及び市町村名": "岩手県住田町",
        "施設・場所名": "大股地区公民館",
        "住所": "岩手県住田町世田米字下大股66-1",
        "指定緊急避難場所との住所同一": "1",
        "その他市町村長が必要と認める事項": null,
        "受入対象者": null,
        "備考": ""
      }
    },
    {
      "type": "Feature",
      "geometry": {
        "type": "Point",
        "coordinates": [
          141.57786,
          39.136872
        ]
      },
      "properties": {
        "NO": 8508,
        "共通ID": "E0344100018112",
        "都道府県名及び市町村名": "岩手県住田町",
        "施設・場所名": "世田米保育園",
        "住所": "岩手県住田町世田米字火石33-1",
        "指定緊急避難場所との住所同一": "1",
        "その他市町村長が必要と認める事項": "",
        "受入対象者": "",
        "備考": ""
      }
    },
    {
      "type": "Feature",
      "geometry": {
        "type": "Point",
        "coordinates": [
          141.538171,
          39.151148
        ]
      },
      "properties": {
        "NO": 8509,
        "共通ID": "E0344100029111",
        "都道府県名及び市町村名": "岩手県住田町",
        "施設・場所名": "住田高等学校",
        "住所": "岩手県住田町世田米字川口12-1",
        "指定緊急避難場所との住所同一": "1",
        "その他市町村長が必要と認める事項": null,
        "受入対象者": null,
        "備考": ""
      }
    },
    {
      "type": "Feature",
      "geometry": {
        "type": "Point",
        "coordinates": [
          141.574861,
          39.145297
        ]
      },
      "properties": {
        "NO": 8510,
        "共通ID": "E0344100051111",
        "都道府県名及び市町村名": "岩手県住田町",
        "施設・場所名": "世田米小学校体育館",
        "住所": "岩手県住田町世田米字川向55-1",
        "指定緊急避難場所との住所同一": "",
        "その他市町村長が必要と認める事項": "",
        "受入対象者": "",
        "備考": ""
      }
    },
    {
      "type": "Feature",
      "geometry": {
        "type": "Point",
        "coordinates": [
          141.574702,
          39.144422
        ]
      },
      "properties": {
        "NO": 8511,
        "共通ID": "E0344100030111",
        "都道府県名及び市町村名": "岩手県住田町",
        "施設・場所名": "社会体育館",
        "住所": "岩手県住田町世田米字川向69-1",
        "指定緊急避難場所との住所同一": "1",
        "その他市町村長が必要と認める事項": null,
        "受入対象者": null,
        "備考": ""
      }
    },
    {
      "type": "Feature",
      "geometry": {
        "type": "Point",
        "coordinates": [
          141.575079,
          39.142243
        ]
      },
      "properties": {
        "NO": 8512,
        "共通ID": "E0344100050111",
        "都道府県名及び市町村名": "岩手県住田町",
        "施設・場所名": "住田町役場",
        "住所": "岩手県住田町世田米字川向88-1",
        "指定緊急避難場所との住所同一": "",
        "その他市町村長が必要と認める事項": "",
        "受入対象者": "",
        "備考": ""
      }
    },
    {
      "type": "Feature",
      "geometry": {
        "type": "Point",
        "coordinates": [
          141.575216,
          39.141482
        ]
      },
      "properties": {
        "NO": 8513,
        "共通ID": "E0344100031111",
        "都道府県名及び市町村名": "岩手県住田町",
        "施設・場所名": "農林会館",
        "住所": "岩手県住田町世田米字川向96-5",
        "指定緊急避難場所との住所同一": "1",
        "その他市町村長が必要と認める事項": null,
        "受入対象者": null,
        "備考": ""
      }
    },
    {
      "type": "Feature",
      "geometry": {
        "type": "Point",
        "coordinates": [
          141.575579,
          39.141162
        ]
      },
      "properties": {
        "NO": 8514,
        "共通ID": "E0344100031112",
        "都道府県名及び市町村名": "岩手県住田町",
        "施設・場所名": "保健福祉センター",
        "住所": "岩手県住田町世田米字川向96-5",
        "指定緊急避難場所との住所同一": "1",
        "その他市町村長が必要と認める事項": "",
        "受入対象者": "",
        "備考": ""
      }
    },
    {
      "type": "Feature",
      "geometry": {
        "type": "Point",
        "coordinates": [
          141.582375,
          39.139772
        ]
      },
      "properties": {
        "NO": 8515,
        "共通ID": "E0344100052111",
        "都道府県名及び市町村名": "岩手県住田町",
        "施設・場所名": "住田中学校体育館",
        "住所": "岩手県住田町世田米字大崎72-1",
        "指定緊急避難場所との住所同一": "",
        "その他市町村長が必要と認める事項": "",
        "受入対象者": "",
        "備考": ""
      }
    }
  ]
}