{
  "type": "FeatureCollection",
  "name": "035246",
  "features": [
    {
      "type": "Feature",
      "geometry": {
        "type": "Point",
        "coordinates": [
          141.301039,
          40.205185
        ]
      },
      "properties": {
        "NO": 8796,
        "共通ID": "E0352400003111",
        "都道府県名及び市町村名": "岩手県一戸町",
        "施設・場所名": "一戸町立一戸中学校",
        "住所": "岩手県一戸町一戸字砂森12",
        "指定緊急避難場所との住所同一": "1",
        "その他市町村長が必要と認める事項": "",
        "受入対象者": "",
        "備考": ""
      }
    },
    {
      "type": "Feature",
      "geometry": {
        "type": "Point",
        "coordinates": [
          141.301071,
          40.211183
        ]
      },
      "properties": {
        "NO": 8797,
        "共通ID": "E0352400004111",
        "都道府県名及び市町村名": "岩手県一戸町",
        "施設・場所名": "一戸町立一戸小学校",
        "住所": "岩手県一戸町一戸字砂森149-13",
        "指定緊急避難場所との住所同一": "1",
        "その他市町村長が必要と認める事項": "",
        "受入対象者": "",
        "備考": ""
      }
    },
    {
      "type": "Feature",
      "geometry": {
        "type": "Point",
        "coordinates": [
          141.306417,
          40.208268
        ]
      },
      "properties": {
        "NO": 8798,
        "共通ID": "E0352400005111",
        "都道府県名及び市町村名": "岩手県一戸町",
        "施設・場所名": "一戸町総合保健福祉センター",
        "住所": "岩手県一戸町一戸字砂森93-2",
        "指定緊急避難場所との住所同一": "1",
        "その他市町村長が必要と認める事項": null,
        "受入対象者": null,
        "備考": ""
      }
    },
    {
      "type": "Feature",
      "geometry": {
        "type": "Point",
        "coordinates": [
          141.306496,
          40.208876
        ]
      },
      "properties": {
        "NO": 8799,
        "共通ID": "E0352400005121",
        "都道府県名及び市町村名": "岩手県一戸町",
        "施設・場所名": "結愛舎",
        "住所": "岩手県一戸町一戸字砂森93-2",
        "指定緊急避難場所との住所同一": "1",
        "その他市町村長が必要と認める事項": null,
        "受入対象者": "高齢者",
        "備考": ""
      }
    },
    {
      "type": "Feature",
      "geometry": {
        "type": "Point",
        "coordinates": [
          141.191418,
          40.083415
        ]
      },
      "properties": {
        "NO": 8800,
        "共通ID": "E0352400009111",
        "都道府県名及び市町村名": "岩手県一戸町",
        "施設・場所名": "奥中山高原センターハウス・管理センター",
        "住所": "岩手県一戸町奥中山字西田子662-1",
        "指定緊急避難場所との住所同一": "1",
        "その他市町村長が必要と認める事項": "",
        "受入対象者": "",
        "備考": ""
      }
    },
    {
      "type": "Feature",
      "geometry": {
        "type": "Point",
        "coordinates": [
          141.225771,
          40.06555
        ]
      },
      "properties": {
        "NO": 8801,
        "共通ID": "E0352400010111",
        "都道府県名及び市町村名": "岩手県一戸町",
        "施設・場所名": "一戸町立奥中山小学校",
        "住所": "岩手県一戸町奥中山字西田子75-4",
        "指定緊急避難場所との住所同一": "1",
        "その他市町村長が必要と認める事項": "",
        "受入対象者": "",
        "備考": ""
      }
    },
    {
      "type": "Feature",
      "geometry": {
        "type": "Point",
        "coordinates": [
          141.295593,
          40.212169
        ]
      },
      "properties": {
        "NO": 8802,
        "共通ID": "E0352400013111",
        "都道府県名及び市町村名": "岩手県一戸町",
        "施設・場所名": "一戸地区センター",
        "住所": "岩手県一戸町高善寺字大川鉢24-9",
        "指定緊急避難場所との住所同一": "1",
        "その他市町村長が必要と認める事項": "",
        "受入対象者": "",
        "備考": ""
      }
    },
    {
      "type": "Feature",
      "geometry": {
        "type": "Point",
        "coordinates": [
          141.336425,
          40.165624
        ]
      },
      "properties": {
        "NO": 8803,
        "共通ID": "E0352400015121",
        "都道府県名及び市町村名": "岩手県一戸町",
        "施設・場所名": "慶寿園あねたいホール",
        "住所": "岩手県一戸町姉帯字下村24-1",
        "指定緊急避難場所との住所同一": "1",
        "その他市町村長が必要と認める事項": null,
        "受入対象者": "高齢者",
        "備考": ""
      }
    },
    {
      "type": "Feature",
      "geometry": {
        "type": "Point",
        "coordinates": [
          141.30401,
          40.165961
        ]
      },
      "properties": {
        "NO": 8804,
        "共通ID": "E0352400020111",
        "都道府県名及び市町村名": "岩手県一戸町",
        "施設・場所名": "一戸町立小鳥谷小学校",
        "住所": "岩手県一戸町小鳥谷字仁昌寺43-2",
        "指定緊急避難場所との住所同一": "1",
        "その他市町村長が必要と認める事項": "",
        "受入対象者": "",
        "備考": ""
      }
    },
    {
      "type": "Feature",
      "geometry": {
        "type": "Point",
        "coordinates": [
          141.3052,
          40.16843
        ]
      },
      "properties": {
        "NO": 8805,
        "共通ID": "E0352400021111",
        "都道府県名及び市町村名": "岩手県一戸町",
        "施設・場所名": "小鳥谷地区センター",
        "住所": "岩手県一戸町小鳥谷字中屋敷上12-4",
        "指定緊急避難場所との住所同一": "1",
        "その他市町村長が必要と認める事項": "",
        "受入対象者": "",
        "備考": ""
      }
    },
    {
      "type": "Feature",
      "geometry": {
        "type": "Point",
        "coordinates": [
          141.305139,
          40.181135
        ]
      },
      "properties": {
        "NO": 8806,
        "共通ID": "E0352400022121",
        "都道府県名及び市町村名": "岩手県一戸町",
        "施設・場所名": "こずやサンブルク",
        "住所": "岩手県一戸町小鳥谷字野中21",
        "指定緊急避難場所との住所同一": "",
        "その他市町村長が必要と認める事項": null,
        "受入対象者": "高齢者",
        "備考": ""
      }
    },
    {
      "type": "Feature",
      "geometry": {
        "type": "Point",
        "coordinates": [
          141.307123,
          40.175297
        ]
      },
      "properties": {
        "NO": 8807,
        "共通ID": "E0352400023111",
        "都道府県名及び市町村名": "岩手県一戸町",
        "施設・場所名": "旧一戸町立小鳥谷中学校",
        "住所": "岩手県一戸町小鳥谷字野里5-3",
        "指定緊急避難場所との住所同一": "1",
        "その他市町村長が必要と認める事項": "",
        "受入対象者": "",
        "備考": ""
      }
    },
    {
      "type": "Feature",
      "geometry": {
        "type": "Point",
        "coordinates": [
          141.299439,
          40.201556
        ]
      },
      "properties": {
        "NO": 8808,
        "共通ID": "E0352400037111",
        "都道府県名及び市町村名": "岩手県一戸町",
        "施設・場所名": "一戸町立一戸南小学校",
        "住所": "岩手県一戸町西法寺字関屋62-1",
        "指定緊急避難場所との住所同一": "1",
        "その他市町村長が必要と認める事項": "馬淵川洪水時には開設しません",
        "受入対象者": "",
        "備考": ""
      }
    },
    {
      "type": "Feature",
      "geometry": {
        "type": "Point",
        "coordinates": [
          141.234677,
          40.065993
        ]
      },
      "properties": {
        "NO": 8809,
        "共通ID": "E0352400038111",
        "都道府県名及び市町村名": "岩手県一戸町",
        "施設・場所名": "一戸町立奥中山中学校",
        "住所": "岩手県一戸町中山字軽井沢76-2",
        "指定緊急避難場所との住所同一": "1",
        "その他市町村長が必要と認める事項": "",
        "受入対象者": "",
        "備考": ""
      }
    },
    {
      "type": "Feature",
      "geometry": {
        "type": "Point",
        "coordinates": [
          141.231337,
          40.065607
        ]
      },
      "properties": {
        "NO": 8810,
        "共通ID": "E0352400029111",
        "都道府県名及び市町村名": "岩手県一戸町",
        "施設・場所名": "奥中山地区センター",
        "住所": "岩手県一戸町中山字大塚82-2",
        "指定緊急避難場所との住所同一": "1",
        "その他市町村長が必要と認める事項": "",
        "受入対象者": "",
        "備考": ""
      }
    },
    {
      "type": "Feature",
      "geometry": {
        "type": "Point",
        "coordinates": [
          141.262942,
          40.195795
        ]
      },
      "properties": {
        "NO": 8811,
        "共通ID": "E0352400030111",
        "都道府県名及び市町村名": "岩手県一戸町",
        "施設・場所名": "一戸町立鳥海小学校",
        "住所": "岩手県一戸町中里字中前田15",
        "指定緊急避難場所との住所同一": "1",
        "その他市町村長が必要と認める事項": "",
        "受入対象者": "",
        "備考": ""
      }
    },
    {
      "type": "Feature",
      "geometry": {
        "type": "Point",
        "coordinates": [
          141.280526,
          40.239018
        ]
      },
      "properties": {
        "NO": 8812,
        "共通ID": "E0352400031111",
        "都道府県名及び市町村名": "岩手県一戸町",
        "施設・場所名": "旧一戸町立鳥越小学校",
        "住所": "岩手県一戸町鳥越字中野平14-1",
        "指定緊急避難場所との住所同一": "1",
        "その他市町村長が必要と認める事項": "",
        "受入対象者": "",
        "備考": ""
      }
    },
    {
      "type": "Feature",
      "geometry": {
        "type": "Point",
        "coordinates": [
          141.352213,
          40.217083
        ]
      },
      "properties": {
        "NO": 8813,
        "共通ID": "E0352400033111",
        "都道府県名及び市町村名": "岩手県一戸町",
        "施設・場所名": "来田保養センター",
        "住所": "岩手県一戸町楢山字茶屋場1",
        "指定緊急避難場所との住所同一": "1",
        "その他市町村長が必要と認める事項": "",
        "受入対象者": "",
        "備考": ""
      }
    }
  ]
}