{
  "type": "FeatureCollection",
  "name": "042153",
  "features": [
    {
      "type": "Feature",
      "geometry": {
        "type": "Point",
        "coordinates": [
          140.862441,
          38.682288
        ]
      },
      "properties": {
        "NO": 9821,
        "共通ID": "E0421500001111",
        "都道府県名及び市町村名": "宮城県大崎市",
        "施設・場所名": "上野目地区公民館",
        "住所": "宮城県大崎市岩出山下一栗字蛇王田73",
        "指定緊急避難場所との住所同一": "1",
        "その他市町村長が必要と認める事項": "",
        "受入対象者": "",
        "備考": ""
      }
    },
    {
      "type": "Feature",
      "geometry": {
        "type": "Point",
        "coordinates": [
          140.865574,
          38.683506
        ]
      },
      "properties": {
        "NO": 9822,
        "共通ID": "E0421500002111",
        "都道府県名及び市町村名": "宮城県大崎市",
        "施設・場所名": "旧上野目小学校",
        "住所": "宮城県大崎市岩出山下一栗字片岸浦9",
        "指定緊急避難場所との住所同一": "1",
        "その他市町村長が必要と認める事項": "",
        "受入対象者": "",
        "備考": ""
      }
    },
    {
      "type": "Feature",
      "geometry": {
        "type": "Point",
        "coordinates": [
          140.886263,
          38.62312
        ]
      },
      "properties": {
        "NO": 9823,
        "共通ID": "E0421500005111",
        "都道府県名及び市町村名": "宮城県大崎市",
        "施設・場所名": "西大崎地区公民館",
        "住所": "宮城県大崎市岩出山下野目字泉山198-13",
        "指定緊急避難場所との住所同一": "1",
        "その他市町村長が必要と認める事項": "",
        "受入対象者": "",
        "備考": ""
      }
    },
    {
      "type": "Feature",
      "geometry": {
        "type": "Point",
        "coordinates": [
          140.885118,
          38.623405
        ]
      },
      "properties": {
        "NO": 9824,
        "共通ID": "E0421500006111",
        "都道府県名及び市町村名": "宮城県大崎市",
        "施設・場所名": "旧西大崎小学校",
        "住所": "宮城県大崎市岩出山下野目字泉山205",
        "指定緊急避難場所との住所同一": "1",
        "その他市町村長が必要と認める事項": "",
        "受入対象者": "",
        "備考": ""
      }
    },
    {
      "type": "Feature",
      "geometry": {
        "type": "Point",
        "coordinates": [
          140.871082,
          38.65598
        ]
      },
      "properties": {
        "NO": 9825,
        "共通ID": "E0421500007121",
        "都道府県名及び市町村名": "宮城県大崎市",
        "施設・場所名": "岩出山地域福祉センター",
        "住所": "宮城県大崎市岩出山字下川原町100-8",
        "指定緊急避難場所との住所同一": "1",
        "その他市町村長が必要と認める事項": null,
        "受入対象者": "要配慮者",
        "備考": ""
      }
    },
    {
      "type": "Feature",
      "geometry": {
        "type": "Point",
        "coordinates": [
          140.858237,
          38.659358
        ]
      },
      "properties": {
        "NO": 9826,
        "共通ID": "E0421500008111",
        "都道府県名及び市町村名": "宮城県大崎市",
        "施設・場所名": "岩出山中学校",
        "住所": "宮城県大崎市岩出山字松沢202-1",
        "指定緊急避難場所との住所同一": "1",
        "その他市町村長が必要と認める事項": "",
        "受入対象者": "",
        "備考": ""
      }
    },
    {
      "type": "Feature",
      "geometry": {
        "type": "Point",
        "coordinates": [
          140.929998,
          38.697268
        ]
      },
      "properties": {
        "NO": 9827,
        "共通ID": "E0421500009111",
        "都道府県名及び市町村名": "宮城県大崎市",
        "施設・場所名": "真山地区公民館",
        "住所": "宮城県大崎市岩出山字上真山下外道13-2",
        "指定緊急避難場所との住所同一": "1",
        "その他市町村長が必要と認める事項": "",
        "受入対象者": "",
        "備考": ""
      }
    },
    {
      "type": "Feature",
      "geometry": {
        "type": "Point",
        "coordinates": [
          140.932397,
          38.693405
        ]
      },
      "properties": {
        "NO": 9828,
        "共通ID": "E0421500010111",
        "都道府県名及び市町村名": "宮城県大崎市",
        "施設・場所名": "旧真山小学校",
        "住所": "宮城県大崎市岩出山字上真山日向要害2",
        "指定緊急避難場所との住所同一": "1",
        "その他市町村長が必要と認める事項": "",
        "受入対象者": "",
        "備考": ""
      }
    },
    {
      "type": "Feature",
      "geometry": {
        "type": "Point",
        "coordinates": [
          140.862661,
          38.653329
        ]
      },
      "properties": {
        "NO": 9829,
        "共通ID": "E0421500013111",
        "都道府県名及び市町村名": "宮城県大崎市",
        "施設・場所名": "岩出山小学校",
        "住所": "宮城県大崎市岩出山字城山31",
        "指定緊急避難場所との住所同一": "1",
        "その他市町村長が必要と認める事項": "",
        "受入対象者": "",
        "備考": ""
      }
    },
    {
      "type": "Feature",
      "geometry": {
        "type": "Point",
        "coordinates": [
          140.87546,
          38.652289
        ]
      },
      "properties": {
        "NO": 9830,
        "共通ID": "E0421500015111",
        "都道府県名及び市町村名": "宮城県大崎市",
        "施設・場所名": "岩出山文化会館（スコーレハウス）",
        "住所": "宮城県大崎市岩出山字船場21",
        "指定緊急避難場所との住所同一": "1",
        "その他市町村長が必要と認める事項": "",
        "受入対象者": "",
        "備考": ""
      }
    },
    {
      "type": "Feature",
      "geometry": {
        "type": "Point",
        "coordinates": [
          140.835163,
          38.711725
        ]
      },
      "properties": {
        "NO": 9831,
        "共通ID": "E0421500018111",
        "都道府県名及び市町村名": "宮城県大崎市",
        "施設・場所名": "旧池月小学校",
        "住所": "宮城県大崎市岩出山池月字下宮山下30",
        "指定緊急避難場所との住所同一": "1",
        "その他市町村長が必要と認める事項": "",
        "受入対象者": "",
        "備考": ""
      }
    },
    {
      "type": "Feature",
      "geometry": {
        "type": "Point",
        "coordinates": [
          140.833781,
          38.706686
        ]
      },
      "properties": {
        "NO": 9832,
        "共通ID": "E0421500019111",
        "都道府県名及び市町村名": "宮城県大崎市",
        "施設・場所名": "池月地区公民館",
        "住所": "宮城県大崎市岩出山池月字下宮道下4-1",
        "指定緊急避難場所との住所同一": "1",
        "その他市町村長が必要と認める事項": "",
        "受入対象者": "",
        "備考": ""
      }
    },
    {
      "type": "Feature",
      "geometry": {
        "type": "Point",
        "coordinates": [
          140.973546,
          38.564445
        ]
      },
      "properties": {
        "NO": 9833,
        "共通ID": "E0421500021111",
        "都道府県名及び市町村名": "宮城県大崎市",
        "施設・場所名": "古川東中学校",
        "住所": "宮城県大崎市古川旭4-5-1",
        "指定緊急避難場所との住所同一": "1",
        "その他市町村長が必要と認める事項": "",
        "受入対象者": "",
        "備考": ""
      }
    },
    {
      "type": "Feature",
      "geometry": {
        "type": "Point",
        "coordinates": [
          140.975045,
          38.564192
        ]
      },
      "properties": {
        "NO": 9834,
        "共通ID": "E0421500022111",
        "都道府県名及び市町村名": "宮城県大崎市",
        "施設・場所名": "古川勤労者体育センター",
        "住所": "宮城県大崎市古川旭4-5-2",
        "指定緊急避難場所との住所同一": "1",
        "その他市町村長が必要と認める事項": "",
        "受入対象者": "",
        "備考": ""
      }
    },
    {
      "type": "Feature",
      "geometry": {
        "type": "Point",
        "coordinates": [
          140.965134,
          38.574959
        ]
      },
      "properties": {
        "NO": 9835,
        "共通ID": "E0421500227121",
        "都道府県名及び市町村名": "宮城県大崎市",
        "施設・場所名": "大崎市図書館",
        "住所": "宮城県大崎市古川駅前大通4-2-1",
        "指定緊急避難場所との住所同一": "1",
        "その他市町村長が必要と認める事項": "",
        "受入対象者": "要配慮者",
        "備考": ""
      }
    },
    {
      "type": "Feature",
      "geometry": {
        "type": "Point",
        "coordinates": [
          140.941158,
          38.617114
        ]
      },
      "properties": {
        "NO": 9836,
        "共通ID": "E0421500032111",
        "都道府県名及び市町村名": "宮城県大崎市",
        "施設・場所名": "旧宮沢小学校",
        "住所": "宮城県大崎市古川宮沢字新田町34",
        "指定緊急避難場所との住所同一": "1",
        "その他市町村長が必要と認める事項": "",
        "受入対象者": "",
        "備考": ""
      }
    },
    {
      "type": "Feature",
      "geometry": {
        "type": "Point",
        "coordinates": [
          140.959156,
          38.560504
        ]
      },
      "properties": {
        "NO": 9837,
        "共通ID": "E0421500033111",
        "都道府県名及び市町村名": "宮城県大崎市",
        "施設・場所名": "古川第三小学校",
        "住所": "宮城県大崎市古川金五輪1-13-1",
        "指定緊急避難場所との住所同一": "1",
        "その他市町村長が必要と認める事項": "",
        "受入対象者": "",
        "備考": ""
      }
    },
    {
      "type": "Feature",
      "geometry": {
        "type": "Point",
        "coordinates": [
          140.971891,
          38.618359
        ]
      },
      "properties": {
        "NO": 9838,
        "共通ID": "E0421500035111",
        "都道府県名及び市町村名": "宮城県大崎市",
        "施設・場所名": "古川北中学校",
        "住所": "宮城県大崎市古川荒谷字権現山5",
        "指定緊急避難場所との住所同一": "1",
        "その他市町村長が必要と認める事項": "",
        "受入対象者": "",
        "備考": ""
      }
    },
    {
      "type": "Feature",
      "geometry": {
        "type": "Point",
        "coordinates": [
          140.97553,
          38.616665
        ]
      },
      "properties": {
        "NO": 9839,
        "共通ID": "E0421500036111",
        "都道府県名及び市町村名": "宮城県大崎市",
        "施設・場所名": "古川長岡地区公民館",
        "住所": "宮城県大崎市古川荒谷字新樋ノ口81",
        "指定緊急避難場所との住所同一": "1",
        "その他市町村長が必要と認める事項": "",
        "受入対象者": "",
        "備考": ""
      }
    },
    {
      "type": "Feature",
      "geometry": {
        "type": "Point",
        "coordinates": [
          140.976039,
          38.616434
        ]
      },
      "properties": {
        "NO": 9840,
        "共通ID": "E0421500037111",
        "都道府県名及び市町村名": "宮城県大崎市",
        "施設・場所名": "古川北小学校",
        "住所": "宮城県大崎市古川荒谷字樋ノ口62-2",
        "指定緊急避難場所との住所同一": "1",
        "その他市町村長が必要と認める事項": "",
        "受入対象者": "",
        "備考": ""
      }
    },
    {
      "type": "Feature",
      "geometry": {
        "type": "Point",
        "coordinates": [
          140.957252,
          38.572886
        ]
      },
      "properties": {
        "NO": 9841,
        "共通ID": "E0421500039121",
        "都道府県名及び市町村名": "宮城県大崎市",
        "施設・場所名": "古川保健福祉プラザ",
        "住所": "宮城県大崎市古川三日町2-5-1",
        "指定緊急避難場所との住所同一": "1",
        "その他市町村長が必要と認める事項": "",
        "受入対象者": "要配慮者",
        "備考": ""
      }
    },
    {
      "type": "Feature",
      "geometry": {
        "type": "Point",
        "coordinates": [
          140.908244,
          38.586443
        ]
      },
      "properties": {
        "NO": 9842,
        "共通ID": "E0421500040111",
        "都道府県名及び市町村名": "宮城県大崎市",
        "施設・場所名": "古川西中学校",
        "住所": "宮城県大崎市古川渋井字全壮191",
        "指定緊急避難場所との住所同一": "1",
        "その他市町村長が必要と認める事項": "",
        "受入対象者": "",
        "備考": ""
      }
    },
    {
      "type": "Feature",
      "geometry": {
        "type": "Point",
        "coordinates": [
          140.941981,
          38.61566
        ]
      },
      "properties": {
        "NO": 9843,
        "共通ID": "E0421500042111",
        "都道府県名及び市町村名": "宮城県大崎市",
        "施設・場所名": "古川宮沢地区公民館",
        "住所": "宮城県大崎市古川小林字新一本杉170",
        "指定緊急避難場所との住所同一": "1",
        "その他市町村長が必要と認める事項": "",
        "受入対象者": "",
        "備考": ""
      }
    },
    {
      "type": "Feature",
      "geometry": {
        "type": "Point",
        "coordinates": [
          140.950304,
          38.58023
        ]
      },
      "properties": {
        "NO": 9844,
        "共通ID": "E0421500044111",
        "都道府県名及び市町村名": "宮城県大崎市",
        "施設・場所名": "古川黎明高等学校",
        "住所": "宮城県大崎市古川諏訪1-4-26",
        "指定緊急避難場所との住所同一": "1",
        "その他市町村長が必要と認める事項": "",
        "受入対象者": "",
        "備考": ""
      }
    },
    {
      "type": "Feature",
      "geometry": {
        "type": "Point",
        "coordinates": [
          140.966411,
          38.658942
        ]
      },
      "properties": {
        "NO": 9845,
        "共通ID": "E0421500049111",
        "都道府県名及び市町村名": "宮城県大崎市",
        "施設・場所名": "古川清滝地区公民館",
        "住所": "宮城県大崎市古川清水沢字長泥30-2",
        "指定緊急避難場所との住所同一": "1",
        "その他市町村長が必要と認める事項": "",
        "受入対象者": "",
        "備考": ""
      }
    },
    {
      "type": "Feature",
      "geometry": {
        "type": "Point",
        "coordinates": [
          140.966893,
          38.659336
        ]
      },
      "properties": {
        "NO": 9846,
        "共通ID": "E0421500049112",
        "都道府県名及び市町村名": "宮城県大崎市",
        "施設・場所名": "旧清滝小学校",
        "住所": "宮城県大崎市古川清水沢字長泥30-2",
        "指定緊急避難場所との住所同一": "1",
        "その他市町村長が必要と認める事項": "",
        "受入対象者": "",
        "備考": ""
      }
    },
    {
      "type": "Feature",
      "geometry": {
        "type": "Point",
        "coordinates": [
          140.991099,
          38.545309
        ]
      },
      "properties": {
        "NO": 9847,
        "共通ID": "E0421500050111",
        "都道府県名及び市町村名": "宮城県大崎市",
        "施設・場所名": "敷玉小学校",
        "住所": "宮城県大崎市古川石森字石神10-1",
        "指定緊急避難場所との住所同一": "1",
        "その他市町村長が必要と認める事項": "",
        "受入対象者": "",
        "備考": ""
      }
    },
    {
      "type": "Feature",
      "geometry": {
        "type": "Point",
        "coordinates": [
          140.99262,
          38.545192
        ]
      },
      "properties": {
        "NO": 9848,
        "共通ID": "E0421500051111",
        "都道府県名及び市町村名": "宮城県大崎市",
        "施設・場所名": "古川敷玉地区公民館",
        "住所": "宮城県大崎市古川石森字石神69",
        "指定緊急避難場所との住所同一": "1",
        "その他市町村長が必要と認める事項": "",
        "受入対象者": "",
        "備考": ""
      }
    },
    {
      "type": "Feature",
      "geometry": {
        "type": "Point",
        "coordinates": [
          140.955371,
          38.588422
        ]
      },
      "properties": {
        "NO": 9849,
        "共通ID": "E0421500056111",
        "都道府県名及び市町村名": "宮城県大崎市",
        "施設・場所名": "古川第四小学校",
        "住所": "宮城県大崎市古川大宮8-2-1",
        "指定緊急避難場所との住所同一": "1",
        "その他市町村長が必要と認める事項": "",
        "受入対象者": "",
        "備考": ""
      }
    },
    {
      "type": "Feature",
      "geometry": {
        "type": "Point",
        "coordinates": [
          140.910777,
          38.603844
        ]
      },
      "properties": {
        "NO": 9850,
        "共通ID": "E0421500057111",
        "都道府県名及び市町村名": "宮城県大崎市",
        "施設・場所名": "古川東大崎地区公民館",
        "住所": "宮城県大崎市古川大崎字朝日32",
        "指定緊急避難場所との住所同一": "1",
        "その他市町村長が必要と認める事項": "",
        "受入対象者": "",
        "備考": ""
      }
    },
    {
      "type": "Feature",
      "geometry": {
        "type": "Point",
        "coordinates": [
          140.911855,
          38.60328
        ]
      },
      "properties": {
        "NO": 9851,
        "共通ID": "E0421500058111",
        "都道府県名及び市町村名": "宮城県大崎市",
        "施設・場所名": "東大崎小学校",
        "住所": "宮城県大崎市古川大崎字伏見梅田19",
        "指定緊急避難場所との住所同一": "1",
        "その他市町村長が必要と認める事項": "",
        "受入対象者": "",
        "備考": ""
      }
    },
    {
      "type": "Feature",
      "geometry": {
        "type": "Point",
        "coordinates": [
          140.915102,
          38.538741
        ]
      },
      "properties": {
        "NO": 9852,
        "共通ID": "E0421500059112",
        "都道府県名及び市町村名": "宮城県大崎市",
        "施設・場所名": "高倉小学校",
        "住所": "宮城県大崎市古川中沢字中沢屋敷242",
        "指定緊急避難場所との住所同一": "1",
        "その他市町村長が必要と認める事項": "",
        "受入対象者": "",
        "備考": ""
      }
    },
    {
      "type": "Feature",
      "geometry": {
        "type": "Point",
        "coordinates": [
          140.91441,
          38.538985
        ]
      },
      "properties": {
        "NO": 9853,
        "共通ID": "E0421500059111",
        "都道府県名及び市町村名": "宮城県大崎市",
        "施設・場所名": "古川高倉地区公民館",
        "住所": "宮城県大崎市古川中沢字中沢屋敷242",
        "指定緊急避難場所との住所同一": "1",
        "その他市町村長が必要と認める事項": "",
        "受入対象者": "",
        "備考": ""
      }
    },
    {
      "type": "Feature",
      "geometry": {
        "type": "Point",
        "coordinates": [
          140.965176,
          38.57
        ]
      },
      "properties": {
        "NO": 9854,
        "共通ID": "E0421500061111",
        "都道府県名及び市町村名": "宮城県大崎市",
        "施設・場所名": "古川学園高等学校",
        "住所": "宮城県大崎市古川中里6-2-8",
        "指定緊急避難場所との住所同一": "1",
        "その他市町村長が必要と認める事項": "",
        "受入対象者": "",
        "備考": ""
      }
    },
    {
      "type": "Feature",
      "geometry": {
        "type": "Point",
        "coordinates": [
          140.956532,
          38.570378
        ]
      },
      "properties": {
        "NO": 9855,
        "共通ID": "E0421500062111",
        "都道府県名及び市町村名": "宮城県大崎市",
        "施設・場所名": "古川高等学校",
        "住所": "宮城県大崎市古川南町2-3-17",
        "指定緊急避難場所との住所同一": "1",
        "その他市町村長が必要と認める事項": "",
        "受入対象者": "",
        "備考": ""
      }
    },
    {
      "type": "Feature",
      "geometry": {
        "type": "Point",
        "coordinates": [
          140.95188,
          38.578839
        ]
      },
      "properties": {
        "NO": 9856,
        "共通ID": "E0421500064111",
        "都道府県名及び市町村名": "宮城県大崎市",
        "施設・場所名": "古川中学校",
        "住所": "宮城県大崎市古川二ノ構7-54",
        "指定緊急避難場所との住所同一": "1",
        "その他市町村長が必要と認める事項": "",
        "受入対象者": "",
        "備考": ""
      }
    },
    {
      "type": "Feature",
      "geometry": {
        "type": "Point",
        "coordinates": [
          140.952738,
          38.577681
        ]
      },
      "properties": {
        "NO": 9857,
        "共通ID": "E0421500065111",
        "都道府県名及び市町村名": "宮城県大崎市",
        "施設・場所名": "古川第一小学校",
        "住所": "宮城県大崎市古川二ノ構7-67",
        "指定緊急避難場所との住所同一": "1",
        "その他市町村長が必要と認める事項": "",
        "受入対象者": "",
        "備考": ""
      }
    },
    {
      "type": "Feature",
      "geometry": {
        "type": "Point",
        "coordinates": [
          140.914556,
          38.571242
        ]
      },
      "properties": {
        "NO": 9858,
        "共通ID": "E0421500066111",
        "都道府県名及び市町村名": "宮城県大崎市",
        "施設・場所名": "志田小学校",
        "住所": "宮城県大崎市古川飯川字熊野40-2",
        "指定緊急避難場所との住所同一": "1",
        "その他市町村長が必要と認める事項": "",
        "受入対象者": "",
        "備考": ""
      }
    },
    {
      "type": "Feature",
      "geometry": {
        "type": "Point",
        "coordinates": [
          140.913014,
          38.571167
        ]
      },
      "properties": {
        "NO": 9859,
        "共通ID": "E0421500067111",
        "都道府県名及び市町村名": "宮城県大崎市",
        "施設・場所名": "古川志田地区公民館",
        "住所": "宮城県大崎市古川飯川字熊野59",
        "指定緊急避難場所との住所同一": "1",
        "その他市町村長が必要と認める事項": "",
        "受入対象者": "",
        "備考": ""
      }
    },
    {
      "type": "Feature",
      "geometry": {
        "type": "Point",
        "coordinates": [
          140.98621,
          38.594312
        ]
      },
      "properties": {
        "NO": 9860,
        "共通ID": "E0421500068112",
        "都道府県名及び市町村名": "宮城県大崎市",
        "施設・場所名": "旧富永小学校",
        "住所": "宮城県大崎市古川富長字五右衛門6-2",
        "指定緊急避難場所との住所同一": "1",
        "その他市町村長が必要と認める事項": "",
        "受入対象者": "",
        "備考": ""
      }
    },
    {
      "type": "Feature",
      "geometry": {
        "type": "Point",
        "coordinates": [
          140.9868,
          38.593637
        ]
      },
      "properties": {
        "NO": 9861,
        "共通ID": "E0421500068111",
        "都道府県名及び市町村名": "宮城県大崎市",
        "施設・場所名": "古川富永地区公民館",
        "住所": "宮城県大崎市古川富長字五右衛門6-2",
        "指定緊急避難場所との住所同一": "1",
        "その他市町村長が必要と認める事項": "",
        "受入対象者": "",
        "備考": ""
      }
    },
    {
      "type": "Feature",
      "geometry": {
        "type": "Point",
        "coordinates": [
          140.973855,
          38.580904
        ]
      },
      "properties": {
        "NO": 9862,
        "共通ID": "E0421500072111",
        "都道府県名及び市町村名": "宮城県大崎市",
        "施設・場所名": "大崎中央高等学校",
        "住所": "宮城県大崎市古川福沼1-27-1",
        "指定緊急避難場所との住所同一": "1",
        "その他市町村長が必要と認める事項": "",
        "受入対象者": "",
        "備考": ""
      }
    },
    {
      "type": "Feature",
      "geometry": {
        "type": "Point",
        "coordinates": [
          140.976365,
          38.576815
        ]
      },
      "properties": {
        "NO": 9863,
        "共通ID": "E0421500074111",
        "都道府県名及び市町村名": "宮城県大崎市",
        "施設・場所名": "古川第二小学校",
        "住所": "宮城県大崎市古川福沼3-16-1",
        "指定緊急避難場所との住所同一": "1",
        "その他市町村長が必要と認める事項": "",
        "受入対象者": "",
        "備考": ""
      }
    },
    {
      "type": "Feature",
      "geometry": {
        "type": "Point",
        "coordinates": [
          140.895563,
          38.5827
        ]
      },
      "properties": {
        "NO": 9864,
        "共通ID": "E0421500075111",
        "都道府県名及び市町村名": "宮城県大崎市",
        "施設・場所名": "大崎市立おおさき日本語学校　　（旧西古川小学校）",
        "住所": "宮城県大崎市古川保柳字氏子114-1",
        "指定緊急避難場所との住所同一": "1",
        "その他市町村長が必要と認める事項": "",
        "受入対象者": "",
        "備考": ""
      }
    },
    {
      "type": "Feature",
      "geometry": {
        "type": "Point",
        "coordinates": [
          140.896717,
          38.582599
        ]
      },
      "properties": {
        "NO": 9865,
        "共通ID": "E0421500076111",
        "都道府県名及び市町村名": "宮城県大崎市",
        "施設・場所名": "西古川地区公民館",
        "住所": "宮城県大崎市古川保柳字氏子202",
        "指定緊急避難場所との住所同一": "1",
        "その他市町村長が必要と認める事項": "",
        "受入対象者": "",
        "備考": ""
      }
    },
    {
      "type": "Feature",
      "geometry": {
        "type": "Point",
        "coordinates": [
          140.945383,
          38.564642
        ]
      },
      "properties": {
        "NO": 9866,
        "共通ID": "E0421500078111",
        "都道府県名及び市町村名": "宮城県大崎市",
        "施設・場所名": "古川第五小学校",
        "住所": "宮城県大崎市古川穂波3-5-7",
        "指定緊急避難場所との住所同一": "1",
        "その他市町村長が必要と認める事項": "",
        "受入対象者": "",
        "備考": ""
      }
    },
    {
      "type": "Feature",
      "geometry": {
        "type": "Point",
        "coordinates": [
          140.945506,
          38.562742
        ]
      },
      "properties": {
        "NO": 9867,
        "共通ID": "E0421500080111",
        "都道府県名及び市町村名": "宮城県大崎市",
        "施設・場所名": "古川南中学校",
        "住所": "宮城県大崎市古川穂波3-6-47",
        "指定緊急避難場所との住所同一": "1",
        "その他市町村長が必要と認める事項": "",
        "受入対象者": "",
        "備考": ""
      }
    },
    {
      "type": "Feature",
      "geometry": {
        "type": "Point",
        "coordinates": [
          140.964428,
          38.584086
        ]
      },
      "properties": {
        "NO": 9868,
        "共通ID": "E0421500085111",
        "都道府県名及び市町村名": "宮城県大崎市",
        "施設・場所名": "古川工業高等学校",
        "住所": "宮城県大崎市古川北町4-7-1",
        "指定緊急避難場所との住所同一": "1",
        "その他市町村長が必要と認める事項": "",
        "受入対象者": "",
        "備考": ""
      }
    },
    {
      "type": "Feature",
      "geometry": {
        "type": "Point",
        "coordinates": [
          140.968751,
          38.580854
        ]
      },
      "properties": {
        "NO": 9869,
        "共通ID": "E0421500087111",
        "都道府県名及び市町村名": "宮城県大崎市",
        "施設・場所名": "中央公民館",
        "住所": "宮城県大崎市古川北町5-5-2",
        "指定緊急避難場所との住所同一": "1",
        "その他市町村長が必要と認める事項": "",
        "受入対象者": "",
        "備考": ""
      }
    },
    {
      "type": "Feature",
      "geometry": {
        "type": "Point",
        "coordinates": [
          140.968989,
          38.580694
        ]
      },
      "properties": {
        "NO": 9870,
        "共通ID": "E0421500088111",
        "都道府県名及び市町村名": "宮城県大崎市",
        "施設・場所名": "中央公民館（旧友和館）",
        "住所": "宮城県大崎市古川北町5-5-3",
        "指定緊急避難場所との住所同一": "1",
        "その他市町村長が必要と認める事項": "",
        "受入対象者": "",
        "備考": ""
      }
    },
    {
      "type": "Feature",
      "geometry": {
        "type": "Point",
        "coordinates": [
          140.95481,
          38.523037
        ]
      },
      "properties": {
        "NO": 9871,
        "共通ID": "E0421500095111",
        "都道府県名及び市町村名": "宮城県大崎市",
        "施設・場所名": "三本木総合体育館",
        "住所": "宮城県大崎市三本木桑折字沼下29-2",
        "指定緊急避難場所との住所同一": "1",
        "その他市町村長が必要と認める事項": "",
        "受入対象者": "",
        "備考": ""
      }
    },
    {
      "type": "Feature",
      "geometry": {
        "type": "Point",
        "coordinates": [
          140.941772,
          38.523541
        ]
      },
      "properties": {
        "NO": 9872,
        "共通ID": "E0421500099111",
        "都道府県名及び市町村名": "宮城県大崎市",
        "施設・場所名": "三本木中学校",
        "住所": "宮城県大崎市三本木字鹿野沢78-2",
        "指定緊急避難場所との住所同一": "1",
        "その他市町村長が必要と認める事項": "",
        "受入対象者": "",
        "備考": ""
      }
    },
    {
      "type": "Feature",
      "geometry": {
        "type": "Point",
        "coordinates": [
          140.93818,
          38.519253
        ]
      },
      "properties": {
        "NO": 9873,
        "共通ID": "E0421500105121",
        "都道府県名及び市町村名": "宮城県大崎市",
        "施設・場所名": "三本木保健福祉センター",
        "住所": "宮城県大崎市三本木字大豆坂24-3",
        "指定緊急避難場所との住所同一": "1",
        "その他市町村長が必要と認める事項": "",
        "受入対象者": "要配慮者",
        "備考": ""
      }
    },
    {
      "type": "Feature",
      "geometry": {
        "type": "Point",
        "coordinates": [
          140.943488,
          38.524212
        ]
      },
      "properties": {
        "NO": 9874,
        "共通ID": "E0421500107111",
        "都道府県名及び市町村名": "宮城県大崎市",
        "施設・場所名": "三本木小学校",
        "住所": "宮城県大崎市三本木字天王沢19",
        "指定緊急避難場所との住所同一": "1",
        "その他市町村長が必要と認める事項": "",
        "受入対象者": "",
        "備考": ""
      }
    },
    {
      "type": "Feature",
      "geometry": {
        "type": "Point",
        "coordinates": [
          141.085778,
          38.487522
        ]
      },
      "properties": {
        "NO": 9875,
        "共通ID": "E0421500117111",
        "都道府県名及び市町村名": "宮城県大崎市",
        "施設・場所名": "鹿島台商業高等学校",
        "住所": "宮城県大崎市鹿島台広長字杢師前44",
        "指定緊急避難場所との住所同一": "1",
        "その他市町村長が必要と認める事項": "",
        "受入対象者": "",
        "備考": ""
      }
    },
    {
      "type": "Feature",
      "geometry": {
        "type": "Point",
        "coordinates": [
          141.042924,
          38.461654
        ]
      },
      "properties": {
        "NO": 9876,
        "共通ID": "E0421500118111",
        "都道府県名及び市町村名": "宮城県大崎市",
        "施設・場所名": "旧鹿島台第二小学校",
        "住所": "宮城県大崎市鹿島台大迫字寺沢40-1",
        "指定緊急避難場所との住所同一": "1",
        "その他市町村長が必要と認める事項": "",
        "受入対象者": "",
        "備考": ""
      }
    },
    {
      "type": "Feature",
      "geometry": {
        "type": "Point",
        "coordinates": [
          141.096691,
          38.479273
        ]
      },
      "properties": {
        "NO": 9877,
        "共通ID": "E0421500122111",
        "都道府県名及び市町村名": "宮城県大崎市",
        "施設・場所名": "鹿島台小学校",
        "住所": "宮城県大崎市鹿島台平渡字上戸1",
        "指定緊急避難場所との住所同一": "1",
        "その他市町村長が必要と認める事項": "",
        "受入対象者": "",
        "備考": ""
      }
    },
    {
      "type": "Feature",
      "geometry": {
        "type": "Point",
        "coordinates": [
          141.096455,
          38.480064
        ]
      },
      "properties": {
        "NO": 9878,
        "共通ID": "E0421500124121",
        "都道府県名及び市町村名": "宮城県大崎市",
        "施設・場所名": "鹿島台保健センター",
        "住所": "宮城県大崎市鹿島台平渡字西要害12-1",
        "指定緊急避難場所との住所同一": "1",
        "その他市町村長が必要と認める事項": "",
        "受入対象者": "要配慮者",
        "備考": ""
      }
    },
    {
      "type": "Feature",
      "geometry": {
        "type": "Point",
        "coordinates": [
          141.093689,
          38.4762
        ]
      },
      "properties": {
        "NO": 9879,
        "共通ID": "E0421500125111",
        "都道府県名及び市町村名": "宮城県大崎市",
        "施設・場所名": "鹿島台中学校",
        "住所": "宮城県大崎市鹿島台平渡字狸沢50",
        "指定緊急避難場所との住所同一": "1",
        "その他市町村長が必要と認める事項": "",
        "受入対象者": "",
        "備考": ""
      }
    },
    {
      "type": "Feature",
      "geometry": {
        "type": "Point",
        "coordinates": [
          141.004583,
          38.530011
        ]
      },
      "properties": {
        "NO": 9880,
        "共通ID": "E0421500132111",
        "都道府県名及び市町村名": "宮城県大崎市",
        "施設・場所名": "下伊場野小学校",
        "住所": "宮城県大崎市松山下伊場野字大柳22",
        "指定緊急避難場所との住所同一": "1",
        "その他市町村長が必要と認める事項": "",
        "受入対象者": "",
        "備考": ""
      }
    },
    {
      "type": "Feature",
      "geometry": {
        "type": "Point",
        "coordinates": [
          141.060727,
          38.515226
        ]
      },
      "properties": {
        "NO": 9881,
        "共通ID": "E0421500133121",
        "都道府県名及び市町村名": "宮城県大崎市",
        "施設・場所名": "松山保健福祉センター",
        "住所": "宮城県大崎市松山千石字広田11",
        "指定緊急避難場所との住所同一": "1",
        "その他市町村長が必要と認める事項": "",
        "受入対象者": "要配慮者",
        "備考": ""
      }
    },
    {
      "type": "Feature",
      "geometry": {
        "type": "Point",
        "coordinates": [
          141.049432,
          38.511456
        ]
      },
      "properties": {
        "NO": 9882,
        "共通ID": "E0421500134111",
        "都道府県名及び市町村名": "宮城県大崎市",
        "施設・場所名": "松山高等学校",
        "住所": "宮城県大崎市松山千石字松山1-1",
        "指定緊急避難場所との住所同一": "1",
        "その他市町村長が必要と認める事項": "",
        "受入対象者": "",
        "備考": ""
      }
    },
    {
      "type": "Feature",
      "geometry": {
        "type": "Point",
        "coordinates": [
          141.051469,
          38.510605
        ]
      },
      "properties": {
        "NO": 9883,
        "共通ID": "E0421500135111",
        "都道府県名及び市町村名": "宮城県大崎市",
        "施設・場所名": "松山体育館",
        "住所": "宮城県大崎市松山千石字松山34-1",
        "指定緊急避難場所との住所同一": "1",
        "その他市町村長が必要と認める事項": "",
        "受入対象者": "",
        "備考": ""
      }
    },
    {
      "type": "Feature",
      "geometry": {
        "type": "Point",
        "coordinates": [
          141.051205,
          38.511789
        ]
      },
      "properties": {
        "NO": 9884,
        "共通ID": "E0421500136113",
        "都道府県名及び市町村名": "宮城県大崎市",
        "施設・場所名": "松山青少年交流館",
        "住所": "宮城県大崎市松山千石字松山428",
        "指定緊急避難場所との住所同一": "1",
        "その他市町村長が必要と認める事項": "",
        "受入対象者": "",
        "備考": ""
      }
    },
    {
      "type": "Feature",
      "geometry": {
        "type": "Point",
        "coordinates": [
          141.051307,
          38.511306
        ]
      },
      "properties": {
        "NO": 9885,
        "共通ID": "E0421500136111",
        "都道府県名及び市町村名": "宮城県大崎市",
        "施設・場所名": "松山老人福祉センター",
        "住所": "宮城県大崎市松山千石字松山428",
        "指定緊急避難場所との住所同一": "1",
        "その他市町村長が必要と認める事項": "",
        "受入対象者": "",
        "備考": ""
      }
    },
    {
      "type": "Feature",
      "geometry": {
        "type": "Point",
        "coordinates": [
          141.051146,
          38.511625
        ]
      },
      "properties": {
        "NO": 9886,
        "共通ID": "E0421500136112",
        "都道府県名及び市町村名": "宮城県大崎市",
        "施設・場所名": "松山公民館",
        "住所": "宮城県大崎市松山千石字松山428",
        "指定緊急避難場所との住所同一": "1",
        "その他市町村長が必要と認める事項": "",
        "受入対象者": "",
        "備考": ""
      }
    },
    {
      "type": "Feature",
      "geometry": {
        "type": "Point",
        "coordinates": [
          141.042432,
          38.515662
        ]
      },
      "properties": {
        "NO": 9887,
        "共通ID": "E0421500137111",
        "都道府県名及び市町村名": "宮城県大崎市",
        "施設・場所名": "松山中学校",
        "住所": "宮城県大崎市松山千石字新広岡台150",
        "指定緊急避難場所との住所同一": "1",
        "その他市町村長が必要と認める事項": "",
        "受入対象者": "",
        "備考": ""
      }
    },
    {
      "type": "Feature",
      "geometry": {
        "type": "Point",
        "coordinates": [
          141.044917,
          38.517585
        ]
      },
      "properties": {
        "NO": 9888,
        "共通ID": "E0421500138111",
        "都道府県名及び市町村名": "宮城県大崎市",
        "施設・場所名": "松山Ｂ＆Ｇ海洋センター",
        "住所": "宮城県大崎市松山千石字新広岡台45",
        "指定緊急避難場所との住所同一": "1",
        "その他市町村長が必要と認める事項": "",
        "受入対象者": "",
        "備考": ""
      }
    },
    {
      "type": "Feature",
      "geometry": {
        "type": "Point",
        "coordinates": [
          141.046049,
          38.517401
        ]
      },
      "properties": {
        "NO": 9889,
        "共通ID": "E0421500139111",
        "都道府県名及び市町村名": "宮城県大崎市",
        "施設・場所名": "松山体育研修センター",
        "住所": "宮城県大崎市松山千石字新広岡台7",
        "指定緊急避難場所との住所同一": "1",
        "その他市町村長が必要と認める事項": "",
        "受入対象者": "",
        "備考": ""
      }
    },
    {
      "type": "Feature",
      "geometry": {
        "type": "Point",
        "coordinates": [
          141.06036,
          38.514252
        ]
      },
      "properties": {
        "NO": 9890,
        "共通ID": "E0421500140111",
        "都道府県名及び市町村名": "宮城県大崎市",
        "施設・場所名": "松山総合支所分庁舎",
        "住所": "宮城県大崎市松山千石字千石広田30",
        "指定緊急避難場所との住所同一": "1",
        "その他市町村長が必要と認める事項": "",
        "受入対象者": "",
        "備考": ""
      }
    },
    {
      "type": "Feature",
      "geometry": {
        "type": "Point",
        "coordinates": [
          141.057946,
          38.516183
        ]
      },
      "properties": {
        "NO": 9891,
        "共通ID": "E0421500141111",
        "都道府県名及び市町村名": "宮城県大崎市",
        "施設・場所名": "松山小学校",
        "住所": "宮城県大崎市松山千石字舛形133",
        "指定緊急避難場所との住所同一": "1",
        "その他市町村長が必要と認める事項": "",
        "受入対象者": "",
        "備考": ""
      }
    },
    {
      "type": "Feature",
      "geometry": {
        "type": "Point",
        "coordinates": [
          141.055211,
          38.600143
        ]
      },
      "properties": {
        "NO": 9892,
        "共通ID": "E0421500156111",
        "都道府県名及び市町村名": "宮城県大崎市",
        "施設・場所名": "沼部小学校",
        "住所": "宮城県大崎市田尻沼部字山崎一7",
        "指定緊急避難場所との住所同一": "1",
        "その他市町村長が必要と認める事項": "",
        "受入対象者": "",
        "備考": ""
      }
    },
    {
      "type": "Feature",
      "geometry": {
        "type": "Point",
        "coordinates": [
          141.050608,
          38.602365
        ]
      },
      "properties": {
        "NO": 9893,
        "共通ID": "E0421500160111",
        "都道府県名及び市町村名": "宮城県大崎市",
        "施設・場所名": "田尻中学校",
        "住所": "宮城県大崎市田尻沼部字早稲田15",
        "指定緊急避難場所との住所同一": "1",
        "その他市町村長が必要と認める事項": "",
        "受入対象者": "",
        "備考": ""
      }
    },
    {
      "type": "Feature",
      "geometry": {
        "type": "Point",
        "coordinates": [
          141.053807,
          38.598005
        ]
      },
      "properties": {
        "NO": 9894,
        "共通ID": "E0421500162111",
        "都道府県名及び市町村名": "宮城県大崎市",
        "施設・場所名": "田尻さくら高等学校",
        "住所": "宮城県大崎市田尻沼部字中新堀137",
        "指定緊急避難場所との住所同一": "1",
        "その他市町村長が必要と認める事項": "",
        "受入対象者": "",
        "備考": ""
      }
    },
    {
      "type": "Feature",
      "geometry": {
        "type": "Point",
        "coordinates": [
          141.055499,
          38.599235
        ]
      },
      "properties": {
        "NO": 9895,
        "共通ID": "E0421500164111",
        "都道府県名及び市町村名": "宮城県大崎市",
        "施設・場所名": "沼部公民館・田尻老人福祉センター・田尻保健センター",
        "住所": "宮城県大崎市田尻沼部字富岡166",
        "指定緊急避難場所との住所同一": "1",
        "その他市町村長が必要と認める事項": "",
        "受入対象者": "",
        "備考": ""
      }
    },
    {
      "type": "Feature",
      "geometry": {
        "type": "Point",
        "coordinates": [
          141.106615,
          38.610026
        ]
      },
      "properties": {
        "NO": 9896,
        "共通ID": "E0421500171111",
        "都道府県名及び市町村名": "宮城県大崎市",
        "施設・場所名": "大貫地区公民館",
        "住所": "宮城県大崎市田尻大貫字境36-1",
        "指定緊急避難場所との住所同一": "1",
        "その他市町村長が必要と認める事項": "",
        "受入対象者": "",
        "備考": ""
      }
    },
    {
      "type": "Feature",
      "geometry": {
        "type": "Point",
        "coordinates": [
          141.107724,
          38.609223
        ]
      },
      "properties": {
        "NO": 9897,
        "共通ID": "E0421500172111",
        "都道府県名及び市町村名": "宮城県大崎市",
        "施設・場所名": "大貫小学校",
        "住所": "宮城県大崎市田尻大貫字境37-1",
        "指定緊急避難場所との住所同一": "1",
        "その他市町村長が必要と認める事項": "",
        "受入対象者": "",
        "備考": ""
      }
    },
    {
      "type": "Feature",
      "geometry": {
        "type": "Point",
        "coordinates": [
          141.020695,
          38.605188
        ]
      },
      "properties": {
        "NO": 9898,
        "共通ID": "E0421500187111",
        "都道府県名及び市町村名": "宮城県大崎市",
        "施設・場所名": "田尻小学校",
        "住所": "宮城県大崎市田尻通木字一所谷10-3",
        "指定緊急避難場所との住所同一": "1",
        "その他市町村長が必要と認める事項": "",
        "受入対象者": "",
        "備考": ""
      }
    },
    {
      "type": "Feature",
      "geometry": {
        "type": "Point",
        "coordinates": [
          141.025767,
          38.600709
        ]
      },
      "properties": {
        "NO": 9899,
        "共通ID": "E0421500189111",
        "都道府県名及び市町村名": "宮城県大崎市",
        "施設・場所名": "田尻地区公民館・農村環境改善センター",
        "住所": "宮城県大崎市田尻通木字新合志田60",
        "指定緊急避難場所との住所同一": "1",
        "その他市町村長が必要と認める事項": "",
        "受入対象者": "",
        "備考": ""
      }
    },
    {
      "type": "Feature",
      "geometry": {
        "type": "Point",
        "coordinates": [
          141.029531,
          38.600465
        ]
      },
      "properties": {
        "NO": 9900,
        "共通ID": "E0421500190121",
        "都道府県名及び市町村名": "宮城県大崎市",
        "施設・場所名": "田尻スキップセンター",
        "住所": "宮城県大崎市田尻通木字中崎東10-1",
        "指定緊急避難場所との住所同一": "1",
        "その他市町村長が必要と認める事項": "",
        "受入対象者": "要配慮者",
        "備考": ""
      }
    },
    {
      "type": "Feature",
      "geometry": {
        "type": "Point",
        "coordinates": [
          140.648459,
          38.802485
        ]
      },
      "properties": {
        "NO": 9901,
        "共通ID": "E0421500202111",
        "都道府県名及び市町村名": "宮城県大崎市",
        "施設・場所名": "鬼首地区公民館",
        "住所": "宮城県大崎市鳴子温泉鬼首字原43-1",
        "指定緊急避難場所との住所同一": "1",
        "その他市町村長が必要と認める事項": "",
        "受入対象者": "",
        "備考": ""
      }
    },
    {
      "type": "Feature",
      "geometry": {
        "type": "Point",
        "coordinates": [
          140.65051,
          38.800652
        ]
      },
      "properties": {
        "NO": 9902,
        "共通ID": "E0421500208111",
        "都道府県名及び市町村名": "宮城県大崎市",
        "施設・場所名": "鬼首小学校",
        "住所": "宮城県大崎市鳴子温泉鬼首字八幡原19",
        "指定緊急避難場所との住所同一": "1",
        "その他市町村長が必要と認める事項": "",
        "受入対象者": "",
        "備考": ""
      }
    },
    {
      "type": "Feature",
      "geometry": {
        "type": "Point",
        "coordinates": [
          140.676465,
          38.728084
        ]
      },
      "properties": {
        "NO": 9903,
        "共通ID": "E0421500215111",
        "都道府県名及び市町村名": "宮城県大崎市",
        "施設・場所名": "中山コミュニティセンター",
        "住所": "宮城県大崎市鳴子温泉字星沼19-1",
        "指定緊急避難場所との住所同一": "1",
        "その他市町村長が必要と認める事項": "",
        "受入対象者": "",
        "備考": ""
      }
    },
    {
      "type": "Feature",
      "geometry": {
        "type": "Point",
        "coordinates": [
          140.766316,
          38.732146
        ]
      },
      "properties": {
        "NO": 9904,
        "共通ID": "E0421500217111",
        "都道府県名及び市町村名": "宮城県大崎市",
        "施設・場所名": "川渡地区公民館",
        "住所": "宮城県大崎市鳴子温泉字川渡25-5",
        "指定緊急避難場所との住所同一": "1",
        "その他市町村長が必要と認める事項": "",
        "受入対象者": "",
        "備考": ""
      }
    },
    {
      "type": "Feature",
      "geometry": {
        "type": "Point",
        "coordinates": [
          140.763581,
          38.732325
        ]
      },
      "properties": {
        "NO": 9905,
        "共通ID": "E0421500218111",
        "都道府県名及び市町村名": "宮城県大崎市",
        "施設・場所名": "川渡小学校",
        "住所": "宮城県大崎市鳴子温泉字築沢29",
        "指定緊急避難場所との住所同一": "1",
        "その他市町村長が必要と認める事項": "",
        "受入対象者": "",
        "備考": ""
      }
    },
    {
      "type": "Feature",
      "geometry": {
        "type": "Point",
        "coordinates": [
          140.765183,
          38.736938
        ]
      },
      "properties": {
        "NO": 9906,
        "共通ID": "E0421500220111",
        "都道府県名及び市町村名": "宮城県大崎市",
        "施設・場所名": "鳴子中学校",
        "住所": "宮城県大崎市鳴子温泉字町西97-1",
        "指定緊急避難場所との住所同一": "1",
        "その他市町村長が必要と認める事項": "",
        "受入対象者": "",
        "備考": ""
      }
    },
    {
      "type": "Feature",
      "geometry": {
        "type": "Point",
        "coordinates": [
          140.714976,
          38.740964
        ]
      },
      "properties": {
        "NO": 9907,
        "共通ID": "E0421500222111",
        "都道府県名及び市町村名": "宮城県大崎市",
        "施設・場所名": "鳴子小学校",
        "住所": "宮城県大崎市鳴子温泉字湯元29",
        "指定緊急避難場所との住所同一": "1",
        "その他市町村長が必要と認める事項": "",
        "受入対象者": "",
        "備考": ""
      }
    },
    {
      "type": "Feature",
      "geometry": {
        "type": "Point",
        "coordinates": [
          140.727385,
          38.751412
        ]
      },
      "properties": {
        "NO": 9908,
        "共通ID": "E0421500224121",
        "都道府県名及び市町村名": "宮城県大崎市",
        "施設・場所名": "鳴子保健・医療・福祉センター",
        "住所": "宮城県大崎市鳴子温泉字末沢1",
        "指定緊急避難場所との住所同一": "1",
        "その他市町村長が必要と認める事項": "",
        "受入対象者": "要配慮者",
        "備考": ""
      }
    },
    {
      "type": "Feature",
      "geometry": {
        "type": "Point",
        "coordinates": [
          140.737906,
          38.744763
        ]
      },
      "properties": {
        "NO": 9909,
        "共通ID": "E0421500226111",
        "都道府県名及び市町村名": "宮城県大崎市",
        "施設・場所名": "鳴子公民館・鳴子スポーツセンター",
        "住所": "宮城県大崎市鳴子温泉字鷲ノ巣85-4",
        "指定緊急避難場所との住所同一": "1",
        "その他市町村長が必要と認める事項": "",
        "受入対象者": "",
        "備考": ""
      }
    }
  ]
}