{
  "type": "FeatureCollection",
  "name": "043249",
  "features": [
    {
      "type": "Feature",
      "geometry": {
        "type": "Point",
        "coordinates": [
          140.736322,
          38.200584
        ]
      },
      "properties": {
        "NO": 10040,
        "共通ID": "E0432400001111",
        "都道府県名及び市町村名": "宮城県川崎町",
        "施設・場所名": "公民館支倉台分館",
        "住所": "宮城県川崎町支倉台1-11-47",
        "指定緊急避難場所との住所同一": "1",
        "その他市町村長が必要と認める事項": null,
        "受入対象者": null,
        "備考": ""
      }
    },
    {
      "type": "Feature",
      "geometry": {
        "type": "Point",
        "coordinates": [
          140.535318,
          38.146163
        ]
      },
      "properties": {
        "NO": 10041,
        "共通ID": "E0432400002111",
        "都道府県名及び市町村名": "宮城県川崎町",
        "施設・場所名": "じゃっぽの湯健康増進棟",
        "住所": "宮城県川崎町青根温泉9-1",
        "指定緊急避難場所との住所同一": "1",
        "その他市町村長が必要と認める事項": "",
        "受入対象者": "",
        "備考": ""
      }
    },
    {
      "type": "Feature",
      "geometry": {
        "type": "Point",
        "coordinates": [
          140.513123,
          38.223485
        ]
      },
      "properties": {
        "NO": 10042,
        "共通ID": "E0432400003111",
        "都道府県名及び市町村名": "宮城県川崎町",
        "施設・場所名": "公民館笹谷分館",
        "住所": "宮城県川崎町大字今宿字神林21",
        "指定緊急避難場所との住所同一": "1",
        "その他市町村長が必要と認める事項": null,
        "受入対象者": null,
        "備考": ""
      }
    },
    {
      "type": "Feature",
      "geometry": {
        "type": "Point",
        "coordinates": [
          140.601385,
          38.193942
        ]
      },
      "properties": {
        "NO": 10043,
        "共通ID": "E0432400004111",
        "都道府県名及び市町村名": "宮城県川崎町",
        "施設・場所名": "川崎第二小学校",
        "住所": "宮城県川崎町大字今宿字町尻1",
        "指定緊急避難場所との住所同一": "1",
        "その他市町村長が必要と認める事項": null,
        "受入対象者": null,
        "備考": ""
      }
    },
    {
      "type": "Feature",
      "geometry": {
        "type": "Point",
        "coordinates": [
          140.597922,
          38.196672
        ]
      },
      "properties": {
        "NO": 10044,
        "共通ID": "E0432400005111",
        "都道府県名及び市町村名": "宮城県川崎町",
        "施設・場所名": "公民館野上分館",
        "住所": "宮城県川崎町大字今宿字野上町23-1",
        "指定緊急避難場所との住所同一": "1",
        "その他市町村長が必要と認める事項": null,
        "受入対象者": null,
        "備考": ""
      }
    },
    {
      "type": "Feature",
      "geometry": {
        "type": "Point",
        "coordinates": [
          140.61407,
          38.183307
        ]
      },
      "properties": {
        "NO": 10045,
        "共通ID": "E0432400006111",
        "都道府県名及び市町村名": "宮城県川崎町",
        "施設・場所名": "立野地区集落センター",
        "住所": "宮城県川崎町大字今宿字立野屋敷16-1",
        "指定緊急避難場所との住所同一": "1",
        "その他市町村長が必要と認める事項": null,
        "受入対象者": null,
        "備考": ""
      }
    },
    {
      "type": "Feature",
      "geometry": {
        "type": "Point",
        "coordinates": [
          140.581404,
          38.206598
        ]
      },
      "properties": {
        "NO": 10046,
        "共通ID": "E0432400007111",
        "都道府県名及び市町村名": "宮城県川崎町",
        "施設・場所名": "公民館古関分館",
        "住所": "宮城県川崎町大字今宿字叺畑8-1",
        "指定緊急避難場所との住所同一": "1",
        "その他市町村長が必要と認める事項": null,
        "受入対象者": null,
        "備考": ""
      }
    },
    {
      "type": "Feature",
      "geometry": {
        "type": "Point",
        "coordinates": [
          140.717267,
          38.172172
        ]
      },
      "properties": {
        "NO": 10047,
        "共通ID": "E0432400008111",
        "都道府県名及び市町村名": "宮城県川崎町",
        "施設・場所名": "支倉郷土文化伝承館",
        "住所": "宮城県川崎町大字支倉字塩沢20-3",
        "指定緊急避難場所との住所同一": "1",
        "その他市町村長が必要と認める事項": null,
        "受入対象者": null,
        "備考": ""
      }
    },
    {
      "type": "Feature",
      "geometry": {
        "type": "Point",
        "coordinates": [
          140.716096,
          38.171891
        ]
      },
      "properties": {
        "NO": 10048,
        "共通ID": "E0432400009111",
        "都道府県名及び市町村名": "宮城県川崎町",
        "施設・場所名": "旧支倉小学校",
        "住所": "宮城県川崎町大字支倉字塩沢9",
        "指定緊急避難場所との住所同一": "1",
        "その他市町村長が必要と認める事項": null,
        "受入対象者": null,
        "備考": ""
      }
    },
    {
      "type": "Feature",
      "geometry": {
        "type": "Point",
        "coordinates": [
          140.726211,
          38.182666
        ]
      },
      "properties": {
        "NO": 10049,
        "共通ID": "E0432400010111",
        "都道府県名及び市町村名": "宮城県川崎町",
        "施設・場所名": "支倉下地区集落センター",
        "住所": "宮城県川崎町大字支倉字宮脇15-4",
        "指定緊急避難場所との住所同一": "1",
        "その他市町村長が必要と認める事項": null,
        "受入対象者": null,
        "備考": ""
      }
    },
    {
      "type": "Feature",
      "geometry": {
        "type": "Point",
        "coordinates": [
          140.695468,
          38.158857
        ]
      },
      "properties": {
        "NO": 10050,
        "共通ID": "E0432400011111",
        "都道府県名及び市町村名": "宮城県川崎町",
        "施設・場所名": "支倉上地区集落センター",
        "住所": "宮城県川崎町大字支倉字金田28-5",
        "指定緊急避難場所との住所同一": "1",
        "その他市町村長が必要と認める事項": null,
        "受入対象者": null,
        "備考": ""
      }
    },
    {
      "type": "Feature",
      "geometry": {
        "type": "Point",
        "coordinates": [
          140.669849,
          38.173129
        ]
      },
      "properties": {
        "NO": 10051,
        "共通ID": "E0432400012111",
        "都道府県名及び市町村名": "宮城県川崎町",
        "施設・場所名": "公民館大針分館",
        "住所": "宮城県川崎町大字支倉字西原60",
        "指定緊急避難場所との住所同一": "1",
        "その他市町村長が必要と認める事項": null,
        "受入対象者": null,
        "備考": ""
      }
    },
    {
      "type": "Feature",
      "geometry": {
        "type": "Point",
        "coordinates": [
          140.726211,
          38.189056
        ]
      },
      "properties": {
        "NO": 10052,
        "共通ID": "E0432400013111",
        "都道府県名及び市町村名": "宮城県川崎町",
        "施設・場所名": "富岡中学校",
        "住所": "宮城県川崎町大字支倉字落田郷山8-3",
        "指定緊急避難場所との住所同一": "1",
        "その他市町村長が必要と認める事項": null,
        "受入対象者": null,
        "備考": ""
      }
    },
    {
      "type": "Feature",
      "geometry": {
        "type": "Point",
        "coordinates": [
          140.72271,
          38.196834
        ]
      },
      "properties": {
        "NO": 10053,
        "共通ID": "E0432400014111",
        "都道府県名及び市町村名": "宮城県川崎町",
        "施設・場所名": "碁石地区集落センター",
        "住所": "宮城県川崎町大字支倉字和合41",
        "指定緊急避難場所との住所同一": "1",
        "その他市町村長が必要と認める事項": null,
        "受入対象者": null,
        "備考": ""
      }
    },
    {
      "type": "Feature",
      "geometry": {
        "type": "Point",
        "coordinates": [
          140.670308,
          38.186938
        ]
      },
      "properties": {
        "NO": 10054,
        "共通ID": "E0432400015111",
        "都道府県名及び市町村名": "宮城県川崎町",
        "施設・場所名": "公民館小野分館",
        "住所": "宮城県川崎町大字小野字町1-2",
        "指定緊急避難場所との住所同一": "1",
        "その他市町村長が必要と認める事項": null,
        "受入対象者": null,
        "備考": ""
      }
    },
    {
      "type": "Feature",
      "geometry": {
        "type": "Point",
        "coordinates": [
          140.72376,
          38.198924
        ]
      },
      "properties": {
        "NO": 10055,
        "共通ID": "E0432400016111",
        "都道府県名及び市町村名": "宮城県川崎町",
        "施設・場所名": "富岡小学校",
        "住所": "宮城県川崎町大字川向49-5",
        "指定緊急避難場所との住所同一": "1",
        "その他市町村長が必要と認める事項": null,
        "受入対象者": null,
        "備考": ""
      }
    },
    {
      "type": "Feature",
      "geometry": {
        "type": "Point",
        "coordinates": [
          140.658439,
          38.202993
        ]
      },
      "properties": {
        "NO": 10056,
        "共通ID": "E0432400017111",
        "都道府県名及び市町村名": "宮城県川崎町",
        "施設・場所名": "公民館川内三分館",
        "住所": "宮城県川崎町大字川内字向原333-6",
        "指定緊急避難場所との住所同一": "1",
        "その他市町村長が必要と認める事項": null,
        "受入対象者": null,
        "備考": ""
      }
    },
    {
      "type": "Feature",
      "geometry": {
        "type": "Point",
        "coordinates": [
          140.643113,
          38.191692
        ]
      },
      "properties": {
        "NO": 10057,
        "共通ID": "E0432400018111",
        "都道府県名及び市町村名": "宮城県川崎町",
        "施設・場所名": "川内地区生活改善センター",
        "住所": "宮城県川崎町大字川内字荒羽賀252-3",
        "指定緊急避難場所との住所同一": "1",
        "その他市町村長が必要と認める事項": null,
        "受入対象者": null,
        "備考": ""
      }
    },
    {
      "type": "Feature",
      "geometry": {
        "type": "Point",
        "coordinates": [
          140.644819,
          38.206628
        ]
      },
      "properties": {
        "NO": 10058,
        "共通ID": "E0432400019111",
        "都道府県名及び市町村名": "宮城県川崎町",
        "施設・場所名": "天神地区生活改善センター",
        "住所": "宮城県川崎町大字川内字天神原山28-2",
        "指定緊急避難場所との住所同一": "1",
        "その他市町村長が必要と認める事項": null,
        "受入対象者": null,
        "備考": ""
      }
    },
    {
      "type": "Feature",
      "geometry": {
        "type": "Point",
        "coordinates": [
          140.643482,
          38.206332
        ]
      },
      "properties": {
        "NO": 10059,
        "共通ID": "E0432400020111",
        "都道府県名及び市町村名": "宮城県川崎町",
        "施設・場所名": "旧川内小学校",
        "住所": "宮城県川崎町大字川内字天神前257-1",
        "指定緊急避難場所との住所同一": "1",
        "その他市町村長が必要と認める事項": null,
        "受入対象者": null,
        "備考": ""
      }
    },
    {
      "type": "Feature",
      "geometry": {
        "type": "Point",
        "coordinates": [
          140.636643,
          38.188765
        ]
      },
      "properties": {
        "NO": 10060,
        "共通ID": "E0432400021111",
        "都道府県名及び市町村名": "宮城県川崎町",
        "施設・場所名": "川内北川コミュ二ティセンター",
        "住所": "宮城県川崎町大字川内字北川原山214-6",
        "指定緊急避難場所との住所同一": "1",
        "その他市町村長が必要と認める事項": null,
        "受入対象者": null,
        "備考": ""
      }
    },
    {
      "type": "Feature",
      "geometry": {
        "type": "Point",
        "coordinates": [
          140.636654,
          38.189448
        ]
      },
      "properties": {
        "NO": 10061,
        "共通ID": "E0432400022111",
        "都道府県名及び市町村名": "宮城県川崎町",
        "施設・場所名": "川崎町Ｂ＆Ｇ海洋センター",
        "住所": "宮城県川崎町大字川内字北川原山92",
        "指定緊急避難場所との住所同一": "1",
        "その他市町村長が必要と認める事項": null,
        "受入対象者": null,
        "備考": ""
      }
    },
    {
      "type": "Feature",
      "geometry": {
        "type": "Point",
        "coordinates": [
          140.640997,
          38.180996
        ]
      },
      "properties": {
        "NO": 10062,
        "共通ID": "E0432400023111",
        "都道府県名及び市町村名": "宮城県川崎町",
        "施設・場所名": "川崎中学校",
        "住所": "宮城県川崎町大字前川字伊勢原12",
        "指定緊急避難場所との住所同一": "1",
        "その他市町村長が必要と認める事項": null,
        "受入対象者": null,
        "備考": ""
      }
    },
    {
      "type": "Feature",
      "geometry": {
        "type": "Point",
        "coordinates": [
          140.639199,
          38.18123
        ]
      },
      "properties": {
        "NO": 10063,
        "共通ID": "E0432400024121",
        "都道府県名及び市町村名": "宮城県川崎町",
        "施設・場所名": "かわさきこども園",
        "住所": "宮城県川崎町大字前川字伊勢原27",
        "指定緊急避難場所との住所同一": "",
        "その他市町村長が必要と認める事項": null,
        "受入対象者": "要配慮者",
        "備考": ""
      }
    },
    {
      "type": "Feature",
      "geometry": {
        "type": "Point",
        "coordinates": [
          140.646195,
          38.1796
        ]
      },
      "properties": {
        "NO": 10064,
        "共通ID": "E0432400025111",
        "都道府県名及び市町村名": "宮城県川崎町",
        "施設・場所名": "川崎小学校",
        "住所": "宮城県川崎町大字前川字館山西5-1",
        "指定緊急避難場所との住所同一": "1",
        "その他市町村長が必要と認める事項": null,
        "受入対象者": null,
        "備考": ""
      }
    },
    {
      "type": "Feature",
      "geometry": {
        "type": "Point",
        "coordinates": [
          140.638793,
          38.176931
        ]
      },
      "properties": {
        "NO": 10065,
        "共通ID": "E0432400027111",
        "都道府県名及び市町村名": "宮城県川崎町",
        "施設・場所名": "本荒町コミュ二ティセンター",
        "住所": "宮城県川崎町大字前川字荒町17-2",
        "指定緊急避難場所との住所同一": "1",
        "その他市町村長が必要と認める事項": null,
        "受入対象者": null,
        "備考": ""
      }
    },
    {
      "type": "Feature",
      "geometry": {
        "type": "Point",
        "coordinates": [
          140.644941,
          38.173784
        ]
      },
      "properties": {
        "NO": 10066,
        "共通ID": "E0432400028111",
        "都道府県名及び市町村名": "宮城県川崎町",
        "施設・場所名": "中央コミュ二ティセンター",
        "住所": "宮城県川崎町大字前川字山長34-39",
        "指定緊急避難場所との住所同一": "1",
        "その他市町村長が必要と認める事項": null,
        "受入対象者": null,
        "備考": ""
      }
    },
    {
      "type": "Feature",
      "geometry": {
        "type": "Point",
        "coordinates": [
          140.580335,
          38.166178
        ]
      },
      "properties": {
        "NO": 10067,
        "共通ID": "E0432400029111",
        "都道府県名及び市町村名": "宮城県川崎町",
        "施設・場所名": "腹帯地区集落センター",
        "住所": "宮城県川崎町大字前川字松葉森山1-160",
        "指定緊急避難場所との住所同一": "1",
        "その他市町村長が必要と認める事項": null,
        "受入対象者": null,
        "備考": ""
      }
    },
    {
      "type": "Feature",
      "geometry": {
        "type": "Point",
        "coordinates": [
          140.627519,
          38.166707
        ]
      },
      "properties": {
        "NO": 10068,
        "共通ID": "E0432400030111",
        "都道府県名及び市町村名": "宮城県川崎町",
        "施設・場所名": "前川東部地区集落センター",
        "住所": "宮城県川崎町大字前川字大向29-2",
        "指定緊急避難場所との住所同一": "1",
        "その他市町村長が必要と認める事項": null,
        "受入対象者": null,
        "備考": ""
      }
    },
    {
      "type": "Feature",
      "geometry": {
        "type": "Point",
        "coordinates": [
          140.619761,
          38.165414
        ]
      },
      "properties": {
        "NO": 10069,
        "共通ID": "E0432400031111",
        "都道府県名及び市町村名": "宮城県川崎町",
        "施設・場所名": "旧前川小学校",
        "住所": "宮城県川崎町大字前川字大森111-4",
        "指定緊急避難場所との住所同一": "1",
        "その他市町村長が必要と認める事項": "",
        "受入対象者": "",
        "備考": ""
      }
    },
    {
      "type": "Feature",
      "geometry": {
        "type": "Point",
        "coordinates": [
          140.630897,
          38.181864
        ]
      },
      "properties": {
        "NO": 10070,
        "共通ID": "E0432400032121",
        "都道府県名及び市町村名": "宮城県川崎町",
        "施設・場所名": "川崎町健康福祉センター",
        "住所": "宮城県川崎町大字前川字北原23-1",
        "指定緊急避難場所との住所同一": "",
        "その他市町村長が必要と認める事項": null,
        "受入対象者": "要配慮者",
        "備考": ""
      }
    },
    {
      "type": "Feature",
      "geometry": {
        "type": "Point",
        "coordinates": [
          140.535291,
          38.149267
        ]
      },
      "properties": {
        "NO": 10071,
        "共通ID": "E0432400033111",
        "都道府県名及び市町村名": "宮城県川崎町",
        "施設・場所名": "旧前川小学校青根分校",
        "住所": "宮城県川崎町大字前川字名号下山3-7",
        "指定緊急避難場所との住所同一": "1",
        "その他市町村長が必要と認める事項": null,
        "受入対象者": null,
        "備考": ""
      }
    },
    {
      "type": "Feature",
      "geometry": {
        "type": "Point",
        "coordinates": [
          140.63905,
          38.178503
        ]
      },
      "properties": {
        "NO": 10072,
        "共通ID": "E0432400034111",
        "都道府県名及び市町村名": "宮城県川崎町",
        "施設・場所名": "裏丁コミュ二ティセンター",
        "住所": "宮城県川崎町大字前川字裏丁131-2",
        "指定緊急避難場所との住所同一": "1",
        "その他市町村長が必要と認める事項": null,
        "受入対象者": null,
        "備考": ""
      }
    },
    {
      "type": "Feature",
      "geometry": {
        "type": "Point",
        "coordinates": [
          140.643559,
          38.1777
        ]
      },
      "properties": {
        "NO": 10073,
        "共通ID": "E0432400035111",
        "都道府県名及び市町村名": "宮城県川崎町",
        "施設・場所名": "川崎町山村開発センター",
        "住所": "宮城県川崎町大字前川字裏丁175-1",
        "指定緊急避難場所との住所同一": "1",
        "その他市町村長が必要と認める事項": null,
        "受入対象者": null,
        "備考": ""
      }
    },
    {
      "type": "Feature",
      "geometry": {
        "type": "Point",
        "coordinates": [
          140.642837,
          38.177255
        ]
      },
      "properties": {
        "NO": 10074,
        "共通ID": "E0432400036111",
        "都道府県名及び市町村名": "宮城県川崎町",
        "施設・場所名": "川崎町公民館",
        "住所": "宮城県川崎町大字前川字裏丁175-2",
        "指定緊急避難場所との住所同一": "1",
        "その他市町村長が必要と認める事項": null,
        "受入対象者": null,
        "備考": ""
      }
    },
    {
      "type": "Feature",
      "geometry": {
        "type": "Point",
        "coordinates": [
          140.597934,
          38.170687
        ]
      },
      "properties": {
        "NO": 10075,
        "共通ID": "E0432400037111",
        "都道府県名及び市町村名": "宮城県川崎町",
        "施設・場所名": "前川西部地区集落センター",
        "住所": "宮城県川崎町大字前川字浪形44-5",
        "指定緊急避難場所との住所同一": "1",
        "その他市町村長が必要と認める事項": null,
        "受入対象者": null,
        "備考": ""
      }
    },
    {
      "type": "Feature",
      "geometry": {
        "type": "Point",
        "coordinates": [
          140.657251,
          38.217793
        ]
      },
      "properties": {
        "NO": 10076,
        "共通ID": "E0432400038111",
        "都道府県名及び市町村名": "宮城県川崎町",
        "施設・場所名": "安達地区集落センター",
        "住所": "宮城県川崎町大字本砂金字安達51-2",
        "指定緊急避難場所との住所同一": "1",
        "その他市町村長が必要と認める事項": null,
        "受入対象者": null,
        "備考": ""
      }
    },
    {
      "type": "Feature",
      "geometry": {
        "type": "Point",
        "coordinates": [
          140.637087,
          38.240784
        ]
      },
      "properties": {
        "NO": 10077,
        "共通ID": "E0432400039111",
        "都道府県名及び市町村名": "宮城県川崎町",
        "施設・場所名": "本砂金地区集落センター",
        "住所": "宮城県川崎町大字本砂金字道畑90-1",
        "指定緊急避難場所との住所同一": "1",
        "その他市町村長が必要と認める事項": null,
        "受入対象者": null,
        "備考": ""
      }
    },
    {
      "type": "Feature",
      "geometry": {
        "type": "Point",
        "coordinates": [
          140.637256,
          38.241432
        ]
      },
      "properties": {
        "NO": 10078,
        "共通ID": "E0432400040111",
        "都道府県名及び市町村名": "宮城県川崎町",
        "施設・場所名": "旧本砂金小学校",
        "住所": "宮城県川崎町大字本砂金字道畑95-1",
        "指定緊急避難場所との住所同一": "1",
        "その他市町村長が必要と認める事項": null,
        "受入対象者": null,
        "備考": ""
      }
    }
  ]
}