{
  "type": "FeatureCollection",
  "name": "045055",
  "features": [
    {
      "type": "Feature",
      "geometry": {
        "type": "Point",
        "coordinates": [
          141.069615,
          38.540728
        ]
      },
      "properties": {
        "NO": 10406,
        "共通ID": "E0450500036111",
        "都道府県名及び市町村名": "宮城県美里町",
        "施設・場所名": "駅東地域交流センター",
        "住所": "宮城県美里町駅東2-17-4",
        "指定緊急避難場所との住所同一": "",
        "その他市町村長が必要と認める事項": null,
        "受入対象者": null,
        "備考": ""
      }
    },
    {
      "type": "Feature",
      "geometry": {
        "type": "Point",
        "coordinates": [
          141.028449,
          38.576439
        ]
      },
      "properties": {
        "NO": 10407,
        "共通ID": "E0450500037111",
        "都道府県名及び市町村名": "宮城県美里町",
        "施設・場所名": "中埣小学校",
        "住所": "宮城県美里町荻埣字朝日壇78",
        "指定緊急避難場所との住所同一": "1",
        "その他市町村長が必要と認める事項": null,
        "受入対象者": null,
        "備考": ""
      }
    },
    {
      "type": "Feature",
      "geometry": {
        "type": "Point",
        "coordinates": [
          141.006319,
          38.569213
        ]
      },
      "properties": {
        "NO": 10408,
        "共通ID": "E0450500003111",
        "都道府県名及び市町村名": "宮城県美里町",
        "施設・場所名": "北浦西部白寿館",
        "住所": "宮城県美里町関根字道明46-8",
        "指定緊急避難場所との住所同一": "",
        "その他市町村長が必要と認める事項": null,
        "受入対象者": null,
        "備考": ""
      }
    },
    {
      "type": "Feature",
      "geometry": {
        "type": "Point",
        "coordinates": [
          141.054609,
          38.555599
        ]
      },
      "properties": {
        "NO": 10409,
        "共通ID": "E0450500039111",
        "都道府県名及び市町村名": "宮城県美里町",
        "施設・場所名": "宮城県小牛田農林高等学校",
        "住所": "宮城県美里町牛飼伊勢堂裏30",
        "指定緊急避難場所との住所同一": "",
        "その他市町村長が必要と認める事項": null,
        "受入対象者": null,
        "備考": ""
      }
    },
    {
      "type": "Feature",
      "geometry": {
        "type": "Point",
        "coordinates": [
          141.056162,
          38.557841
        ]
      },
      "properties": {
        "NO": 10410,
        "共通ID": "E0450500006111",
        "都道府県名及び市町村名": "宮城県美里町",
        "施設・場所名": "健康福祉センターさるびあ館",
        "住所": "宮城県美里町牛飼字新町51",
        "指定緊急避難場所との住所同一": "1",
        "その他市町村長が必要と認める事項": null,
        "受入対象者": null,
        "備考": ""
      }
    },
    {
      "type": "Feature",
      "geometry": {
        "type": "Point",
        "coordinates": [
          141.056895,
          38.551857
        ]
      },
      "properties": {
        "NO": 10411,
        "共通ID": "E0450500004112",
        "都道府県名及び市町村名": "宮城県美里町",
        "施設・場所名": "小牛田小学校",
        "住所": "宮城県美里町牛飼字清水江220",
        "指定緊急避難場所との住所同一": "",
        "その他市町村長が必要と認める事項": null,
        "受入対象者": null,
        "備考": ""
      }
    },
    {
      "type": "Feature",
      "geometry": {
        "type": "Point",
        "coordinates": [
          141.068773,
          38.53
        ]
      },
      "properties": {
        "NO": 10412,
        "共通ID": "E0450500041111",
        "都道府県名及び市町村名": "宮城県美里町",
        "施設・場所名": "ふどうどう幼稚園",
        "住所": "宮城県美里町字志賀町3-2-1",
        "指定緊急避難場所との住所同一": "",
        "その他市町村長が必要と認める事項": null,
        "受入対象者": null,
        "備考": ""
      }
    },
    {
      "type": "Feature",
      "geometry": {
        "type": "Point",
        "coordinates": [
          141.070382,
          38.543319
        ]
      },
      "properties": {
        "NO": 10413,
        "共通ID": "E0450500054111",
        "都道府県名及び市町村名": "宮城県美里町",
        "施設・場所名": "美里中学校",
        "住所": "宮城県美里町字新峯山8-1",
        "指定緊急避難場所との住所同一": "",
        "その他市町村長が必要と認める事項": "美里町防災管財課",
        "受入対象者": "",
        "備考": ""
      }
    },
    {
      "type": "Feature",
      "geometry": {
        "type": "Point",
        "coordinates": [
          141.07354,
          38.536642
        ]
      },
      "properties": {
        "NO": 10414,
        "共通ID": "E0450500001112",
        "都道府県名及び市町村名": "宮城県美里町",
        "施設・場所名": "不動堂小学校",
        "住所": "宮城県美里町字峯山12-1",
        "指定緊急避難場所との住所同一": "1",
        "その他市町村長が必要と認める事項": null,
        "受入対象者": null,
        "備考": ""
      }
    },
    {
      "type": "Feature",
      "geometry": {
        "type": "Point",
        "coordinates": [
          141.075144,
          38.535962
        ]
      },
      "properties": {
        "NO": 10415,
        "共通ID": "E0450500001113",
        "都道府県名及び市町村名": "宮城県美里町",
        "施設・場所名": "不動堂放課後児童クラブ施設",
        "住所": "宮城県美里町字峯山12-1",
        "指定緊急避難場所との住所同一": "1",
        "その他市町村長が必要と認める事項": "",
        "受入対象者": "",
        "備考": ""
      }
    },
    {
      "type": "Feature",
      "geometry": {
        "type": "Point",
        "coordinates": [
          141.043076,
          38.535931
        ]
      },
      "properties": {
        "NO": 10416,
        "共通ID": "E0450500011111",
        "都道府県名及び市町村名": "宮城県美里町",
        "施設・場所名": "青生小学校",
        "住所": "宮城県美里町青生字中ノ橋128-1",
        "指定緊急避難場所との住所同一": "1",
        "その他市町村長が必要と認める事項": "",
        "受入対象者": "",
        "備考": ""
      }
    },
    {
      "type": "Feature",
      "geometry": {
        "type": "Point",
        "coordinates": [
          141.043258,
          38.534731
        ]
      },
      "properties": {
        "NO": 10417,
        "共通ID": "E0450500012111",
        "都道府県名及び市町村名": "宮城県美里町",
        "施設・場所名": "青生コミュニティセンター",
        "住所": "宮城県美里町青生字和谷地175-1",
        "指定緊急避難場所との住所同一": "1",
        "その他市町村長が必要と認める事項": null,
        "受入対象者": null,
        "備考": ""
      }
    },
    {
      "type": "Feature",
      "geometry": {
        "type": "Point",
        "coordinates": [
          141.117766,
          38.501943
        ]
      },
      "properties": {
        "NO": 10418,
        "共通ID": "E0450500044111",
        "都道府県名及び市町村名": "宮城県美里町",
        "施設・場所名": "宮城県南郷高等学校",
        "住所": "宮城県美里町大柳字天神原7",
        "指定緊急避難場所との住所同一": "",
        "その他市町村長が必要と認める事項": null,
        "受入対象者": null,
        "備考": ""
      }
    },
    {
      "type": "Feature",
      "geometry": {
        "type": "Point",
        "coordinates": [
          141.033453,
          38.579234
        ]
      },
      "properties": {
        "NO": 10419,
        "共通ID": "E0450500042111",
        "都道府県名及び市町村名": "宮城県美里町",
        "施設・場所名": "中埣コミュニティセンター",
        "住所": "宮城県美里町中埣字夘時3-9",
        "指定緊急避難場所との住所同一": "1",
        "その他市町村長が必要と認める事項": null,
        "受入対象者": null,
        "備考": ""
      }
    },
    {
      "type": "Feature",
      "geometry": {
        "type": "Point",
        "coordinates": [
          141.083906,
          38.559272
        ]
      },
      "properties": {
        "NO": 10420,
        "共通ID": "E0450500008112",
        "都道府県名及び市町村名": "宮城県美里町",
        "施設・場所名": "下小牛田コミュニティセンター",
        "住所": "宮城県美里町南小牛田字下小牛田屋敷37-1",
        "指定緊急避難場所との住所同一": "1",
        "その他市町村長が必要と認める事項": null,
        "受入対象者": null,
        "備考": ""
      }
    },
    {
      "type": "Feature",
      "geometry": {
        "type": "Point",
        "coordinates": [
          141.057539,
          38.559118
        ]
      },
      "properties": {
        "NO": 10421,
        "共通ID": "E0450500040111",
        "都道府県名及び市町村名": "宮城県美里町",
        "施設・場所名": "本小牛田コミュニティセンター",
        "住所": "宮城県美里町南小牛田字町浦10-8",
        "指定緊急避難場所との住所同一": "1",
        "その他市町村長が必要と認める事項": null,
        "受入対象者": null,
        "備考": ""
      }
    },
    {
      "type": "Feature",
      "geometry": {
        "type": "Point",
        "coordinates": [
          141.13179,
          38.476129
        ]
      },
      "properties": {
        "NO": 10422,
        "共通ID": "E0450500045111",
        "都道府県名及び市町村名": "宮城県美里町",
        "施設・場所名": "慶半コミュニティセンター",
        "住所": "宮城県美里町二郷字慶半35",
        "指定緊急避難場所との住所同一": "1",
        "その他市町村長が必要と認める事項": null,
        "受入対象者": null,
        "備考": ""
      }
    },
    {
      "type": "Feature",
      "geometry": {
        "type": "Point",
        "coordinates": [
          141.130708,
          38.470242
        ]
      },
      "properties": {
        "NO": 10423,
        "共通ID": "E0450500046111",
        "都道府県名及び市町村名": "宮城県美里町",
        "施設・場所名": "町営二郷第一住宅集会所",
        "住所": "宮城県美里町二郷字佐野六号12-1",
        "指定緊急避難場所との住所同一": "",
        "その他市町村長が必要と認める事項": null,
        "受入対象者": null,
        "備考": ""
      }
    },
    {
      "type": "Feature",
      "geometry": {
        "type": "Point",
        "coordinates": [
          141.16294,
          38.455057
        ]
      },
      "properties": {
        "NO": 10424,
        "共通ID": "E0450500053111",
        "都道府県名及び市町村名": "宮城県美里町",
        "施設・場所名": "小島集落センター",
        "住所": "宮城県美里町二郷字蛇沼向808-4",
        "指定緊急避難場所との住所同一": "",
        "その他市町村長が必要と認める事項": "",
        "受入対象者": "",
        "備考": ""
      }
    },
    {
      "type": "Feature",
      "geometry": {
        "type": "Point",
        "coordinates": [
          141.114923,
          38.457138
        ]
      },
      "properties": {
        "NO": 10425,
        "共通ID": "E0450500048111",
        "都道府県名及び市町村名": "宮城県美里町",
        "施設・場所名": "下二郷コミュニティセンター",
        "住所": "宮城県美里町二郷字蔵人主二号10",
        "指定緊急避難場所との住所同一": "",
        "その他市町村長が必要と認める事項": null,
        "受入対象者": null,
        "備考": ""
      }
    },
    {
      "type": "Feature",
      "geometry": {
        "type": "Point",
        "coordinates": [
          141.022528,
          38.56486
        ]
      },
      "properties": {
        "NO": 10426,
        "共通ID": "E0450500013112",
        "都道府県名及び市町村名": "宮城県美里町",
        "施設・場所名": "北浦小学校",
        "住所": "宮城県美里町北浦字浦田上129",
        "指定緊急避難場所との住所同一": "1",
        "その他市町村長が必要と認める事項": null,
        "受入対象者": null,
        "備考": ""
      }
    },
    {
      "type": "Feature",
      "geometry": {
        "type": "Point",
        "coordinates": [
          141.05646,
          38.543935
        ]
      },
      "properties": {
        "NO": 10427,
        "共通ID": "E0450500017112",
        "都道府県名及び市町村名": "宮城県美里町",
        "施設・場所名": "中央コミュニティセンター",
        "住所": "宮城県美里町北浦字駒米13",
        "指定緊急避難場所との住所同一": "1",
        "その他市町村長が必要と認める事項": null,
        "受入対象者": null,
        "備考": ""
      }
    },
    {
      "type": "Feature",
      "geometry": {
        "type": "Point",
        "coordinates": [
          141.049551,
          38.538988
        ]
      },
      "properties": {
        "NO": 10428,
        "共通ID": "E0450500018112",
        "都道府県名及び市町村名": "宮城県美里町",
        "施設・場所名": "笹館集会所",
        "住所": "宮城県美里町北浦字山前1-5",
        "指定緊急避難場所との住所同一": "1",
        "その他市町村長が必要と認める事項": null,
        "受入対象者": null,
        "備考": ""
      }
    },
    {
      "type": "Feature",
      "geometry": {
        "type": "Point",
        "coordinates": [
          141.056544,
          38.539254
        ]
      },
      "properties": {
        "NO": 10429,
        "共通ID": "E0450500023111",
        "都道府県名及び市町村名": "宮城県美里町",
        "施設・場所名": "宮城県立支援学校小牛田高等学園",
        "住所": "宮城県美里町北浦字船入1",
        "指定緊急避難場所との住所同一": "1",
        "その他市町村長が必要と認める事項": null,
        "受入対象者": null,
        "備考": ""
      }
    },
    {
      "type": "Feature",
      "geometry": {
        "type": "Point",
        "coordinates": [
          141.044918,
          38.555342
        ]
      },
      "properties": {
        "NO": 10430,
        "共通ID": "E0450500050111",
        "都道府県名及び市町村名": "宮城県美里町",
        "施設・場所名": "こごた幼稚園",
        "住所": "宮城県美里町北浦字中新田142",
        "指定緊急避難場所との住所同一": "",
        "その他市町村長が必要と認める事項": null,
        "受入対象者": null,
        "備考": ""
      }
    },
    {
      "type": "Feature",
      "geometry": {
        "type": "Point",
        "coordinates": [
          141.021803,
          38.560394
        ]
      },
      "properties": {
        "NO": 10431,
        "共通ID": "E0450500014111",
        "都道府県名及び市町村名": "宮城県美里町",
        "施設・場所名": "北浦コミュニティセンター",
        "住所": "宮城県美里町北浦字道祖神前7-5",
        "指定緊急避難場所との住所同一": "1",
        "その他市町村長が必要と認める事項": null,
        "受入対象者": null,
        "備考": ""
      }
    },
    {
      "type": "Feature",
      "geometry": {
        "type": "Point",
        "coordinates": [
          141.132978,
          38.490369
        ]
      },
      "properties": {
        "NO": 10432,
        "共通ID": "E0450500052111",
        "都道府県名及び市町村名": "宮城県美里町",
        "施設・場所名": "活き生きセンター",
        "住所": "宮城県美里町木間塚字原田5",
        "指定緊急避難場所との住所同一": "",
        "その他市町村長が必要と認める事項": "",
        "受入対象者": "",
        "備考": ""
      }
    },
    {
      "type": "Feature",
      "geometry": {
        "type": "Point",
        "coordinates": [
          141.136418,
          38.486984
        ]
      },
      "properties": {
        "NO": 10433,
        "共通ID": "E0450500028111",
        "都道府県名及び市町村名": "宮城県美里町",
        "施設・場所名": "南郷体育館",
        "住所": "宮城県美里町木間塚字高田33",
        "指定緊急避難場所との住所同一": "1",
        "その他市町村長が必要と認める事項": "",
        "受入対象者": "",
        "備考": ""
      }
    },
    {
      "type": "Feature",
      "geometry": {
        "type": "Point",
        "coordinates": [
          141.135714,
          38.487153
        ]
      },
      "properties": {
        "NO": 10434,
        "共通ID": "E0450500028112",
        "都道府県名及び市町村名": "宮城県美里町",
        "施設・場所名": "農村環境改善センター",
        "住所": "宮城県美里町木間塚字高田33",
        "指定緊急避難場所との住所同一": "1",
        "その他市町村長が必要と認める事項": "",
        "受入対象者": "",
        "備考": ""
      }
    },
    {
      "type": "Feature",
      "geometry": {
        "type": "Point",
        "coordinates": [
          141.132854,
          38.48773
        ]
      },
      "properties": {
        "NO": 10435,
        "共通ID": "E0450500029111",
        "都道府県名及び市町村名": "宮城県美里町",
        "施設・場所名": "南郷小学校",
        "住所": "宮城県美里町木間塚字高田5",
        "指定緊急避難場所との住所同一": "1",
        "その他市町村長が必要と認める事項": "",
        "受入対象者": "",
        "備考": ""
      }
    },
    {
      "type": "Feature",
      "geometry": {
        "type": "Point",
        "coordinates": [
          141.134174,
          38.487757
        ]
      },
      "properties": {
        "NO": 10436,
        "共通ID": "E0450500029112",
        "都道府県名及び市町村名": "宮城県美里町",
        "施設・場所名": "南郷放課後児童クラブ施設",
        "住所": "宮城県美里町木間塚字高田5",
        "指定緊急避難場所との住所同一": "1",
        "その他市町村長が必要と認める事項": "",
        "受入対象者": "",
        "備考": ""
      }
    },
    {
      "type": "Feature",
      "geometry": {
        "type": "Point",
        "coordinates": [
          141.104987,
          38.520888
        ]
      },
      "properties": {
        "NO": 10437,
        "共通ID": "E0450500024111",
        "都道府県名及び市町村名": "宮城県美里町",
        "施設・場所名": "農村婦人の家",
        "住所": "宮城県美里町和多田沼字蛭田原一75-1",
        "指定緊急避難場所との住所同一": "1",
        "その他市町村長が必要と認める事項": null,
        "受入対象者": null,
        "備考": ""
      }
    }
  ]
}