{
  "type": "FeatureCollection",
  "name": "052035",
  "features": [
    {
      "type": "Feature",
      "geometry": {
        "type": "Point",
        "coordinates": [
          140.570981,
          39.315847
        ]
      },
      "properties": {
        "NO": 10714,
        "共通ID": "E0520300004111",
        "都道府県名及び市町村名": "秋田県横手市",
        "施設・場所名": "横手市立横手南小学校",
        "住所": "秋田県横手市羽黒町4-36",
        "指定緊急避難場所との住所同一": "1",
        "その他市町村長が必要と認める事項": "「洪水」では2階以上に避難",
        "受入対象者": "",
        "備考": ""
      }
    },
    {
      "type": "Feature",
      "geometry": {
        "type": "Point",
        "coordinates": [
          140.561583,
          39.311756
        ]
      },
      "properties": {
        "NO": 10715,
        "共通ID": "E0520300159111",
        "都道府県名及び市町村名": "秋田県横手市",
        "施設・場所名": "Ｙ２ぷらざ",
        "住所": "秋田県横手市駅前町1-21",
        "指定緊急避難場所との住所同一": "1",
        "その他市町村長が必要と認める事項": "「洪水」では2階以上に避難",
        "受入対象者": "",
        "備考": ""
      }
    },
    {
      "type": "Feature",
      "geometry": {
        "type": "Point",
        "coordinates": [
          140.563666,
          39.304313
        ]
      },
      "properties": {
        "NO": 10716,
        "共通ID": "E0520300006111",
        "都道府県名及び市町村名": "秋田県横手市",
        "施設・場所名": "横手市横手保健センター",
        "住所": "秋田県横手市横山町1-1",
        "指定緊急避難場所との住所同一": "1",
        "その他市町村長が必要と認める事項": "",
        "受入対象者": "",
        "備考": ""
      }
    },
    {
      "type": "Feature",
      "geometry": {
        "type": "Point",
        "coordinates": [
          140.567138,
          39.369704
        ]
      },
      "properties": {
        "NO": 10717,
        "共通ID": "E0520300010112",
        "都道府県名及び市町村名": "秋田県横手市",
        "施設・場所名": "横手市金沢地区交流センター（金沢孔城館）",
        "住所": "秋田県横手市金沢中野字長持213-1",
        "指定緊急避難場所との住所同一": "1",
        "その他市町村長が必要と認める事項": "",
        "受入対象者": "",
        "備考": ""
      }
    },
    {
      "type": "Feature",
      "geometry": {
        "type": "Point",
        "coordinates": [
          140.501259,
          39.364208
        ]
      },
      "properties": {
        "NO": 10718,
        "共通ID": "E0520300012111",
        "都道府県名及び市町村名": "秋田県横手市",
        "施設・場所名": "横手市黒川地区交流センター（オアシス館）",
        "住所": "秋田県横手市黒川字館西619",
        "指定緊急避難場所との住所同一": "1",
        "その他市町村長が必要と認める事項": "",
        "受入対象者": "",
        "備考": ""
      }
    },
    {
      "type": "Feature",
      "geometry": {
        "type": "Point",
        "coordinates": [
          140.567875,
          39.322384
        ]
      },
      "properties": {
        "NO": 10719,
        "共通ID": "E0520300014111",
        "都道府県名及び市町村名": "秋田県横手市",
        "施設・場所名": "秋田県立横手城南高等学校",
        "住所": "秋田県横手市根岸町2-14",
        "指定緊急避難場所との住所同一": "1",
        "その他市町村長が必要と認める事項": "",
        "受入対象者": "",
        "備考": ""
      }
    },
    {
      "type": "Feature",
      "geometry": {
        "type": "Point",
        "coordinates": [
          140.706311,
          39.211081
        ]
      },
      "properties": {
        "NO": 10720,
        "共通ID": "E0520300016111",
        "都道府県名及び市町村名": "秋田県横手市",
        "施設・場所名": "横手市山内三又コミュニティセンター",
        "住所": "秋田県横手市山内三又字堂林72",
        "指定緊急避難場所との住所同一": "1",
        "その他市町村長が必要と認める事項": "",
        "受入対象者": "",
        "備考": ""
      }
    },
    {
      "type": "Feature",
      "geometry": {
        "type": "Point",
        "coordinates": [
          140.625746,
          39.289153
        ]
      },
      "properties": {
        "NO": 10721,
        "共通ID": "E0520300018111",
        "都道府県名及び市町村名": "秋田県横手市",
        "施設・場所名": "道の駅さんない",
        "住所": "秋田県横手市山内土渕字小目倉沢34",
        "指定緊急避難場所との住所同一": "1",
        "その他市町村長が必要と認める事項": null,
        "受入対象者": null,
        "備考": ""
      }
    },
    {
      "type": "Feature",
      "geometry": {
        "type": "Point",
        "coordinates": [
          140.623003,
          39.28509
        ]
      },
      "properties": {
        "NO": 10722,
        "共通ID": "E0520300019111",
        "都道府県名及び市町村名": "秋田県横手市",
        "施設・場所名": "横手市立山内小学校",
        "住所": "秋田県横手市山内土渕字菅生37-1",
        "指定緊急避難場所との住所同一": "1",
        "その他市町村長が必要と認める事項": "",
        "受入対象者": "",
        "備考": ""
      }
    },
    {
      "type": "Feature",
      "geometry": {
        "type": "Point",
        "coordinates": [
          140.621503,
          39.28224
        ]
      },
      "properties": {
        "NO": 10723,
        "共通ID": "E0520300021111",
        "都道府県名及び市町村名": "秋田県横手市",
        "施設・場所名": "横手市山内ほっとパレス「ゆうらく館」",
        "住所": "秋田県横手市山内土渕字鶴ケ池31-3",
        "指定緊急避難場所との住所同一": "1",
        "その他市町村長が必要と認める事項": "",
        "受入対象者": "",
        "備考": ""
      }
    },
    {
      "type": "Feature",
      "geometry": {
        "type": "Point",
        "coordinates": [
          140.615507,
          39.282987
        ]
      },
      "properties": {
        "NO": 10724,
        "共通ID": "E0520300023111",
        "都道府県名及び市町村名": "秋田県横手市",
        "施設・場所名": "山内農林産物加工交流施設　ふれあい館",
        "住所": "秋田県横手市山内土渕字道地59-12",
        "指定緊急避難場所との住所同一": "1",
        "その他市町村長が必要と認める事項": "",
        "受入対象者": "",
        "備考": ""
      }
    },
    {
      "type": "Feature",
      "geometry": {
        "type": "Point",
        "coordinates": [
          140.620741,
          39.277688
        ]
      },
      "properties": {
        "NO": 10725,
        "共通ID": "E0520300024111",
        "都道府県名及び市町村名": "秋田県横手市",
        "施設・場所名": "横手市山内地区交流センター（山内庁舎）",
        "住所": "秋田県横手市山内土渕字二瀬8-4",
        "指定緊急避難場所との住所同一": "1",
        "その他市町村長が必要と認める事項": "",
        "受入対象者": "",
        "備考": ""
      }
    },
    {
      "type": "Feature",
      "geometry": {
        "type": "Point",
        "coordinates": [
          140.690507,
          39.246433
        ]
      },
      "properties": {
        "NO": 10726,
        "共通ID": "E0520300025111",
        "都道府県名及び市町村名": "秋田県横手市",
        "施設・場所名": "横手市山内南郷コミュニティセンター",
        "住所": "秋田県横手市山内南郷字赤渕31",
        "指定緊急避難場所との住所同一": "1",
        "その他市町村長が必要と認める事項": "",
        "受入対象者": "",
        "備考": ""
      }
    },
    {
      "type": "Feature",
      "geometry": {
        "type": "Point",
        "coordinates": [
          140.652595,
          39.262403
        ]
      },
      "properties": {
        "NO": 10727,
        "共通ID": "E0520300026111",
        "都道府県名及び市町村名": "秋田県横手市",
        "施設・場所名": "横手市山内地区交流センター筏分館",
        "住所": "秋田県横手市山内筏字久保5",
        "指定緊急避難場所との住所同一": "1",
        "その他市町村長が必要と認める事項": "",
        "受入対象者": "",
        "備考": ""
      }
    },
    {
      "type": "Feature",
      "geometry": {
        "type": "Point",
        "coordinates": [
          140.621709,
          39.271741
        ]
      },
      "properties": {
        "NO": 10728,
        "共通ID": "E0520300028111",
        "都道府県名及び市町村名": "秋田県横手市",
        "施設・場所名": "横手市山内体育館",
        "住所": "秋田県横手市山内平野沢字南相野々42-1",
        "指定緊急避難場所との住所同一": "1",
        "その他市町村長が必要と認める事項": "",
        "受入対象者": "",
        "備考": ""
      }
    },
    {
      "type": "Feature",
      "geometry": {
        "type": "Point",
        "coordinates": [
          140.521157,
          39.224948
        ]
      },
      "properties": {
        "NO": 10729,
        "共通ID": "E0520300030111",
        "都道府県名及び市町村名": "秋田県横手市",
        "施設・場所名": "横手市十文字地区交流センター（十文字庁舎）",
        "住所": "秋田県横手市十文字町海道下12-5",
        "指定緊急避難場所との住所同一": "1",
        "その他市町村長が必要と認める事項": "",
        "受入対象者": "",
        "備考": ""
      }
    },
    {
      "type": "Feature",
      "geometry": {
        "type": "Point",
        "coordinates": [
          140.52149,
          39.226124
        ]
      },
      "properties": {
        "NO": 10730,
        "共通ID": "E0520300031111",
        "都道府県名及び市町村名": "秋田県横手市",
        "施設・場所名": "道の駅十文字",
        "住所": "秋田県横手市十文字町字海道下21-4",
        "指定緊急避難場所との住所同一": "1",
        "その他市町村長が必要と認める事項": null,
        "受入対象者": null,
        "備考": ""
      }
    },
    {
      "type": "Feature",
      "geometry": {
        "type": "Point",
        "coordinates": [
          140.513455,
          39.230795
        ]
      },
      "properties": {
        "NO": 10731,
        "共通ID": "E0520300033111",
        "都道府県名及び市町村名": "秋田県横手市",
        "施設・場所名": "横手市三重地区交流センター",
        "住所": "秋田県横手市十文字町十五野新田字増田道東19",
        "指定緊急避難場所との住所同一": "1",
        "その他市町村長が必要と認める事項": "",
        "受入対象者": "",
        "備考": ""
      }
    },
    {
      "type": "Feature",
      "geometry": {
        "type": "Point",
        "coordinates": [
          140.514674,
          39.231313
        ]
      },
      "properties": {
        "NO": 10732,
        "共通ID": "E0520300034111",
        "都道府県名及び市町村名": "秋田県横手市",
        "施設・場所名": "横手市立三重保育所",
        "住所": "秋田県横手市十文字町十五野新田字増田道東93-4",
        "指定緊急避難場所との住所同一": "1",
        "その他市町村長が必要と認める事項": "",
        "受入対象者": "",
        "備考": ""
      }
    },
    {
      "type": "Feature",
      "geometry": {
        "type": "Point",
        "coordinates": [
          140.519461,
          39.239157
        ]
      },
      "properties": {
        "NO": 10733,
        "共通ID": "E0520300036111",
        "都道府県名及び市町村名": "秋田県横手市",
        "施設・場所名": "横手市立十文字小学校",
        "住所": "秋田県横手市十文字町十五野新田字坊主沢5-1",
        "指定緊急避難場所との住所同一": "1",
        "その他市町村長が必要と認める事項": "「洪水」では2階以上に避難",
        "受入対象者": "",
        "備考": ""
      }
    },
    {
      "type": "Feature",
      "geometry": {
        "type": "Point",
        "coordinates": [
          140.520289,
          39.241461
        ]
      },
      "properties": {
        "NO": 10734,
        "共通ID": "E0520300037111",
        "都道府県名及び市町村名": "秋田県横手市",
        "施設・場所名": "横手市立十文字中学校",
        "住所": "秋田県横手市十文字町十五野新田字梨木境134-1",
        "指定緊急避難場所との住所同一": "1",
        "その他市町村長が必要と認める事項": "「洪水」では2階以上に避難",
        "受入対象者": "",
        "備考": ""
      }
    },
    {
      "type": "Feature",
      "geometry": {
        "type": "Point",
        "coordinates": [
          140.460619,
          39.226847
        ]
      },
      "properties": {
        "NO": 10735,
        "共通ID": "E0520300039111",
        "都道府県名及び市町村名": "秋田県横手市",
        "施設・場所名": "横手市十文字西地区交流センター（西地区館／交流館）",
        "住所": "秋田県横手市十文字町植田字一ト市330",
        "指定緊急避難場所との住所同一": "1",
        "その他市町村長が必要と認める事項": "",
        "受入対象者": "",
        "備考": ""
      }
    },
    {
      "type": "Feature",
      "geometry": {
        "type": "Point",
        "coordinates": [
          140.472931,
          39.21806
        ]
      },
      "properties": {
        "NO": 10736,
        "共通ID": "E0520300040111",
        "都道府県名及び市町村名": "秋田県横手市",
        "施設・場所名": "横手市十文字防災センター",
        "住所": "秋田県横手市十文字町植田字古川端111-2",
        "指定緊急避難場所との住所同一": "1",
        "その他市町村長が必要と認める事項": "",
        "受入対象者": "",
        "備考": ""
      }
    },
    {
      "type": "Feature",
      "geometry": {
        "type": "Point",
        "coordinates": [
          140.527382,
          39.342611
        ]
      },
      "properties": {
        "NO": 10737,
        "共通ID": "E0520300053111",
        "都道府県名及び市町村名": "秋田県横手市",
        "施設・場所名": "横手市境町地区交流センター（ふるさと館）",
        "住所": "秋田県横手市上境字谷地中144-1",
        "指定緊急避難場所との住所同一": "1",
        "その他市町村長が必要と認める事項": "",
        "受入対象者": "",
        "備考": ""
      }
    },
    {
      "type": "Feature",
      "geometry": {
        "type": "Point",
        "coordinates": [
          140.552397,
          39.313007
        ]
      },
      "properties": {
        "NO": 10738,
        "共通ID": "E0520300055111",
        "都道府県名及び市町村名": "秋田県横手市",
        "施設・場所名": "横手市横手体育館",
        "住所": "秋田県横手市条里2-2-40",
        "指定緊急避難場所との住所同一": "1",
        "その他市町村長が必要と認める事項": "「洪水」では2階以上に避難",
        "受入対象者": "",
        "備考": ""
      }
    },
    {
      "type": "Feature",
      "geometry": {
        "type": "Point",
        "coordinates": [
          140.545747,
          39.327711
        ]
      },
      "properties": {
        "NO": 10739,
        "共通ID": "E0520300059111",
        "都道府県名及び市町村名": "秋田県横手市",
        "施設・場所名": "横手市立横手北中学校",
        "住所": "秋田県横手市静町字鶴田37",
        "指定緊急避難場所との住所同一": "1",
        "その他市町村長が必要と認める事項": "「洪水」では2階以上に避難",
        "受入対象者": "",
        "備考": ""
      }
    },
    {
      "type": "Feature",
      "geometry": {
        "type": "Point",
        "coordinates": [
          140.54801,
          39.300697
        ]
      },
      "properties": {
        "NO": 10740,
        "共通ID": "E0520300060111",
        "都道府県名及び市町村名": "秋田県横手市",
        "施設・場所名": "横手市立横手南中学校",
        "住所": "秋田県横手市赤坂字郷士館32-1",
        "指定緊急避難場所との住所同一": "1",
        "その他市町村長が必要と認める事項": "",
        "受入対象者": "",
        "備考": ""
      }
    },
    {
      "type": "Feature",
      "geometry": {
        "type": "Point",
        "coordinates": [
          140.526901,
          39.314767
        ]
      },
      "properties": {
        "NO": 10741,
        "共通ID": "E0520300061111",
        "都道府県名及び市町村名": "秋田県横手市",
        "施設・場所名": "横手市立旭小学校",
        "住所": "秋田県横手市赤坂字城野岡222",
        "指定緊急避難場所との住所同一": "1",
        "その他市町村長が必要と認める事項": "",
        "受入対象者": "",
        "備考": ""
      }
    },
    {
      "type": "Feature",
      "geometry": {
        "type": "Point",
        "coordinates": [
          140.531667,
          39.29728
        ]
      },
      "properties": {
        "NO": 10742,
        "共通ID": "E0520300062111",
        "都道府県名及び市町村名": "秋田県横手市",
        "施設・場所名": "秋田県立横手支援学校",
        "住所": "秋田県横手市赤坂字仁坂105-1",
        "指定緊急避難場所との住所同一": "1",
        "その他市町村長が必要と認める事項": "",
        "受入対象者": "",
        "備考": ""
      }
    },
    {
      "type": "Feature",
      "geometry": {
        "type": "Point",
        "coordinates": [
          140.564888,
          39.30802
        ]
      },
      "properties": {
        "NO": 10743,
        "共通ID": "E0520300065111",
        "都道府県名及び市町村名": "秋田県横手市",
        "施設・場所名": "秋田県立横手高等学校青雲館",
        "住所": "秋田県横手市前郷二番町10-1",
        "指定緊急避難場所との住所同一": "1",
        "その他市町村長が必要と認める事項": "「洪水」では2階以上に避難",
        "受入対象者": "",
        "備考": ""
      }
    },
    {
      "type": "Feature",
      "geometry": {
        "type": "Point",
        "coordinates": [
          140.575267,
          39.203955
        ]
      },
      "properties": {
        "NO": 10744,
        "共通ID": "E0520300066111",
        "都道府県名及び市町村名": "秋田県横手市",
        "施設・場所名": "横手市西成瀬地区交流センター",
        "住所": "秋田県横手市増田町荻袋字真当72",
        "指定緊急避難場所との住所同一": "1",
        "その他市町村長が必要と認める事項": "",
        "受入対象者": "",
        "備考": ""
      }
    },
    {
      "type": "Feature",
      "geometry": {
        "type": "Point",
        "coordinates": [
          140.5617,
          39.215531
        ]
      },
      "properties": {
        "NO": 10745,
        "共通ID": "E0520300067111",
        "都道府県名及び市町村名": "秋田県横手市",
        "施設・場所名": "横手市亀田地区交流センター",
        "住所": "秋田県横手市増田町亀田字半助村70",
        "指定緊急避難場所との住所同一": "1",
        "その他市町村長が必要と認める事項": "",
        "受入対象者": "",
        "備考": ""
      }
    },
    {
      "type": "Feature",
      "geometry": {
        "type": "Point",
        "coordinates": [
          140.621895,
          39.164098
        ]
      },
      "properties": {
        "NO": 10746,
        "共通ID": "E0520300068111",
        "都道府県名及び市町村名": "秋田県横手市",
        "施設・場所名": "横手市狙半内地区交流センター",
        "住所": "秋田県横手市増田町狙半内字七曲下101",
        "指定緊急避難場所との住所同一": "1",
        "その他市町村長が必要と認める事項": "",
        "受入対象者": "",
        "備考": ""
      }
    },
    {
      "type": "Feature",
      "geometry": {
        "type": "Point",
        "coordinates": [
          140.533525,
          39.211973
        ]
      },
      "properties": {
        "NO": 10747,
        "共通ID": "E0520300069111",
        "都道府県名及び市町村名": "秋田県横手市",
        "施設・場所名": "秋田県立増田高等学校",
        "住所": "秋田県横手市増田町増田字一本柳137",
        "指定緊急避難場所との住所同一": "1",
        "その他市町村長が必要と認める事項": "",
        "受入対象者": "",
        "備考": ""
      }
    },
    {
      "type": "Feature",
      "geometry": {
        "type": "Point",
        "coordinates": [
          140.556739,
          39.202336
        ]
      },
      "properties": {
        "NO": 10748,
        "共通ID": "E0520300071111",
        "都道府県名及び市町村名": "秋田県横手市",
        "施設・場所名": "横手市立増田中学校",
        "住所": "秋田県横手市増田町増田字若松27",
        "指定緊急避難場所との住所同一": "1",
        "その他市町村長が必要と認める事項": "「洪水」では2階以上に避難",
        "受入対象者": "",
        "備考": ""
      }
    },
    {
      "type": "Feature",
      "geometry": {
        "type": "Point",
        "coordinates": [
          140.558497,
          39.202824
        ]
      },
      "properties": {
        "NO": 10749,
        "共通ID": "E0520300072111",
        "都道府県名及び市町村名": "秋田県横手市",
        "施設・場所名": "横手市増田体育館",
        "住所": "秋田県横手市増田町増田字若松44-4",
        "指定緊急避難場所との住所同一": "1",
        "その他市町村長が必要と認める事項": "「洪水」では2階以上に避難",
        "受入対象者": "",
        "備考": ""
      }
    },
    {
      "type": "Feature",
      "geometry": {
        "type": "Point",
        "coordinates": [
          140.550513,
          39.204719
        ]
      },
      "properties": {
        "NO": 10750,
        "共通ID": "E0520300073111",
        "都道府県名及び市町村名": "秋田県横手市",
        "施設・場所名": "横手市増田まんが美術館",
        "住所": "秋田県横手市増田町増田字新町285",
        "指定緊急避難場所との住所同一": "1",
        "その他市町村長が必要と認める事項": "「洪水」では2階以上に避難",
        "受入対象者": "",
        "備考": ""
      }
    },
    {
      "type": "Feature",
      "geometry": {
        "type": "Point",
        "coordinates": [
          140.542388,
          39.202219
        ]
      },
      "properties": {
        "NO": 10751,
        "共通ID": "E0520300074111",
        "都道府県名及び市町村名": "秋田県横手市",
        "施設・場所名": "横手市立増田小学校",
        "住所": "秋田県横手市増田町増田字土肥館141",
        "指定緊急避難場所との住所同一": "1",
        "その他市町村長が必要と認める事項": "「洪水」では2階以上に避難",
        "受入対象者": "",
        "備考": ""
      }
    },
    {
      "type": "Feature",
      "geometry": {
        "type": "Point",
        "coordinates": [
          140.542734,
          39.201265
        ]
      },
      "properties": {
        "NO": 10752,
        "共通ID": "E0520300161111",
        "都道府県名及び市町村名": "秋田県横手市",
        "施設・場所名": "増田地区多目的研修センター",
        "住所": "秋田県横手市増田町増田字土肥館173",
        "指定緊急避難場所との住所同一": "1",
        "その他市町村長が必要と認める事項": "",
        "受入対象者": "",
        "備考": ""
      }
    },
    {
      "type": "Feature",
      "geometry": {
        "type": "Point",
        "coordinates": [
          140.557735,
          39.274646
        ]
      },
      "properties": {
        "NO": 10753,
        "共通ID": "E0520300075111",
        "都道府県名及び市町村名": "秋田県横手市",
        "施設・場所名": "横手市立栄小学校",
        "住所": "秋田県横手市大屋寺内字長谷下6-3",
        "指定緊急避難場所との住所同一": "1",
        "その他市町村長が必要と認める事項": "",
        "受入対象者": "",
        "備考": ""
      }
    },
    {
      "type": "Feature",
      "geometry": {
        "type": "Point",
        "coordinates": [
          140.557778,
          39.276265
        ]
      },
      "properties": {
        "NO": 10754,
        "共通ID": "E0520300076111",
        "都道府県名及び市町村名": "秋田県横手市",
        "施設・場所名": "横手市栄地区交流センター（さかえ館）",
        "住所": "秋田県横手市大屋新町字堂ノ前32-1",
        "指定緊急避難場所との住所同一": "1",
        "その他市町村長が必要と認める事項": "",
        "受入対象者": "",
        "備考": ""
      }
    },
    {
      "type": "Feature",
      "geometry": {
        "type": "Point",
        "coordinates": [
          140.447135,
          39.372826
        ]
      },
      "properties": {
        "NO": 10755,
        "共通ID": "E0520300077111",
        "都道府県名及び市町村名": "秋田県横手市",
        "施設・場所名": "横手市川西地区交流センター",
        "住所": "秋田県横手市大森町袴形字東神成309",
        "指定緊急避難場所との住所同一": "1",
        "その他市町村長が必要と認める事項": "",
        "受入対象者": "",
        "備考": ""
      }
    },
    {
      "type": "Feature",
      "geometry": {
        "type": "Point",
        "coordinates": [
          140.283261,
          39.367636
        ]
      },
      "properties": {
        "NO": 10756,
        "共通ID": "E0520300078111",
        "都道府県名及び市町村名": "秋田県横手市",
        "施設・場所名": "横手市坂部多目的集落集会所",
        "住所": "秋田県横手市大森町坂部字小屋ノ沢1-1",
        "指定緊急避難場所との住所同一": "1",
        "その他市町村長が必要と認める事項": "",
        "受入対象者": "",
        "備考": ""
      }
    },
    {
      "type": "Feature",
      "geometry": {
        "type": "Point",
        "coordinates": [
          140.434456,
          39.355353
        ]
      },
      "properties": {
        "NO": 10757,
        "共通ID": "E0520300080111",
        "都道府県名及び市町村名": "秋田県横手市",
        "施設・場所名": "横手市大森体育館",
        "住所": "秋田県横手市大森町字持向192",
        "指定緊急避難場所との住所同一": "1",
        "その他市町村長が必要と認める事項": "",
        "受入対象者": "",
        "備考": ""
      }
    },
    {
      "type": "Feature",
      "geometry": {
        "type": "Point",
        "coordinates": [
          140.416919,
          39.351333
        ]
      },
      "properties": {
        "NO": 10758,
        "共通ID": "E0520300081111",
        "都道府県名及び市町村名": "秋田県横手市",
        "施設・場所名": "横手市大森町高齢者等保健福祉センター",
        "住所": "秋田県横手市大森町字菅生田245-206",
        "指定緊急避難場所との住所同一": "1",
        "その他市町村長が必要と認める事項": "",
        "受入対象者": "",
        "備考": ""
      }
    },
    {
      "type": "Feature",
      "geometry": {
        "type": "Point",
        "coordinates": [
          140.427233,
          39.342568
        ]
      },
      "properties": {
        "NO": 10759,
        "共通ID": "E0520300082111",
        "都道府県名及び市町村名": "秋田県横手市",
        "施設・場所名": "横手市大森地区交流センター分館",
        "住所": "秋田県横手市大森町字大森145",
        "指定緊急避難場所との住所同一": "1",
        "その他市町村長が必要と認める事項": "",
        "受入対象者": "",
        "備考": ""
      }
    },
    {
      "type": "Feature",
      "geometry": {
        "type": "Point",
        "coordinates": [
          140.433566,
          39.342988
        ]
      },
      "properties": {
        "NO": 10760,
        "共通ID": "E0520300083111",
        "都道府県名及び市町村名": "秋田県横手市",
        "施設・場所名": "横手市大森地区交流センター",
        "住所": "秋田県横手市大森町字大中島276",
        "指定緊急避難場所との住所同一": "1",
        "その他市町村長が必要と認める事項": "",
        "受入対象者": "",
        "備考": ""
      }
    },
    {
      "type": "Feature",
      "geometry": {
        "type": "Point",
        "coordinates": [
          140.425236,
          39.341705
        ]
      },
      "properties": {
        "NO": 10761,
        "共通ID": "E0520300084111",
        "都道府県名及び市町村名": "秋田県横手市",
        "施設・場所名": "横手市立大森小学校",
        "住所": "秋田県横手市大森町字中田1-4",
        "指定緊急避難場所との住所同一": "1",
        "その他市町村長が必要と認める事項": "",
        "受入対象者": "",
        "備考": ""
      }
    },
    {
      "type": "Feature",
      "geometry": {
        "type": "Point",
        "coordinates": [
          140.408541,
          39.34872
        ]
      },
      "properties": {
        "NO": 10762,
        "共通ID": "E0520300087111",
        "都道府県名及び市町村名": "秋田県横手市",
        "施設・場所名": "横手市白山体育館",
        "住所": "秋田県横手市大森町上溝字白山下72",
        "指定緊急避難場所との住所同一": "1",
        "その他市町村長が必要と認める事項": "",
        "受入対象者": "",
        "備考": ""
      }
    },
    {
      "type": "Feature",
      "geometry": {
        "type": "Point",
        "coordinates": [
          140.351948,
          39.371431
        ]
      },
      "properties": {
        "NO": 10763,
        "共通ID": "E0520300089111",
        "都道府県名及び市町村名": "秋田県横手市",
        "施設・場所名": "横手市ほろわ地区交流センター",
        "住所": "秋田県横手市大森町八沢木字前田33-2",
        "指定緊急避難場所との住所同一": "1",
        "その他市町村長が必要と認める事項": "",
        "受入対象者": "",
        "備考": ""
      }
    },
    {
      "type": "Feature",
      "geometry": {
        "type": "Point",
        "coordinates": [
          140.312306,
          39.357379
        ]
      },
      "properties": {
        "NO": 10764,
        "共通ID": "E0520300090111",
        "都道府県名及び市町村名": "秋田県横手市",
        "施設・場所名": "秋田県立保呂羽山少年自然の家",
        "住所": "秋田県横手市大森町八沢木字大木屋73",
        "指定緊急避難場所との住所同一": "1",
        "その他市町村長が必要と認める事項": "",
        "受入対象者": "",
        "備考": ""
      }
    },
    {
      "type": "Feature",
      "geometry": {
        "type": "Point",
        "coordinates": [
          140.386908,
          39.354652
        ]
      },
      "properties": {
        "NO": 10765,
        "共通ID": "E0520300091111",
        "都道府県名及び市町村名": "秋田県横手市",
        "施設・場所名": "横手市八沢木地区交流センター",
        "住所": "秋田県横手市大森町八沢木字中房29",
        "指定緊急避難場所との住所同一": "1",
        "その他市町村長が必要と認める事項": "",
        "受入対象者": "",
        "備考": ""
      }
    },
    {
      "type": "Feature",
      "geometry": {
        "type": "Point",
        "coordinates": [
          140.584541,
          39.306762
        ]
      },
      "properties": {
        "NO": 10766,
        "共通ID": "E0520300095111",
        "都道府県名及び市町村名": "秋田県横手市",
        "施設・場所名": "秋田県立横手清陵学院高等学校",
        "住所": "秋田県横手市大沢字前田147-1",
        "指定緊急避難場所との住所同一": "1",
        "その他市町村長が必要と認める事項": "「洪水」では2階以上に避難",
        "受入対象者": "",
        "備考": ""
      }
    },
    {
      "type": "Feature",
      "geometry": {
        "type": "Point",
        "coordinates": [
          140.472924,
          39.33236
        ]
      },
      "properties": {
        "NO": 10767,
        "共通ID": "E0520300096111",
        "都道府県名及び市町村名": "秋田県横手市",
        "施設・場所名": "大雄コミュニティ交流センター",
        "住所": "秋田県横手市大雄字狐塚262",
        "指定緊急避難場所との住所同一": "1",
        "その他市町村長が必要と認める事項": "",
        "受入対象者": "",
        "備考": ""
      }
    },
    {
      "type": "Feature",
      "geometry": {
        "type": "Point",
        "coordinates": [
          140.468003,
          39.333204
        ]
      },
      "properties": {
        "NO": 10768,
        "共通ID": "E0520300097111",
        "都道府県名及び市町村名": "秋田県横手市",
        "施設・場所名": "横手市大雄農業者トレーニングセンター",
        "住所": "秋田県横手市大雄字石持前34",
        "指定緊急避難場所との住所同一": "1",
        "その他市町村長が必要と認める事項": "",
        "受入対象者": "",
        "備考": ""
      }
    },
    {
      "type": "Feature",
      "geometry": {
        "type": "Point",
        "coordinates": [
          140.474628,
          39.336426
        ]
      },
      "properties": {
        "NO": 10769,
        "共通ID": "E0520300098111",
        "都道府県名及び市町村名": "秋田県横手市",
        "施設・場所名": "横手市大雄地域福祉センター（ふれあい館）",
        "住所": "秋田県横手市大雄字大関310",
        "指定緊急避難場所との住所同一": "1",
        "その他市町村長が必要と認める事項": "",
        "受入対象者": "",
        "備考": ""
      }
    },
    {
      "type": "Feature",
      "geometry": {
        "type": "Point",
        "coordinates": [
          140.482392,
          39.330755
        ]
      },
      "properties": {
        "NO": 10770,
        "共通ID": "E0520300099112",
        "都道府県名及び市町村名": "秋田県横手市",
        "施設・場所名": "横手市立大雄小学校",
        "住所": "秋田県横手市大雄字田根森50",
        "指定緊急避難場所との住所同一": "1",
        "その他市町村長が必要と認める事項": "",
        "受入対象者": "",
        "備考": ""
      }
    },
    {
      "type": "Feature",
      "geometry": {
        "type": "Point",
        "coordinates": [
          140.483733,
          39.330498
        ]
      },
      "properties": {
        "NO": 10771,
        "共通ID": "E0520300099111",
        "都道府県名及び市町村名": "秋田県横手市",
        "施設・場所名": "大雄子どもセンター",
        "住所": "秋田県横手市大雄字田根森50",
        "指定緊急避難場所との住所同一": "1",
        "その他市町村長が必要と認める事項": "",
        "受入対象者": "",
        "備考": ""
      }
    },
    {
      "type": "Feature",
      "geometry": {
        "type": "Point",
        "coordinates": [
          140.442216,
          39.332424
        ]
      },
      "properties": {
        "NO": 10772,
        "共通ID": "E0520300100111",
        "都道府県名及び市町村名": "秋田県横手市",
        "施設・場所名": "横手市立横手明峰中学校",
        "住所": "秋田県横手市大雄字藤巻西10",
        "指定緊急避難場所との住所同一": "1",
        "その他市町村長が必要と認める事項": "「洪水」では2階以上に避難",
        "受入対象者": "",
        "備考": ""
      }
    },
    {
      "type": "Feature",
      "geometry": {
        "type": "Point",
        "coordinates": [
          140.475509,
          39.334333
        ]
      },
      "properties": {
        "NO": 10773,
        "共通ID": "E0520300101111",
        "都道府県名及び市町村名": "秋田県横手市",
        "施設・場所名": "横手市大雄地区交流センター",
        "住所": "秋田県横手市大雄字本庄道下10",
        "指定緊急避難場所との住所同一": "1",
        "その他市町村長が必要と認める事項": "",
        "受入対象者": "",
        "備考": ""
      }
    },
    {
      "type": "Feature",
      "geometry": {
        "type": "Point",
        "coordinates": [
          140.521644,
          39.316712
        ]
      },
      "properties": {
        "NO": 10774,
        "共通ID": "E0520300104111",
        "都道府県名及び市町村名": "秋田県横手市",
        "施設・場所名": "横手市旭地区交流センター（旭ふれあい館）",
        "住所": "秋田県横手市猪岡字水上91-2",
        "指定緊急避難場所との住所同一": "1",
        "その他市町村長が必要と認める事項": "",
        "受入対象者": "",
        "備考": ""
      }
    },
    {
      "type": "Feature",
      "geometry": {
        "type": "Point",
        "coordinates": [
          140.561642,
          39.323407
        ]
      },
      "properties": {
        "NO": 10775,
        "共通ID": "E0520300105111",
        "都道府県名及び市町村名": "秋田県横手市",
        "施設・場所名": "横手市朝倉地区交流センター（あさくら館）",
        "住所": "秋田県横手市朝倉町6-38",
        "指定緊急避難場所との住所同一": "1",
        "その他市町村長が必要と認める事項": "「洪水」では2階以上に避難",
        "受入対象者": "",
        "備考": ""
      }
    },
    {
      "type": "Feature",
      "geometry": {
        "type": "Point",
        "coordinates": [
          140.568669,
          39.304002
        ]
      },
      "properties": {
        "NO": 10776,
        "共通ID": "E0520300111111",
        "都道府県名及び市町村名": "秋田県横手市",
        "施設・場所名": "横手市民会館",
        "住所": "秋田県横手市南町13-1",
        "指定緊急避難場所との住所同一": "1",
        "その他市町村長が必要と認める事項": null,
        "受入対象者": null,
        "備考": ""
      }
    },
    {
      "type": "Feature",
      "geometry": {
        "type": "Point",
        "coordinates": [
          140.548515,
          39.328145
        ]
      },
      "properties": {
        "NO": 10777,
        "共通ID": "E0520300114111",
        "都道府県名及び市町村名": "秋田県横手市",
        "施設・場所名": "横手市立横手北小学校",
        "住所": "秋田県横手市八幡字下長田50",
        "指定緊急避難場所との住所同一": "1",
        "その他市町村長が必要と認める事項": "「洪水」では2階以上に避難",
        "受入対象者": "",
        "備考": ""
      }
    },
    {
      "type": "Feature",
      "geometry": {
        "type": "Point",
        "coordinates": [
          140.551828,
          39.300708
        ]
      },
      "properties": {
        "NO": 10778,
        "共通ID": "E0520300115111",
        "都道府県名及び市町村名": "秋田県横手市",
        "施設・場所名": "横手市横手防災センター",
        "住所": "秋田県横手市婦気大堤字婦気前197-1",
        "指定緊急避難場所との住所同一": "1",
        "その他市町村長が必要と認める事項": "",
        "受入対象者": "",
        "備考": ""
      }
    },
    {
      "type": "Feature",
      "geometry": {
        "type": "Point",
        "coordinates": [
          140.482066,
          39.250559
        ]
      },
      "properties": {
        "NO": 10779,
        "共通ID": "E0520300116111",
        "都道府県名及び市町村名": "秋田県横手市",
        "施設・場所名": "横手市下鍋倉地区農村集落多目的共同利用施設",
        "住所": "秋田県横手市平鹿町下鍋倉字下糸畑原229",
        "指定緊急避難場所との住所同一": "1",
        "その他市町村長が必要と認める事項": "",
        "受入対象者": "",
        "備考": ""
      }
    },
    {
      "type": "Feature",
      "geometry": {
        "type": "Point",
        "coordinates": [
          140.513458,
          39.283653
        ]
      },
      "properties": {
        "NO": 10780,
        "共通ID": "E0520300117111",
        "都道府県名及び市町村名": "秋田県横手市",
        "施設・場所名": "秋田県立平成高等学校",
        "住所": "秋田県横手市平鹿町上吉田字角掛60",
        "指定緊急避難場所との住所同一": "1",
        "その他市町村長が必要と認める事項": "",
        "受入対象者": "",
        "備考": ""
      }
    },
    {
      "type": "Feature",
      "geometry": {
        "type": "Point",
        "coordinates": [
          140.506406,
          39.292055
        ]
      },
      "properties": {
        "NO": 10781,
        "共通ID": "E0520300118111",
        "都道府県名及び市町村名": "秋田県横手市",
        "施設・場所名": "横手市吉田地区交流センター",
        "住所": "秋田県横手市平鹿町上吉田字吉田95-3",
        "指定緊急避難場所との住所同一": "1",
        "その他市町村長が必要と認める事項": "",
        "受入対象者": "",
        "備考": ""
      }
    },
    {
      "type": "Feature",
      "geometry": {
        "type": "Point",
        "coordinates": [
          140.500751,
          39.293085
        ]
      },
      "properties": {
        "NO": 10782,
        "共通ID": "E0520300119111",
        "都道府県名及び市町村名": "秋田県横手市",
        "施設・場所名": "横手市立吉田小学校",
        "住所": "秋田県横手市平鹿町上吉田字大道88-3",
        "指定緊急避難場所との住所同一": "1",
        "その他市町村長が必要と認める事項": "",
        "受入対象者": "",
        "備考": ""
      }
    },
    {
      "type": "Feature",
      "geometry": {
        "type": "Point",
        "coordinates": [
          140.504317,
          39.290567
        ]
      },
      "properties": {
        "NO": 10783,
        "共通ID": "E0520300120111",
        "都道府県名及び市町村名": "秋田県横手市",
        "施設・場所名": "横手市吉田地区交流センター分館",
        "住所": "秋田県横手市平鹿町上吉田字田ノ植87",
        "指定緊急避難場所との住所同一": "1",
        "その他市町村長が必要と認める事項": "",
        "受入対象者": "",
        "備考": ""
      }
    },
    {
      "type": "Feature",
      "geometry": {
        "type": "Point",
        "coordinates": [
          140.502633,
          39.261192
        ]
      },
      "properties": {
        "NO": 10784,
        "共通ID": "E0520300121111",
        "都道府県名及び市町村名": "秋田県横手市",
        "施設・場所名": "横手市立平鹿中学校",
        "住所": "秋田県横手市平鹿町浅舞字一関向3-1",
        "指定緊急避難場所との住所同一": "1",
        "その他市町村長が必要と認める事項": "",
        "受入対象者": "",
        "備考": ""
      }
    },
    {
      "type": "Feature",
      "geometry": {
        "type": "Point",
        "coordinates": [
          140.491739,
          39.262594
        ]
      },
      "properties": {
        "NO": 10785,
        "共通ID": "E0520300122111",
        "都道府県名及び市町村名": "秋田県横手市",
        "施設・場所名": "横手市平鹿体育館",
        "住所": "秋田県横手市平鹿町浅舞字覚町後131-2",
        "指定緊急避難場所との住所同一": "1",
        "その他市町村長が必要と認める事項": "",
        "受入対象者": "",
        "備考": ""
      }
    },
    {
      "type": "Feature",
      "geometry": {
        "type": "Point",
        "coordinates": [
          140.492253,
          39.263255
        ]
      },
      "properties": {
        "NO": 10786,
        "共通ID": "E0520300123111",
        "都道府県名及び市町村名": "秋田県横手市",
        "施設・場所名": "横手市浅舞地区交流センター",
        "住所": "秋田県横手市平鹿町浅舞字覚町後140",
        "指定緊急避難場所との住所同一": "1",
        "その他市町村長が必要と認める事項": "",
        "受入対象者": "",
        "備考": ""
      }
    },
    {
      "type": "Feature",
      "geometry": {
        "type": "Point",
        "coordinates": [
          140.466622,
          39.289268
        ]
      },
      "properties": {
        "NO": 10787,
        "共通ID": "E0520300124111",
        "都道府県名及び市町村名": "秋田県横手市",
        "施設・場所名": "横手市浅舞地区交流センター蛭野分館",
        "住所": "秋田県横手市平鹿町浅舞字釜池175",
        "指定緊急避難場所との住所同一": "1",
        "その他市町村長が必要と認める事項": "「洪水」では2階以上に避難",
        "受入対象者": "",
        "備考": ""
      }
    },
    {
      "type": "Feature",
      "geometry": {
        "type": "Point",
        "coordinates": [
          140.492995,
          39.261139
        ]
      },
      "properties": {
        "NO": 10788,
        "共通ID": "E0520300126111",
        "都道府県名及び市町村名": "秋田県横手市",
        "施設・場所名": "横手市平鹿町ゆとり館",
        "住所": "秋田県横手市平鹿町浅舞字蒋沼289",
        "指定緊急避難場所との住所同一": "1",
        "その他市町村長が必要と認める事項": "",
        "受入対象者": "",
        "備考": ""
      }
    },
    {
      "type": "Feature",
      "geometry": {
        "type": "Point",
        "coordinates": [
          140.493661,
          39.260697
        ]
      },
      "properties": {
        "NO": 10789,
        "共通ID": "E0520300127111",
        "都道府県名及び市町村名": "秋田県横手市",
        "施設・場所名": "横手市農村体験学習施設「アイリスハウス」",
        "住所": "秋田県横手市平鹿町浅舞字蒋沼291",
        "指定緊急避難場所との住所同一": "1",
        "その他市町村長が必要と認める事項": "",
        "受入対象者": "",
        "備考": ""
      }
    },
    {
      "type": "Feature",
      "geometry": {
        "type": "Point",
        "coordinates": [
          140.492092,
          39.262036
        ]
      },
      "properties": {
        "NO": 10790,
        "共通ID": "E0520300128111",
        "都道府県名及び市町村名": "秋田県横手市",
        "施設・場所名": "横手市平鹿就業改善センター",
        "住所": "秋田県横手市平鹿町浅舞字蒋沼313",
        "指定緊急避難場所との住所同一": "1",
        "その他市町村長が必要と認める事項": "",
        "受入対象者": "",
        "備考": ""
      }
    },
    {
      "type": "Feature",
      "geometry": {
        "type": "Point",
        "coordinates": [
          140.478699,
          39.26296
        ]
      },
      "properties": {
        "NO": 10791,
        "共通ID": "E0520300131111",
        "都道府県名及び市町村名": "秋田県横手市",
        "施設・場所名": "横手市立浅舞小学校",
        "住所": "秋田県横手市平鹿町浅舞字八幡小路18",
        "指定緊急避難場所との住所同一": "1",
        "その他市町村長が必要と認める事項": "「洪水」では2階以上に避難",
        "受入対象者": "",
        "備考": ""
      }
    },
    {
      "type": "Feature",
      "geometry": {
        "type": "Point",
        "coordinates": [
          140.487726,
          39.260552
        ]
      },
      "properties": {
        "NO": 10792,
        "共通ID": "E0520300133111",
        "都道府県名及び市町村名": "秋田県横手市",
        "施設・場所名": "横手市平鹿防災センター",
        "住所": "秋田県横手市平鹿町浅舞字野々助158-3",
        "指定緊急避難場所との住所同一": "1",
        "その他市町村長が必要と認める事項": "",
        "受入対象者": "",
        "備考": ""
      }
    },
    {
      "type": "Feature",
      "geometry": {
        "type": "Point",
        "coordinates": [
          140.488954,
          39.260101
        ]
      },
      "properties": {
        "NO": 10793,
        "共通ID": "E0520300132111",
        "都道府県名及び市町村名": "秋田県横手市",
        "施設・場所名": "横手市浅舞スポーツセンター",
        "住所": "秋田県横手市平鹿町浅舞字野々助80-2",
        "指定緊急避難場所との住所同一": "1",
        "その他市町村長が必要と認める事項": "",
        "受入対象者": "",
        "備考": ""
      }
    },
    {
      "type": "Feature",
      "geometry": {
        "type": "Point",
        "coordinates": [
          140.535755,
          39.252582
        ]
      },
      "properties": {
        "NO": 10794,
        "共通ID": "E0520300134111",
        "都道府県名及び市町村名": "秋田県横手市",
        "施設・場所名": "横手市醍醐地区交流センター",
        "住所": "秋田県横手市平鹿町醍醐字四ツ屋76",
        "指定緊急避難場所との住所同一": "1",
        "その他市町村長が必要と認める事項": "",
        "受入対象者": "",
        "備考": ""
      }
    },
    {
      "type": "Feature",
      "geometry": {
        "type": "Point",
        "coordinates": [
          140.534497,
          39.250466
        ]
      },
      "properties": {
        "NO": 10795,
        "共通ID": "E0520300135111",
        "都道府県名及び市町村名": "秋田県横手市",
        "施設・場所名": "横手市立醍醐小学校",
        "住所": "秋田県横手市平鹿町醍醐字大橋7",
        "指定緊急避難場所との住所同一": "1",
        "その他市町村長が必要と認める事項": "",
        "受入対象者": "",
        "備考": ""
      }
    },
    {
      "type": "Feature",
      "geometry": {
        "type": "Point",
        "coordinates": [
          140.564572,
          39.233124
        ]
      },
      "properties": {
        "NO": 10796,
        "共通ID": "E0520300137111",
        "都道府県名及び市町村名": "秋田県横手市",
        "施設・場所名": "横手市平鹿ときめき交流センターゆっぷる",
        "住所": "秋田県横手市平鹿町醍醐字沢口166",
        "指定緊急避難場所との住所同一": "1",
        "その他市町村長が必要と認める事項": "",
        "受入対象者": "",
        "備考": ""
      }
    },
    {
      "type": "Feature",
      "geometry": {
        "type": "Point",
        "coordinates": [
          140.564599,
          39.337707
        ]
      },
      "properties": {
        "NO": 10797,
        "共通ID": "E0520300141111",
        "都道府県名及び市町村名": "秋田県横手市",
        "施設・場所名": "秋田県立横手高等学校",
        "住所": "秋田県横手市睦成字鶴谷地68",
        "指定緊急避難場所との住所同一": "1",
        "その他市町村長が必要と認める事項": "",
        "受入対象者": "",
        "備考": ""
      }
    },
    {
      "type": "Feature",
      "geometry": {
        "type": "Point",
        "coordinates": [
          140.560089,
          39.326075
        ]
      },
      "properties": {
        "NO": 10798,
        "共通ID": "E0520300142111",
        "都道府県名及び市町村名": "秋田県横手市",
        "施設・場所名": "横手市立朝倉小学校",
        "住所": "秋田県横手市睦成字碇185",
        "指定緊急避難場所との住所同一": "1",
        "その他市町村長が必要と認める事項": "「洪水」では2階以上に避難",
        "受入対象者": "",
        "備考": ""
      }
    },
    {
      "type": "Feature",
      "geometry": {
        "type": "Point",
        "coordinates": [
          140.566118,
          39.319744
        ]
      },
      "properties": {
        "NO": 10799,
        "共通ID": "E0520300143111",
        "都道府県名及び市町村名": "秋田県横手市",
        "施設・場所名": "横手市横手中央地区交流センター（横手市女性センター）",
        "住所": "秋田県横手市本町3-30",
        "指定緊急避難場所との住所同一": "1",
        "その他市町村長が必要と認める事項": "",
        "受入対象者": "",
        "備考": ""
      }
    },
    {
      "type": "Feature",
      "geometry": {
        "type": "Point",
        "coordinates": [
          140.433131,
          39.281616
        ]
      },
      "properties": {
        "NO": 10800,
        "共通ID": "E0520300144111",
        "都道府県名及び市町村名": "秋田県横手市",
        "施設・場所名": "秋田県立雄物川高等学校",
        "住所": "秋田県横手市雄物川町今宿字まみ袋125",
        "指定緊急避難場所との住所同一": "1",
        "その他市町村長が必要と認める事項": "",
        "受入対象者": "",
        "備考": ""
      }
    },
    {
      "type": "Feature",
      "geometry": {
        "type": "Point",
        "coordinates": [
          140.432215,
          39.289461
        ]
      },
      "properties": {
        "NO": 10801,
        "共通ID": "E0520300145111",
        "都道府県名及び市町村名": "秋田県横手市",
        "施設・場所名": "横手市雄物川体育館",
        "住所": "秋田県横手市雄物川町今宿字前田面7",
        "指定緊急避難場所との住所同一": "1",
        "その他市町村長が必要と認める事項": "",
        "受入対象者": "",
        "備考": ""
      }
    },
    {
      "type": "Feature",
      "geometry": {
        "type": "Point",
        "coordinates": [
          140.429736,
          39.289557
        ]
      },
      "properties": {
        "NO": 10802,
        "共通ID": "E0520300146111",
        "都道府県名及び市町村名": "秋田県横手市",
        "施設・場所名": "横手市立雄物川小学校",
        "住所": "秋田県横手市雄物川町今宿字鳴田35",
        "指定緊急避難場所との住所同一": "1",
        "その他市町村長が必要と認める事項": "「洪水」では2階以上に避難",
        "受入対象者": "",
        "備考": ""
      }
    },
    {
      "type": "Feature",
      "geometry": {
        "type": "Point",
        "coordinates": [
          140.432187,
          39.297552
        ]
      },
      "properties": {
        "NO": 10803,
        "共通ID": "E0520300148111",
        "都道府県名及び市町村名": "秋田県横手市",
        "施設・場所名": "横手市雄物川コミュニティセンター",
        "住所": "秋田県横手市雄物川町沼館字高畑338",
        "指定緊急避難場所との住所同一": "1",
        "その他市町村長が必要と認める事項": "「洪水」では2階以上に避難",
        "受入対象者": "",
        "備考": ""
      }
    },
    {
      "type": "Feature",
      "geometry": {
        "type": "Point",
        "coordinates": [
          140.427865,
          39.297449
        ]
      },
      "properties": {
        "NO": 10804,
        "共通ID": "E0520300149111",
        "都道府県名及び市町村名": "秋田県横手市",
        "施設・場所名": "横手市沼館地区交流センター（アスパルおものがわ）",
        "住所": "秋田県横手市雄物川町沼館字沼館140-1",
        "指定緊急避難場所との住所同一": "1",
        "その他市町村長が必要と認める事項": "",
        "受入対象者": "",
        "備考": ""
      }
    },
    {
      "type": "Feature",
      "geometry": {
        "type": "Point",
        "coordinates": [
          140.385665,
          39.274401
        ]
      },
      "properties": {
        "NO": 10805,
        "共通ID": "E0520300151111",
        "都道府県名及び市町村名": "秋田県横手市",
        "施設・場所名": "横手市大沢地区交流センター",
        "住所": "秋田県横手市雄物川町大沢字大沢182",
        "指定緊急避難場所との住所同一": "1",
        "その他市町村長が必要と認める事項": "",
        "受入対象者": "",
        "備考": ""
      }
    },
    {
      "type": "Feature",
      "geometry": {
        "type": "Point",
        "coordinates": [
          140.44858,
          39.276113
        ]
      },
      "properties": {
        "NO": 10806,
        "共通ID": "E0520300153111",
        "都道府県名及び市町村名": "秋田県横手市",
        "施設・場所名": "横手市里見地区交流センター",
        "住所": "秋田県横手市雄物川町東里字東里173-2",
        "指定緊急避難場所との住所同一": "1",
        "その他市町村長が必要と認める事項": "",
        "受入対象者": "",
        "備考": ""
      }
    },
    {
      "type": "Feature",
      "geometry": {
        "type": "Point",
        "coordinates": [
          140.381898,
          39.314237
        ]
      },
      "properties": {
        "NO": 10807,
        "共通ID": "E0520300154111",
        "都道府県名及び市町村名": "秋田県横手市",
        "施設・場所名": "横手市二井山地区農村集落多目的共同利用施設",
        "住所": "秋田県横手市雄物川町二井山字二井山153-4",
        "指定緊急避難場所との住所同一": "1",
        "その他市町村長が必要と認める事項": "",
        "受入対象者": "",
        "備考": ""
      }
    },
    {
      "type": "Feature",
      "geometry": {
        "type": "Point",
        "coordinates": [
          140.411531,
          39.272106
        ]
      },
      "properties": {
        "NO": 10808,
        "共通ID": "E0520300155111",
        "都道府県名及び市町村名": "秋田県横手市",
        "施設・場所名": "横手市福地地区交流センター",
        "住所": "秋田県横手市雄物川町柏木字後田7",
        "指定緊急避難場所との住所同一": "1",
        "その他市町村長が必要と認める事項": "",
        "受入対象者": "",
        "備考": ""
      }
    },
    {
      "type": "Feature",
      "geometry": {
        "type": "Point",
        "coordinates": [
          140.440529,
          39.324427
        ]
      },
      "properties": {
        "NO": 10809,
        "共通ID": "E0520300157111",
        "都道府県名及び市町村名": "秋田県横手市",
        "施設・場所名": "横手市館合地区交流センター",
        "住所": "秋田県横手市雄物川町薄井字薄井60",
        "指定緊急避難場所との住所同一": "1",
        "その他市町村長が必要と認める事項": "「洪水」では2階以上に避難",
        "受入対象者": "",
        "備考": ""
      }
    }
  ]
}