{
  "type": "FeatureCollection",
  "name": "052078",
  "features": [
    {
      "type": "Feature",
      "geometry": {
        "type": "Point",
        "coordinates": [
          140.584947,
          39.104903
        ]
      },
      "properties": {
        "NO": 10968,
        "共通ID": "E0520700001111",
        "都道府県名及び市町村名": "秋田県湯沢市",
        "施設・場所名": "旧稲庭小学校体育館",
        "住所": "秋田県湯沢市稲庭町字琵琶倉24",
        "指定緊急避難場所との住所同一": "1",
        "その他市町村長が必要と認める事項": "",
        "受入対象者": "",
        "備考": ""
      }
    },
    {
      "type": "Feature",
      "geometry": {
        "type": "Point",
        "coordinates": [
          140.451703,
          39.061383
        ]
      },
      "properties": {
        "NO": 10969,
        "共通ID": "E0520700002111",
        "都道府県名及び市町村名": "秋田県湯沢市",
        "施設・場所名": "横堀交流センター体育館",
        "住所": "秋田県湯沢市横堀字小田中5-2",
        "指定緊急避難場所との住所同一": "1",
        "その他市町村長が必要と認める事項": "",
        "受入対象者": "",
        "備考": ""
      }
    },
    {
      "type": "Feature",
      "geometry": {
        "type": "Point",
        "coordinates": [
          140.450543,
          39.05515
        ]
      },
      "properties": {
        "NO": 10970,
        "共通ID": "E0520700003113",
        "都道府県名及び市町村名": "秋田県湯沢市",
        "施設・場所名": "市立雄勝小学校体育館",
        "住所": "秋田県湯沢市横堀字板橋5",
        "指定緊急避難場所との住所同一": "1",
        "その他市町村長が必要と認める事項": "",
        "受入対象者": "",
        "備考": ""
      }
    },
    {
      "type": "Feature",
      "geometry": {
        "type": "Point",
        "coordinates": [
          140.449388,
          39.055545
        ]
      },
      "properties": {
        "NO": 10971,
        "共通ID": "E0520700003111",
        "都道府県名及び市町村名": "秋田県湯沢市",
        "施設・場所名": "雄心館",
        "住所": "秋田県湯沢市横堀字板橋5",
        "指定緊急避難場所との住所同一": "1",
        "その他市町村長が必要と認める事項": "",
        "受入対象者": "",
        "備考": ""
      }
    },
    {
      "type": "Feature",
      "geometry": {
        "type": "Point",
        "coordinates": [
          140.449164,
          39.054638
        ]
      },
      "properties": {
        "NO": 10972,
        "共通ID": "E0520700003112",
        "都道府県名及び市町村名": "秋田県湯沢市",
        "施設・場所名": "市立雄勝中学校体育館",
        "住所": "秋田県湯沢市横堀字板橋5",
        "指定緊急避難場所との住所同一": "1",
        "その他市町村長が必要と認める事項": "",
        "受入対象者": "",
        "備考": ""
      }
    },
    {
      "type": "Feature",
      "geometry": {
        "type": "Point",
        "coordinates": [
          140.419866,
          39.052418
        ]
      },
      "properties": {
        "NO": 10973,
        "共通ID": "E0520700004111",
        "都道府県名及び市町村名": "秋田県湯沢市",
        "施設・場所名": "旧院内小学校体育館",
        "住所": "秋田県湯沢市下院内字笈形町73-1",
        "指定緊急避難場所との住所同一": "1",
        "その他市町村長が必要と認める事項": "",
        "受入対象者": "",
        "備考": ""
      }
    },
    {
      "type": "Feature",
      "geometry": {
        "type": "Point",
        "coordinates": [
          140.590376,
          39.078078
        ]
      },
      "properties": {
        "NO": 10974,
        "共通ID": "E0520700005111",
        "都道府県名及び市町村名": "秋田県湯沢市",
        "施設・場所名": "市立皆瀬中学校体育館",
        "住所": "秋田県湯沢市皆瀬字下菅生24-1",
        "指定緊急避難場所との住所同一": "1",
        "その他市町村長が必要と認める事項": "",
        "受入対象者": "",
        "備考": ""
      }
    },
    {
      "type": "Feature",
      "geometry": {
        "type": "Point",
        "coordinates": [
          140.590347,
          39.077559
        ]
      },
      "properties": {
        "NO": 10975,
        "共通ID": "E0520700006111",
        "都道府県名及び市町村名": "秋田県湯沢市",
        "施設・場所名": "市立皆瀬小学校体育館",
        "住所": "秋田県湯沢市皆瀬字下菅生27",
        "指定緊急避難場所との住所同一": "1",
        "その他市町村長が必要と認める事項": "",
        "受入対象者": "",
        "備考": ""
      }
    },
    {
      "type": "Feature",
      "geometry": {
        "type": "Point",
        "coordinates": [
          140.586147,
          39.075552
        ]
      },
      "properties": {
        "NO": 10976,
        "共通ID": "E0520700055111",
        "都道府県名及び市町村名": "秋田県湯沢市",
        "施設・場所名": "皆瀬体育館",
        "住所": "秋田県湯沢市皆瀬字沢梨台107-1",
        "指定緊急避難場所との住所同一": "1",
        "その他市町村長が必要と認める事項": "",
        "受入対象者": "",
        "備考": ""
      }
    },
    {
      "type": "Feature",
      "geometry": {
        "type": "Point",
        "coordinates": [
          140.485904,
          39.133084
        ]
      },
      "properties": {
        "NO": 10977,
        "共通ID": "E0520700013111",
        "都道府県名及び市町村名": "秋田県湯沢市",
        "施設・場所名": "旧三関小学校体育館",
        "住所": "秋田県湯沢市関口字堀量68",
        "指定緊急避難場所との住所同一": "1",
        "その他市町村長が必要と認める事項": "",
        "受入対象者": "",
        "備考": ""
      }
    },
    {
      "type": "Feature",
      "geometry": {
        "type": "Point",
        "coordinates": [
          140.507271,
          39.200427
        ]
      },
      "properties": {
        "NO": 10978,
        "共通ID": "E0520700015111",
        "都道府県名及び市町村名": "秋田県湯沢市",
        "施設・場所名": "ふるさとふれあいセンター",
        "住所": "秋田県湯沢市岩崎字寝連沢9-4",
        "指定緊急避難場所との住所同一": "1",
        "その他市町村長が必要と認める事項": "",
        "受入対象者": "",
        "備考": ""
      }
    },
    {
      "type": "Feature",
      "geometry": {
        "type": "Point",
        "coordinates": [
          140.463962,
          39.18746
        ]
      },
      "properties": {
        "NO": 10979,
        "共通ID": "E0520700016111",
        "都道府県名及び市町村名": "秋田県湯沢市",
        "施設・場所名": "幡野地区センター",
        "住所": "秋田県湯沢市金谷字樋口123",
        "指定緊急避難場所との住所同一": "1",
        "その他市町村長が必要と認める事項": "",
        "受入対象者": "",
        "備考": ""
      }
    },
    {
      "type": "Feature",
      "geometry": {
        "type": "Point",
        "coordinates": [
          140.555849,
          39.176813
        ]
      },
      "properties": {
        "NO": 10980,
        "共通ID": "E0520700018111",
        "都道府県名及び市町村名": "秋田県湯沢市",
        "施設・場所名": "旧駒形小学校体育館",
        "住所": "秋田県湯沢市駒形町字三又前田面47-4",
        "指定緊急避難場所との住所同一": "1",
        "その他市町村長が必要と認める事項": "",
        "受入対象者": "",
        "備考": ""
      }
    },
    {
      "type": "Feature",
      "geometry": {
        "type": "Point",
        "coordinates": [
          140.531432,
          39.06528
        ]
      },
      "properties": {
        "NO": 10981,
        "共通ID": "E0520700022111",
        "都道府県名及び市町村名": "秋田県湯沢市",
        "施設・場所名": "高松地区センター",
        "住所": "秋田県湯沢市高松字上地6-2",
        "指定緊急避難場所との住所同一": "1",
        "その他市町村長が必要と認める事項": "",
        "受入対象者": "",
        "備考": ""
      }
    },
    {
      "type": "Feature",
      "geometry": {
        "type": "Point",
        "coordinates": [
          140.572208,
          39.144205
        ]
      },
      "properties": {
        "NO": 10982,
        "共通ID": "E0520700023111",
        "都道府県名及び市町村名": "秋田県湯沢市",
        "施設・場所名": "市立稲川中学校体育館",
        "住所": "秋田県湯沢市三梨町字間明田140",
        "指定緊急避難場所との住所同一": "1",
        "その他市町村長が必要と認める事項": "",
        "受入対象者": "",
        "備考": ""
      }
    },
    {
      "type": "Feature",
      "geometry": {
        "type": "Point",
        "coordinates": [
          140.567491,
          39.135226
        ]
      },
      "properties": {
        "NO": 10983,
        "共通ID": "E0520700024111",
        "都道府県名及び市町村名": "秋田県湯沢市",
        "施設・場所名": "旧三梨小学校体育館",
        "住所": "秋田県湯沢市三梨町字清水小屋244",
        "指定緊急避難場所との住所同一": "1",
        "その他市町村長が必要と認める事項": "",
        "受入対象者": "",
        "備考": ""
      }
    },
    {
      "type": "Feature",
      "geometry": {
        "type": "Point",
        "coordinates": [
          140.463592,
          39.151252
        ]
      },
      "properties": {
        "NO": 10984,
        "共通ID": "E0520700025111",
        "都道府県名及び市町村名": "秋田県湯沢市",
        "施設・場所名": "市立山田中学校体育館",
        "住所": "秋田県湯沢市山田字下館10",
        "指定緊急避難場所との住所同一": "1",
        "その他市町村長が必要と認める事項": "",
        "受入対象者": "",
        "備考": ""
      }
    },
    {
      "type": "Feature",
      "geometry": {
        "type": "Point",
        "coordinates": [
          140.456147,
          39.151892
        ]
      },
      "properties": {
        "NO": 10985,
        "共通ID": "E0520700026111",
        "都道府県名及び市町村名": "秋田県湯沢市",
        "施設・場所名": "市立山田小学校体育館",
        "住所": "秋田県湯沢市山田字土生原52",
        "指定緊急避難場所との住所同一": "1",
        "その他市町村長が必要と認める事項": "",
        "受入対象者": "",
        "備考": ""
      }
    },
    {
      "type": "Feature",
      "geometry": {
        "type": "Point",
        "coordinates": [
          140.479149,
          39.17445
        ]
      },
      "properties": {
        "NO": 10986,
        "共通ID": "E0520700028111",
        "都道府県名及び市町村名": "秋田県湯沢市",
        "施設・場所名": "総合体育館",
        "住所": "秋田県湯沢市字沖鶴140",
        "指定緊急避難場所との住所同一": "1",
        "その他市町村長が必要と認める事項": "",
        "受入対象者": "",
        "備考": ""
      }
    },
    {
      "type": "Feature",
      "geometry": {
        "type": "Point",
        "coordinates": [
          140.481161,
          39.173048
        ]
      },
      "properties": {
        "NO": 10987,
        "共通ID": "E0520700029111",
        "都道府県名及び市町村名": "秋田県湯沢市",
        "施設・場所名": "文化交流センター",
        "住所": "秋田県湯沢市字沖鶴69-5",
        "指定緊急避難場所との住所同一": "1",
        "その他市町村長が必要と認める事項": "",
        "受入対象者": "",
        "備考": ""
      }
    },
    {
      "type": "Feature",
      "geometry": {
        "type": "Point",
        "coordinates": [
          140.485871,
          39.156344
        ]
      },
      "properties": {
        "NO": 10988,
        "共通ID": "E0520700030111",
        "都道府県名及び市町村名": "秋田県湯沢市",
        "施設・場所名": "市立湯沢西小学校体育館",
        "住所": "秋田県湯沢市字万石26",
        "指定緊急避難場所との住所同一": "1",
        "その他市町村長が必要と認める事項": "",
        "受入対象者": "",
        "備考": ""
      }
    },
    {
      "type": "Feature",
      "geometry": {
        "type": "Point",
        "coordinates": [
          140.488037,
          38.982307
        ]
      },
      "properties": {
        "NO": 10989,
        "共通ID": "E0520700032112",
        "都道府県名及び市町村名": "秋田県湯沢市",
        "施設・場所名": "旧中山小学校体育館",
        "住所": "秋田県湯沢市秋ノ宮字中山222",
        "指定緊急避難場所との住所同一": "1",
        "その他市町村長が必要と認める事項": "",
        "受入対象者": "",
        "備考": ""
      }
    },
    {
      "type": "Feature",
      "geometry": {
        "type": "Point",
        "coordinates": [
          140.459755,
          39.011194
        ]
      },
      "properties": {
        "NO": 10990,
        "共通ID": "E0520700033111",
        "都道府県名及び市町村名": "秋田県湯沢市",
        "施設・場所名": "雄勝スポーツセンター体育館",
        "住所": "秋田県湯沢市秋ノ宮字中島365",
        "指定緊急避難場所との住所同一": "1",
        "その他市町村長が必要と認める事項": "",
        "受入対象者": "",
        "備考": ""
      }
    },
    {
      "type": "Feature",
      "geometry": {
        "type": "Point",
        "coordinates": [
          140.467862,
          39.081092
        ]
      },
      "properties": {
        "NO": 10991,
        "共通ID": "E0520700035111",
        "都道府県名及び市町村名": "秋田県湯沢市",
        "施設・場所名": "小野地区センター体育館",
        "住所": "秋田県湯沢市小野字油屋敷15",
        "指定緊急避難場所との住所同一": "1",
        "その他市町村長が必要と認める事項": "",
        "受入対象者": "",
        "備考": ""
      }
    },
    {
      "type": "Feature",
      "geometry": {
        "type": "Point",
        "coordinates": [
          140.487911,
          39.18234
        ]
      },
      "properties": {
        "NO": 10992,
        "共通ID": "E0520700037112",
        "都道府県名及び市町村名": "秋田県湯沢市",
        "施設・場所名": "市立湯沢東小学校体育館",
        "住所": "秋田県湯沢市杉沢新所字八斗場33",
        "指定緊急避難場所との住所同一": "1",
        "その他市町村長が必要と認める事項": "",
        "受入対象者": "",
        "備考": ""
      }
    },
    {
      "type": "Feature",
      "geometry": {
        "type": "Point",
        "coordinates": [
          140.487929,
          39.182323
        ]
      },
      "properties": {
        "NO": 10993,
        "共通ID": "E0520700037111",
        "都道府県名及び市町村名": "秋田県湯沢市",
        "施設・場所名": "市立湯沢北中学校体育館",
        "住所": "秋田県湯沢市杉沢新所字八斗場33",
        "指定緊急避難場所との住所同一": "1",
        "その他市町村長が必要と認める事項": "",
        "受入対象者": "",
        "備考": ""
      }
    },
    {
      "type": "Feature",
      "geometry": {
        "type": "Point",
        "coordinates": [
          140.486752,
          39.156169
        ]
      },
      "properties": {
        "NO": 10994,
        "共通ID": "E0520700046111",
        "都道府県名及び市町村名": "秋田県湯沢市",
        "施設・場所名": "南部文化交流センター",
        "住所": "秋田県湯沢市千石町2-4-8",
        "指定緊急避難場所との住所同一": "1",
        "その他市町村長が必要と認める事項": "",
        "受入対象者": "",
        "備考": ""
      }
    },
    {
      "type": "Feature",
      "geometry": {
        "type": "Point",
        "coordinates": [
          140.57303,
          39.14956
        ]
      },
      "properties": {
        "NO": 10995,
        "共通ID": "E0520700048111",
        "都道府県名及び市町村名": "秋田県湯沢市",
        "施設・場所名": "稲川体育館",
        "住所": "秋田県湯沢市川連町字上平城120",
        "指定緊急避難場所との住所同一": "1",
        "その他市町村長が必要と認める事項": "",
        "受入対象者": "",
        "備考": ""
      }
    },
    {
      "type": "Feature",
      "geometry": {
        "type": "Point",
        "coordinates": [
          140.57297,
          39.150114
        ]
      },
      "properties": {
        "NO": 10996,
        "共通ID": "E0520700048112",
        "都道府県名及び市町村名": "秋田県湯沢市",
        "施設・場所名": "稲川農村環境改善センター",
        "住所": "秋田県湯沢市川連町字上平城120",
        "指定緊急避難場所との住所同一": "1",
        "その他市町村長が必要と認める事項": "",
        "受入対象者": "",
        "備考": ""
      }
    },
    {
      "type": "Feature",
      "geometry": {
        "type": "Point",
        "coordinates": [
          140.566506,
          39.15396
        ]
      },
      "properties": {
        "NO": 10997,
        "共通ID": "E0520700049111",
        "都道府県名及び市町村名": "秋田県湯沢市",
        "施設・場所名": "市立稲川小学校体育館",
        "住所": "秋田県湯沢市川連町字道下86",
        "指定緊急避難場所との住所同一": "1",
        "その他市町村長が必要と認める事項": "",
        "受入対象者": "",
        "備考": ""
      }
    },
    {
      "type": "Feature",
      "geometry": {
        "type": "Point",
        "coordinates": [
          140.478982,
          39.092174
        ]
      },
      "properties": {
        "NO": 10998,
        "共通ID": "E0520700050111",
        "都道府県名及び市町村名": "秋田県湯沢市",
        "施設・場所名": "旧須川小学校体育館",
        "住所": "秋田県湯沢市相川字須川119-7",
        "指定緊急避難場所との住所同一": "1",
        "その他市町村長が必要と認める事項": "",
        "受入対象者": "",
        "備考": ""
      }
    },
    {
      "type": "Feature",
      "geometry": {
        "type": "Point",
        "coordinates": [
          140.497115,
          39.168159
        ]
      },
      "properties": {
        "NO": 10999,
        "共通ID": "E0520700052111",
        "都道府県名及び市町村名": "秋田県湯沢市",
        "施設・場所名": "県立湯沢翔北高等学校体育館",
        "住所": "秋田県湯沢市湯ノ原2-1-1",
        "指定緊急避難場所との住所同一": "1",
        "その他市町村長が必要と認める事項": "",
        "受入対象者": "",
        "備考": ""
      }
    },
    {
      "type": "Feature",
      "geometry": {
        "type": "Point",
        "coordinates": [
          140.487859,
          39.143017
        ]
      },
      "properties": {
        "NO": 11000,
        "共通ID": "E0520700053111",
        "都道府県名及び市町村名": "秋田県湯沢市",
        "施設・場所名": "市立湯沢南中学校体育館",
        "住所": "秋田県湯沢市南台6-1",
        "指定緊急避難場所との住所同一": "1",
        "その他市町村長が必要と認める事項": "",
        "受入対象者": "",
        "備考": ""
      }
    }
  ]
}