{
  "type": "FeatureCollection",
  "name": "052108",
  "features": [
    {
      "type": "Feature",
      "geometry": {
        "type": "Point",
        "coordinates": [
          140.049829,
          39.340503
        ]
      },
      "properties": {
        "NO": 11047,
        "共通ID": "E0521000004111",
        "都道府県名及び市町村名": "秋田県由利本荘市",
        "施設・場所名": "子吉地区コミュニティ防災センター",
        "住所": "秋田県由利本荘市葛法字轌田1-5",
        "指定緊急避難場所との住所同一": "1",
        "その他市町村長が必要と認める事項": null,
        "受入対象者": null,
        "備考": ""
      }
    },
    {
      "type": "Feature",
      "geometry": {
        "type": "Point",
        "coordinates": [
          140.045749,
          39.386006
        ]
      },
      "properties": {
        "NO": 11048,
        "共通ID": "E0521000005111",
        "都道府県名及び市町村名": "秋田県由利本荘市",
        "施設・場所名": "鶴舞会館",
        "住所": "秋田県由利本荘市瓦谷地1",
        "指定緊急避難場所との住所同一": "1",
        "その他市町村長が必要と認める事項": null,
        "受入対象者": null,
        "備考": ""
      }
    },
    {
      "type": "Feature",
      "geometry": {
        "type": "Point",
        "coordinates": [
          140.123976,
          39.339101
        ]
      },
      "properties": {
        "NO": 11049,
        "共通ID": "E0521000006111",
        "都道府県名及び市町村名": "秋田県由利本荘市",
        "施設・場所名": "ウッディホールこだま",
        "住所": "秋田県由利本荘市館字中島372",
        "指定緊急避難場所との住所同一": "1",
        "その他市町村長が必要と認める事項": null,
        "受入対象者": null,
        "備考": ""
      }
    },
    {
      "type": "Feature",
      "geometry": {
        "type": "Point",
        "coordinates": [
          140.125489,
          39.339839
        ]
      },
      "properties": {
        "NO": 11050,
        "共通ID": "E0521000007111",
        "都道府県名及び市町村名": "秋田県由利本荘市",
        "施設・場所名": "旧石沢小学校",
        "住所": "秋田県由利本荘市館字六角167",
        "指定緊急避難場所との住所同一": "1",
        "その他市町村長が必要と認める事項": null,
        "受入対象者": null,
        "備考": ""
      }
    },
    {
      "type": "Feature",
      "geometry": {
        "type": "Point",
        "coordinates": [
          140.124263,
          39.34005
        ]
      },
      "properties": {
        "NO": 11051,
        "共通ID": "E0521000008111",
        "都道府県名及び市町村名": "秋田県由利本荘市",
        "施設・場所名": "石沢体育館",
        "住所": "秋田県由利本荘市館字六角168",
        "指定緊急避難場所との住所同一": "1",
        "その他市町村長が必要と認める事項": null,
        "受入対象者": null,
        "備考": ""
      }
    },
    {
      "type": "Feature",
      "geometry": {
        "type": "Point",
        "coordinates": [
          140.082714,
          39.361993
        ]
      },
      "properties": {
        "NO": 11052,
        "共通ID": "E0521000009111",
        "都道府県名及び市町村名": "秋田県由利本荘市",
        "施設・場所名": "小友小学校",
        "住所": "秋田県由利本荘市館前字後田20",
        "指定緊急避難場所との住所同一": "1",
        "その他市町村長が必要と認める事項": null,
        "受入対象者": null,
        "備考": ""
      }
    },
    {
      "type": "Feature",
      "geometry": {
        "type": "Point",
        "coordinates": [
          140.085305,
          39.498709
        ]
      },
      "properties": {
        "NO": 11053,
        "共通ID": "E0521000143111",
        "都道府県名及び市町村名": "秋田県由利本荘市",
        "施設・場所名": "高城体育館",
        "住所": "秋田県由利本荘市岩城亀田亀田町字亀田町18-2",
        "指定緊急避難場所との住所同一": "1",
        "その他市町村長が必要と認める事項": "",
        "受入対象者": "",
        "備考": ""
      }
    },
    {
      "type": "Feature",
      "geometry": {
        "type": "Point",
        "coordinates": [
          140.083831,
          39.500886
        ]
      },
      "properties": {
        "NO": 11054,
        "共通ID": "E0521000011111",
        "都道府県名及び市町村名": "秋田県由利本荘市",
        "施設・場所名": "亀田出張所",
        "住所": "秋田県由利本荘市岩城亀田亀田町字田町41",
        "指定緊急避難場所との住所同一": "1",
        "その他市町村長が必要と認める事項": null,
        "受入対象者": null,
        "備考": ""
      }
    },
    {
      "type": "Feature",
      "geometry": {
        "type": "Point",
        "coordinates": [
          140.072123,
          39.502249
        ]
      },
      "properties": {
        "NO": 11055,
        "共通ID": "E0521000014111",
        "都道府県名及び市町村名": "秋田県由利本荘市",
        "施設・場所名": "岩城小学校",
        "住所": "秋田県由利本荘市岩城赤平字新鶴巻4",
        "指定緊急避難場所との住所同一": "1",
        "その他市町村長が必要と認める事項": null,
        "受入対象者": null,
        "備考": ""
      }
    },
    {
      "type": "Feature",
      "geometry": {
        "type": "Point",
        "coordinates": [
          140.055945,
          39.544019
        ]
      },
      "properties": {
        "NO": 11056,
        "共通ID": "E0521000018112",
        "都道府県名及び市町村名": "秋田県由利本荘市",
        "施設・場所名": "岩城コミュニティセンター「岩城会館」",
        "住所": "秋田県由利本荘市岩城内道川字新鶴潟50",
        "指定緊急避難場所との住所同一": "1",
        "その他市町村長が必要と認める事項": null,
        "受入対象者": null,
        "備考": ""
      }
    },
    {
      "type": "Feature",
      "geometry": {
        "type": "Point",
        "coordinates": [
          140.057479,
          39.543473
        ]
      },
      "properties": {
        "NO": 11057,
        "共通ID": "E0521000018111",
        "都道府県名及び市町村名": "秋田県由利本荘市",
        "施設・場所名": "岩城総合体育館",
        "住所": "秋田県由利本荘市岩城内道川字新鶴潟50",
        "指定緊急避難場所との住所同一": "1",
        "その他市町村長が必要と認める事項": null,
        "受入対象者": null,
        "備考": ""
      }
    },
    {
      "type": "Feature",
      "geometry": {
        "type": "Point",
        "coordinates": [
          140.055112,
          39.527683
        ]
      },
      "properties": {
        "NO": 11058,
        "共通ID": "E0521000020111",
        "都道府県名及び市町村名": "秋田県由利本荘市",
        "施設・場所名": "岩城中学校",
        "住所": "秋田県由利本荘市岩城二古字向村20-1",
        "指定緊急避難場所との住所同一": "1",
        "その他市町村長が必要と認める事項": null,
        "受入対象者": null,
        "備考": ""
      }
    },
    {
      "type": "Feature",
      "geometry": {
        "type": "Point",
        "coordinates": [
          140.097153,
          39.438929
        ]
      },
      "properties": {
        "NO": 11059,
        "共通ID": "E0521000021111",
        "都道府県名及び市町村名": "秋田県由利本荘市",
        "施設・場所名": "岩谷小学校",
        "住所": "秋田県由利本荘市岩谷町字十二柳2",
        "指定緊急避難場所との住所同一": "1",
        "その他市町村長が必要と認める事項": null,
        "受入対象者": null,
        "備考": ""
      }
    },
    {
      "type": "Feature",
      "geometry": {
        "type": "Point",
        "coordinates": [
          140.088015,
          39.442033
        ]
      },
      "properties": {
        "NO": 11060,
        "共通ID": "E0521000022111",
        "都道府県名及び市町村名": "秋田県由利本荘市",
        "施設・場所名": "由利本荘市総合体育館",
        "住所": "秋田県由利本荘市岩谷町字西越62",
        "指定緊急避難場所との住所同一": "1",
        "その他市町村長が必要と認める事項": null,
        "受入対象者": null,
        "備考": ""
      }
    },
    {
      "type": "Feature",
      "geometry": {
        "type": "Point",
        "coordinates": [
          140.096476,
          39.443589
        ]
      },
      "properties": {
        "NO": 11061,
        "共通ID": "E0521000023111",
        "都道府県名及び市町村名": "秋田県由利本荘市",
        "施設・場所名": "大内農村環境改善センター",
        "住所": "秋田県由利本荘市岩谷町字日渡100",
        "指定緊急避難場所との住所同一": "1",
        "その他市町村長が必要と認める事項": null,
        "受入対象者": null,
        "備考": ""
      }
    },
    {
      "type": "Feature",
      "geometry": {
        "type": "Point",
        "coordinates": [
          140.096811,
          39.443423
        ]
      },
      "properties": {
        "NO": 11062,
        "共通ID": "E0521000024111",
        "都道府県名及び市町村名": "秋田県由利本荘市",
        "施設・場所名": "岩谷体育館",
        "住所": "秋田県由利本荘市岩谷町字日渡78",
        "指定緊急避難場所との住所同一": "1",
        "その他市町村長が必要と認める事項": null,
        "受入対象者": null,
        "備考": ""
      }
    },
    {
      "type": "Feature",
      "geometry": {
        "type": "Point",
        "coordinates": [
          140.039215,
          39.386735
        ]
      },
      "properties": {
        "NO": 11063,
        "共通ID": "E0521000028111",
        "都道府県名及び市町村名": "秋田県由利本荘市",
        "施設・場所名": "砂子下コミュニティセンター",
        "住所": "秋田県由利本荘市砂子下15-1",
        "指定緊急避難場所との住所同一": "1",
        "その他市町村長が必要と認める事項": null,
        "受入対象者": null,
        "備考": ""
      }
    },
    {
      "type": "Feature",
      "geometry": {
        "type": "Point",
        "coordinates": [
          140.050141,
          39.384507
        ]
      },
      "properties": {
        "NO": 11064,
        "共通ID": "E0521000030111",
        "都道府県名及び市町村名": "秋田県由利本荘市",
        "施設・場所名": "尾崎小学校",
        "住所": "秋田県由利本荘市桜小路1",
        "指定緊急避難場所との住所同一": "1",
        "その他市町村長が必要と認める事項": null,
        "受入対象者": null,
        "備考": ""
      }
    },
    {
      "type": "Feature",
      "geometry": {
        "type": "Point",
        "coordinates": [
          140.07767,
          39.360046
        ]
      },
      "properties": {
        "NO": 11065,
        "共通ID": "E0521000031111",
        "都道府県名及び市町村名": "秋田県由利本荘市",
        "施設・場所名": "小友公民館",
        "住所": "秋田県由利本荘市三条字三条谷地72-1",
        "指定緊急避難場所との住所同一": "1",
        "その他市町村長が必要と認める事項": null,
        "受入対象者": null,
        "備考": ""
      }
    },
    {
      "type": "Feature",
      "geometry": {
        "type": "Point",
        "coordinates": [
          140.176957,
          39.325529
        ]
      },
      "properties": {
        "NO": 11066,
        "共通ID": "E0521000032111",
        "都道府県名及び市町村名": "秋田県由利本荘市",
        "施設・場所名": "山内公民館",
        "住所": "秋田県由利本荘市山内下長田39",
        "指定緊急避難場所との住所同一": "1",
        "その他市町村長が必要と認める事項": null,
        "受入対象者": null,
        "備考": ""
      }
    },
    {
      "type": "Feature",
      "geometry": {
        "type": "Point",
        "coordinates": [
          140.225511,
          39.414965
        ]
      },
      "properties": {
        "NO": 11067,
        "共通ID": "E0521000033111",
        "都道府県名及び市町村名": "秋田県由利本荘市",
        "施設・場所名": "上川大内出張所",
        "住所": "秋田県由利本荘市小栗山字小栗山113",
        "指定緊急避難場所との住所同一": "1",
        "その他市町村長が必要と認める事項": null,
        "受入対象者": null,
        "備考": ""
      }
    },
    {
      "type": "Feature",
      "geometry": {
        "type": "Point",
        "coordinates": [
          140.050828,
          39.37911
        ]
      },
      "properties": {
        "NO": 11068,
        "共通ID": "E0521000035111",
        "都道府県名及び市町村名": "秋田県由利本荘市",
        "施設・場所名": "本荘南部コミュニティ防災センター",
        "住所": "秋田県由利本荘市小人町42-2",
        "指定緊急避難場所との住所同一": "1",
        "その他市町村長が必要と認める事項": null,
        "受入対象者": null,
        "備考": ""
      }
    },
    {
      "type": "Feature",
      "geometry": {
        "type": "Point",
        "coordinates": [
          140.051923,
          39.497223
        ]
      },
      "properties": {
        "NO": 11069,
        "共通ID": "E0521000038111",
        "都道府県名及び市町村名": "秋田県由利本荘市",
        "施設・場所名": "松ヶ崎体育館",
        "住所": "秋田県由利本荘市松ケ崎字荒町北側181-1",
        "指定緊急避難場所との住所同一": "1",
        "その他市町村長が必要と認める事項": null,
        "受入対象者": null,
        "備考": ""
      }
    },
    {
      "type": "Feature",
      "geometry": {
        "type": "Point",
        "coordinates": [
          140.174316,
          39.449954
        ]
      },
      "properties": {
        "NO": 11070,
        "共通ID": "E0521000039111",
        "都道府県名及び市町村名": "秋田県由利本荘市",
        "施設・場所名": "大内小学校",
        "住所": "秋田県由利本荘市松本字小及位野78",
        "指定緊急避難場所との住所同一": "1",
        "その他市町村長が必要と認める事項": null,
        "受入対象者": null,
        "備考": ""
      }
    },
    {
      "type": "Feature",
      "geometry": {
        "type": "Point",
        "coordinates": [
          140.170092,
          39.453177
        ]
      },
      "properties": {
        "NO": 11071,
        "共通ID": "E0521000040111",
        "都道府県名及び市町村名": "秋田県由利本荘市",
        "施設・場所名": "下川大内出張所",
        "住所": "秋田県由利本荘市松本字上川原14-4",
        "指定緊急避難場所との住所同一": "1",
        "その他市町村長が必要と認める事項": null,
        "受入対象者": null,
        "備考": ""
      }
    },
    {
      "type": "Feature",
      "geometry": {
        "type": "Point",
        "coordinates": [
          140.063201,
          39.375591
        ]
      },
      "properties": {
        "NO": 11072,
        "共通ID": "E0521000041111",
        "都道府県名及び市町村名": "秋田県由利本荘市",
        "施設・場所名": "市民交流学習センター",
        "住所": "秋田県由利本荘市上大野16",
        "指定緊急避難場所との住所同一": "1",
        "その他市町村長が必要と認める事項": null,
        "受入対象者": null,
        "備考": ""
      }
    },
    {
      "type": "Feature",
      "geometry": {
        "type": "Point",
        "coordinates": [
          140.043878,
          39.490595
        ]
      },
      "properties": {
        "NO": 11073,
        "共通ID": "E0521000045111",
        "都道府県名及び市町村名": "秋田県由利本荘市",
        "施設・場所名": "松ヶ崎公民館",
        "住所": "秋田県由利本荘市神沢字浜辺111",
        "指定緊急避難場所との住所同一": "1",
        "その他市町村長が必要と認める事項": null,
        "受入対象者": null,
        "備考": ""
      }
    },
    {
      "type": "Feature",
      "geometry": {
        "type": "Point",
        "coordinates": [
          140.038062,
          39.385064
        ]
      },
      "properties": {
        "NO": 11074,
        "共通ID": "E0521000049111",
        "都道府県名及び市町村名": "秋田県由利本荘市",
        "施設・場所名": "鶴舞小学校",
        "住所": "秋田県由利本荘市水林",
        "指定緊急避難場所との住所同一": "1",
        "その他市町村長が必要と認める事項": null,
        "受入対象者": null,
        "備考": ""
      }
    },
    {
      "type": "Feature",
      "geometry": {
        "type": "Point",
        "coordinates": [
          140.025679,
          39.379115
        ]
      },
      "properties": {
        "NO": 11075,
        "共通ID": "E0521000051111",
        "都道府県名及び市町村名": "秋田県由利本荘市",
        "施設・場所名": "秋田県立ゆり支援学校",
        "住所": "秋田県由利本荘市水林456-3",
        "指定緊急避難場所との住所同一": "1",
        "その他市町村長が必要と認める事項": null,
        "受入対象者": null,
        "備考": ""
      }
    },
    {
      "type": "Feature",
      "geometry": {
        "type": "Point",
        "coordinates": [
          140.025767,
          39.379053
        ]
      },
      "properties": {
        "NO": 11076,
        "共通ID": "E0521000051121",
        "都道府県名及び市町村名": "秋田県由利本荘市",
        "施設・場所名": "秋田県立ゆり支援学校",
        "住所": "秋田県由利本荘市水林456-3",
        "指定緊急避難場所との住所同一": "1",
        "その他市町村長が必要と認める事項": null,
        "受入対象者": "在校生、卒業生及び事前に市が特定した者",
        "備考": ""
      }
    },
    {
      "type": "Feature",
      "geometry": {
        "type": "Point",
        "coordinates": [
          140.037838,
          39.383954
        ]
      },
      "properties": {
        "NO": 11077,
        "共通ID": "E0521000052111",
        "都道府県名及び市町村名": "秋田県由利本荘市",
        "施設・場所名": "本荘南中学校",
        "住所": "秋田県由利本荘市水林466",
        "指定緊急避難場所との住所同一": "1",
        "その他市町村長が必要と認める事項": null,
        "受入対象者": null,
        "備考": ""
      }
    },
    {
      "type": "Feature",
      "geometry": {
        "type": "Point",
        "coordinates": [
          140.004418,
          39.341757
        ]
      },
      "properties": {
        "NO": 11078,
        "共通ID": "E0521000059111",
        "都道府県名及び市町村名": "秋田県由利本荘市",
        "施設・場所名": "西目中学校",
        "住所": "秋田県由利本荘市西目町出戸字浜山6-107",
        "指定緊急避難場所との住所同一": "1",
        "その他市町村長が必要と認める事項": null,
        "受入対象者": null,
        "備考": ""
      }
    },
    {
      "type": "Feature",
      "geometry": {
        "type": "Point",
        "coordinates": [
          140.011743,
          39.341323
        ]
      },
      "properties": {
        "NO": 11079,
        "共通ID": "E0521000061111",
        "都道府県名及び市町村名": "秋田県由利本荘市",
        "施設・場所名": "西目小学校",
        "住所": "秋田県由利本荘市西目町沼田字新屋下37-1",
        "指定緊急避難場所との住所同一": "1",
        "その他市町村長が必要と認める事項": null,
        "受入対象者": null,
        "備考": ""
      }
    },
    {
      "type": "Feature",
      "geometry": {
        "type": "Point",
        "coordinates": [
          140.015199,
          39.347904
        ]
      },
      "properties": {
        "NO": 11080,
        "共通ID": "E0521000063111",
        "都道府県名及び市町村名": "秋田県由利本荘市",
        "施設・場所名": "西目公民館「シーガル」",
        "住所": "秋田県由利本荘市西目町沼田字新道下2-533",
        "指定緊急避難場所との住所同一": "1",
        "その他市町村長が必要と認める事項": null,
        "受入対象者": null,
        "備考": ""
      }
    },
    {
      "type": "Feature",
      "geometry": {
        "type": "Point",
        "coordinates": [
          140.016642,
          39.347439
        ]
      },
      "properties": {
        "NO": 11081,
        "共通ID": "E0521000064111",
        "都道府県名及び市町村名": "秋田県由利本荘市",
        "施設・場所名": "Ｂ＆Ｇ西目海洋センター",
        "住所": "秋田県由利本荘市西目町沼田字新道下2-682",
        "指定緊急避難場所との住所同一": "1",
        "その他市町村長が必要と認める事項": null,
        "受入対象者": null,
        "備考": ""
      }
    },
    {
      "type": "Feature",
      "geometry": {
        "type": "Point",
        "coordinates": [
          140.039077,
          39.402851
        ]
      },
      "properties": {
        "NO": 11082,
        "共通ID": "E0521000065111",
        "都道府県名及び市町村名": "秋田県由利本荘市",
        "施設・場所名": "新山小学校",
        "住所": "秋田県由利本荘市石脇字山ノ神11",
        "指定緊急避難場所との住所同一": "1",
        "その他市町村長が必要と認める事項": null,
        "受入対象者": null,
        "備考": ""
      }
    },
    {
      "type": "Feature",
      "geometry": {
        "type": "Point",
        "coordinates": [
          140.040133,
          39.405705
        ]
      },
      "properties": {
        "NO": 11083,
        "共通ID": "E0521000066111",
        "都道府県名及び市町村名": "秋田県由利本荘市",
        "施設・場所名": "本荘北中学校",
        "住所": "秋田県由利本荘市石脇字山ノ神11-304",
        "指定緊急避難場所との住所同一": "1",
        "その他市町村長が必要と認める事項": null,
        "受入対象者": null,
        "備考": ""
      }
    },
    {
      "type": "Feature",
      "geometry": {
        "type": "Point",
        "coordinates": [
          140.025686,
          39.403689
        ]
      },
      "properties": {
        "NO": 11084,
        "共通ID": "E0521000068111",
        "都道府県名及び市町村名": "秋田県由利本荘市",
        "施設・場所名": "由利本荘市職業訓練センター",
        "住所": "秋田県由利本荘市石脇字田尻30-22",
        "指定緊急避難場所との住所同一": "1",
        "その他市町村長が必要と認める事項": null,
        "受入対象者": null,
        "備考": ""
      }
    },
    {
      "type": "Feature",
      "geometry": {
        "type": "Point",
        "coordinates": [
          140.032151,
          39.398337
        ]
      },
      "properties": {
        "NO": 11085,
        "共通ID": "E0521000069111",
        "都道府県名及び市町村名": "秋田県由利本荘市",
        "施設・場所名": "由利本荘総合防災公園",
        "住所": "秋田県由利本荘市石脇字田尻野18",
        "指定緊急避難場所との住所同一": "1",
        "その他市町村長が必要と認める事項": null,
        "受入対象者": null,
        "備考": ""
      }
    },
    {
      "type": "Feature",
      "geometry": {
        "type": "Point",
        "coordinates": [
          140.04763,
          39.398558
        ]
      },
      "properties": {
        "NO": 11086,
        "共通ID": "E0521000071111",
        "都道府県名及び市町村名": "秋田県由利本荘市",
        "施設・場所名": "石脇体育館",
        "住所": "秋田県由利本荘市石脇字弁慶川2",
        "指定緊急避難場所との住所同一": "1",
        "その他市町村長が必要と認める事項": "",
        "受入対象者": "",
        "備考": ""
      }
    },
    {
      "type": "Feature",
      "geometry": {
        "type": "Point",
        "coordinates": [
          140.058336,
          39.399105
        ]
      },
      "properties": {
        "NO": 11087,
        "共通ID": "E0521000075111",
        "都道府県名及び市町村名": "秋田県由利本荘市",
        "施設・場所名": "南内越公民館・体育館",
        "住所": "秋田県由利本荘市川口字愛宕町192",
        "指定緊急避難場所との住所同一": "1",
        "その他市町村長が必要と認める事項": null,
        "受入対象者": null,
        "備考": ""
      }
    },
    {
      "type": "Feature",
      "geometry": {
        "type": "Point",
        "coordinates": [
          140.113933,
          39.314117
        ]
      },
      "properties": {
        "NO": 11088,
        "共通ID": "E0521000078111",
        "都道府県名及び市町村名": "秋田県由利本荘市",
        "施設・場所名": "由利小学校",
        "住所": "秋田県由利本荘市前郷字金神110",
        "指定緊急避難場所との住所同一": "1",
        "その他市町村長が必要と認める事項": null,
        "受入対象者": null,
        "備考": ""
      }
    },
    {
      "type": "Feature",
      "geometry": {
        "type": "Point",
        "coordinates": [
          140.110529,
          39.315723
        ]
      },
      "properties": {
        "NO": 11089,
        "共通ID": "E0521000079111",
        "都道府県名及び市町村名": "秋田県由利本荘市",
        "施設・場所名": "由利体育館",
        "住所": "秋田県由利本荘市前郷字御伊勢下1",
        "指定緊急避難場所との住所同一": "1",
        "その他市町村長が必要と認める事項": "",
        "受入対象者": "",
        "備考": ""
      }
    },
    {
      "type": "Feature",
      "geometry": {
        "type": "Point",
        "coordinates": [
          140.11073,
          39.316466
        ]
      },
      "properties": {
        "NO": 11090,
        "共通ID": "E0521000080111",
        "都道府県名及び市町村名": "秋田県由利本荘市",
        "施設・場所名": "由利コミュニティセンター「善隣館」",
        "住所": "秋田県由利本荘市前郷字御伊勢下24-1",
        "指定緊急避難場所との住所同一": "1",
        "その他市町村長が必要と認める事項": null,
        "受入対象者": null,
        "備考": ""
      }
    },
    {
      "type": "Feature",
      "geometry": {
        "type": "Point",
        "coordinates": [
          140.111185,
          39.317524
        ]
      },
      "properties": {
        "NO": 11091,
        "共通ID": "E0521000081111",
        "都道府県名及び市町村名": "秋田県由利本荘市",
        "施設・場所名": "Ｂ＆Ｇ由利海洋センター",
        "住所": "秋田県由利本荘市前郷字御伊勢下39-2",
        "指定緊急避難場所との住所同一": "1",
        "その他市町村長が必要と認める事項": null,
        "受入対象者": null,
        "備考": ""
      }
    },
    {
      "type": "Feature",
      "geometry": {
        "type": "Point",
        "coordinates": [
          140.111383,
          39.319507
        ]
      },
      "properties": {
        "NO": 11092,
        "共通ID": "E0521000082111",
        "都道府県名及び市町村名": "秋田県由利本荘市",
        "施設・場所名": "由利中学校",
        "住所": "秋田県由利本荘市前郷字根堀台39",
        "指定緊急避難場所との住所同一": "1",
        "その他市町村長が必要と認める事項": null,
        "受入対象者": null,
        "備考": ""
      }
    },
    {
      "type": "Feature",
      "geometry": {
        "type": "Point",
        "coordinates": [
          140.083884,
          39.43655
        ]
      },
      "properties": {
        "NO": 11093,
        "共通ID": "E0521000084111",
        "都道府県名及び市町村名": "秋田県由利本荘市",
        "施設・場所名": "大内中学校",
        "住所": "秋田県由利本荘市中館字堤台6",
        "指定緊急避難場所との住所同一": "1",
        "その他市町村長が必要と認める事項": null,
        "受入対象者": null,
        "備考": ""
      }
    },
    {
      "type": "Feature",
      "geometry": {
        "type": "Point",
        "coordinates": [
          140.162924,
          39.165515
        ]
      },
      "properties": {
        "NO": 11094,
        "共通ID": "E0521000088111",
        "都道府県名及び市町村名": "秋田県由利本荘市",
        "施設・場所名": "直根学習センター",
        "住所": "秋田県由利本荘市鳥海町下直根字大谷地37",
        "指定緊急避難場所との住所同一": "1",
        "その他市町村長が必要と認める事項": null,
        "受入対象者": null,
        "備考": ""
      }
    },
    {
      "type": "Feature",
      "geometry": {
        "type": "Point",
        "coordinates": [
          140.241182,
          39.156498
        ]
      },
      "properties": {
        "NO": 11095,
        "共通ID": "E0521000091111",
        "都道府県名及び市町村名": "秋田県由利本荘市",
        "施設・場所名": "小川農村環境改善センター",
        "住所": "秋田県由利本荘市鳥海町小川字倉隅16-1",
        "指定緊急避難場所との住所同一": "1",
        "その他市町村長が必要と認める事項": null,
        "受入対象者": null,
        "備考": ""
      }
    },
    {
      "type": "Feature",
      "geometry": {
        "type": "Point",
        "coordinates": [
          140.292598,
          39.106664
        ]
      },
      "properties": {
        "NO": 11096,
        "共通ID": "E0521000092111",
        "都道府県名及び市町村名": "秋田県由利本荘市",
        "施設・場所名": "笹子公民館",
        "住所": "秋田県由利本荘市鳥海町上笹子字下野77-2",
        "指定緊急避難場所との住所同一": "1",
        "その他市町村長が必要と認める事項": null,
        "受入対象者": null,
        "備考": ""
      }
    },
    {
      "type": "Feature",
      "geometry": {
        "type": "Point",
        "coordinates": [
          140.194446,
          39.181185
        ]
      },
      "properties": {
        "NO": 11097,
        "共通ID": "E0521000094111",
        "都道府県名及び市町村名": "秋田県由利本荘市",
        "施設・場所名": "鳥海中学校",
        "住所": "秋田県由利本荘市鳥海町上川内字西野108",
        "指定緊急避難場所との住所同一": "1",
        "その他市町村長が必要と認める事項": null,
        "受入対象者": null,
        "備考": ""
      }
    },
    {
      "type": "Feature",
      "geometry": {
        "type": "Point",
        "coordinates": [
          140.194462,
          39.181893
        ]
      },
      "properties": {
        "NO": 11098,
        "共通ID": "E0521000095111",
        "都道府県名及び市町村名": "秋田県由利本荘市",
        "施設・場所名": "鳥海小学校",
        "住所": "秋田県由利本荘市鳥海町上川内字西野14-1",
        "指定緊急避難場所との住所同一": "1",
        "その他市町村長が必要と認める事項": null,
        "受入対象者": null,
        "備考": ""
      }
    },
    {
      "type": "Feature",
      "geometry": {
        "type": "Point",
        "coordinates": [
          140.172284,
          39.149793
        ]
      },
      "properties": {
        "NO": 11099,
        "共通ID": "E0521000096111",
        "都道府県名及び市町村名": "秋田県由利本荘市",
        "施設・場所名": "直根公民館",
        "住所": "秋田県由利本荘市鳥海町中直根字中山5-2",
        "指定緊急避難場所との住所同一": "1",
        "その他市町村長が必要と認める事項": null,
        "受入対象者": null,
        "備考": ""
      }
    },
    {
      "type": "Feature",
      "geometry": {
        "type": "Point",
        "coordinates": [
          140.191201,
          39.191122
        ]
      },
      "properties": {
        "NO": 11100,
        "共通ID": "E0521000097111",
        "都道府県名及び市町村名": "秋田県由利本荘市",
        "施設・場所名": "紫水館",
        "住所": "秋田県由利本荘市鳥海町伏見字久保193",
        "指定緊急避難場所との住所同一": "1",
        "その他市町村長が必要と認める事項": null,
        "受入対象者": null,
        "備考": ""
      }
    },
    {
      "type": "Feature",
      "geometry": {
        "type": "Point",
        "coordinates": [
          140.187109,
          39.186471
        ]
      },
      "properties": {
        "NO": 11101,
        "共通ID": "E0521000099111",
        "都道府県名及び市町村名": "秋田県由利本荘市",
        "施設・場所名": "鳥海トレーニングセンター",
        "住所": "秋田県由利本荘市鳥海町伏見字折切38-3",
        "指定緊急避難場所との住所同一": "1",
        "その他市町村長が必要と認める事項": null,
        "受入対象者": null,
        "備考": ""
      }
    },
    {
      "type": "Feature",
      "geometry": {
        "type": "Point",
        "coordinates": [
          140.053077,
          39.386617
        ]
      },
      "properties": {
        "NO": 11102,
        "共通ID": "E0521000102111",
        "都道府県名及び市町村名": "秋田県由利本荘市",
        "施設・場所名": "文化交流館「カダーレ」",
        "住所": "秋田県由利本荘市東町15",
        "指定緊急避難場所との住所同一": "1",
        "その他市町村長が必要と認める事項": null,
        "受入対象者": null,
        "備考": ""
      }
    },
    {
      "type": "Feature",
      "geometry": {
        "type": "Point",
        "coordinates": [
          140.284489,
          39.286978
        ]
      },
      "properties": {
        "NO": 11103,
        "共通ID": "E0521000103111",
        "都道府県名及び市町村名": "秋田県由利本荘市",
        "施設・場所名": "玉米会館",
        "住所": "秋田県由利本荘市東由利館合字向田79-4",
        "指定緊急避難場所との住所同一": "1",
        "その他市町村長が必要と認める事項": null,
        "受入対象者": null,
        "備考": ""
      }
    },
    {
      "type": "Feature",
      "geometry": {
        "type": "Point",
        "coordinates": [
          140.281936,
          39.288168
        ]
      },
      "properties": {
        "NO": 11104,
        "共通ID": "E0521000104111",
        "都道府県名及び市町村名": "秋田県由利本荘市",
        "施設・場所名": "八塩生涯学習センター",
        "住所": "秋田県由利本荘市東由利舘合字舘野10",
        "指定緊急避難場所との住所同一": "1",
        "その他市町村長が必要と認める事項": null,
        "受入対象者": null,
        "備考": ""
      }
    },
    {
      "type": "Feature",
      "geometry": {
        "type": "Point",
        "coordinates": [
          140.262429,
          39.252538
        ]
      },
      "properties": {
        "NO": 11105,
        "共通ID": "E0521000105111",
        "都道府県名及び市町村名": "秋田県由利本荘市",
        "施設・場所名": "八塩館",
        "住所": "秋田県由利本荘市東由利黒渕字野中83-5",
        "指定緊急避難場所との住所同一": "1",
        "その他市町村長が必要と認める事項": null,
        "受入対象者": null,
        "備考": ""
      }
    },
    {
      "type": "Feature",
      "geometry": {
        "type": "Point",
        "coordinates": [
          140.230321,
          39.31265
        ]
      },
      "properties": {
        "NO": 11106,
        "共通ID": "E0521000106111",
        "都道府県名及び市町村名": "秋田県由利本荘市",
        "施設・場所名": "高瀬館",
        "住所": "秋田県由利本荘市東由利宿字上ノ台363-1",
        "指定緊急避難場所との住所同一": "1",
        "その他市町村長が必要と認める事項": null,
        "受入対象者": null,
        "備考": ""
      }
    },
    {
      "type": "Feature",
      "geometry": {
        "type": "Point",
        "coordinates": [
          140.265927,
          39.314924
        ]
      },
      "properties": {
        "NO": 11107,
        "共通ID": "E0521000108111",
        "都道府県名及び市町村名": "秋田県由利本荘市",
        "施設・場所名": "大蔵館",
        "住所": "秋田県由利本荘市東由利蔵字蔵113-1",
        "指定緊急避難場所との住所同一": "1",
        "その他市町村長が必要と認める事項": null,
        "受入対象者": null,
        "備考": ""
      }
    },
    {
      "type": "Feature",
      "geometry": {
        "type": "Point",
        "coordinates": [
          140.257005,
          39.266101
        ]
      },
      "properties": {
        "NO": 11108,
        "共通ID": "E0521000109111",
        "都道府県名及び市町村名": "秋田県由利本荘市",
        "施設・場所名": "住吉館",
        "住所": "秋田県由利本荘市東由利田代字住吉48-1",
        "指定緊急避難場所との住所同一": "1",
        "その他市町村長が必要と認める事項": null,
        "受入対象者": null,
        "備考": ""
      }
    },
    {
      "type": "Feature",
      "geometry": {
        "type": "Point",
        "coordinates": [
          140.237292,
          39.280441
        ]
      },
      "properties": {
        "NO": 11109,
        "共通ID": "E0521000110111",
        "都道府県名及び市町村名": "秋田県由利本荘市",
        "施設・場所名": "袖山館",
        "住所": "秋田県由利本荘市東由利田代字滝ノ下5-1",
        "指定緊急避難場所との住所同一": "1",
        "その他市町村長が必要と認める事項": null,
        "受入対象者": null,
        "備考": ""
      }
    },
    {
      "type": "Feature",
      "geometry": {
        "type": "Point",
        "coordinates": [
          140.274661,
          39.313469
        ]
      },
      "properties": {
        "NO": 11110,
        "共通ID": "E0521000111111",
        "都道府県名及び市町村名": "秋田県由利本荘市",
        "施設・場所名": "東由利小学校",
        "住所": "秋田県由利本荘市東由利法内字宮ノ前243",
        "指定緊急避難場所との住所同一": "1",
        "その他市町村長が必要と認める事項": null,
        "受入対象者": null,
        "備考": ""
      }
    },
    {
      "type": "Feature",
      "geometry": {
        "type": "Point",
        "coordinates": [
          140.270806,
          39.332259
        ]
      },
      "properties": {
        "NO": 11111,
        "共通ID": "E0521000112111",
        "都道府県名及び市町村名": "秋田県由利本荘市",
        "施設・場所名": "東由利克雪センター",
        "住所": "秋田県由利本荘市東由利法内字上苗代沢36",
        "指定緊急避難場所との住所同一": "1",
        "その他市町村長が必要と認める事項": null,
        "受入対象者": null,
        "備考": ""
      }
    },
    {
      "type": "Feature",
      "geometry": {
        "type": "Point",
        "coordinates": [
          140.285692,
          39.306059
        ]
      },
      "properties": {
        "NO": 11112,
        "共通ID": "E0521000113111",
        "都道府県名及び市町村名": "秋田県由利本荘市",
        "施設・場所名": "老方館",
        "住所": "秋田県由利本荘市東由利老方字五升畑13",
        "指定緊急避難場所との住所同一": "1",
        "その他市町村長が必要と認める事項": null,
        "受入対象者": null,
        "備考": ""
      }
    },
    {
      "type": "Feature",
      "geometry": {
        "type": "Point",
        "coordinates": [
          140.279726,
          39.299024
        ]
      },
      "properties": {
        "NO": 11113,
        "共通ID": "E0521000115111",
        "都道府県名及び市町村名": "秋田県由利本荘市",
        "施設・場所名": "総合開発センター「有鄰館」",
        "住所": "秋田県由利本荘市東由利老方字台山36",
        "指定緊急避難場所との住所同一": "1",
        "その他市町村長が必要と認める事項": null,
        "受入対象者": null,
        "備考": ""
      }
    },
    {
      "type": "Feature",
      "geometry": {
        "type": "Point",
        "coordinates": [
          140.280226,
          39.298223
        ]
      },
      "properties": {
        "NO": 11114,
        "共通ID": "E0521000116111",
        "都道府県名及び市町村名": "秋田県由利本荘市",
        "施設・場所名": "東由利体育館",
        "住所": "秋田県由利本荘市東由利老方字台山40",
        "指定緊急避難場所との住所同一": "1",
        "その他市町村長が必要と認める事項": "",
        "受入対象者": "",
        "備考": ""
      }
    },
    {
      "type": "Feature",
      "geometry": {
        "type": "Point",
        "coordinates": [
          140.279849,
          39.296485
        ]
      },
      "properties": {
        "NO": 11115,
        "共通ID": "E0521000117111",
        "都道府県名及び市町村名": "秋田県由利本荘市",
        "施設・場所名": "東由利中学校",
        "住所": "秋田県由利本荘市東由利老方字台山85",
        "指定緊急避難場所との住所同一": "1",
        "その他市町村長が必要と認める事項": null,
        "受入対象者": null,
        "備考": ""
      }
    },
    {
      "type": "Feature",
      "geometry": {
        "type": "Point",
        "coordinates": [
          140.076223,
          39.420117
        ]
      },
      "properties": {
        "NO": 11116,
        "共通ID": "E0521000120111",
        "都道府県名及び市町村名": "秋田県由利本荘市",
        "施設・場所名": "北内越公民館",
        "住所": "秋田県由利本荘市内越字平岡304-1",
        "指定緊急避難場所との住所同一": "1",
        "その他市町村長が必要と認める事項": null,
        "受入対象者": null,
        "備考": ""
      }
    },
    {
      "type": "Feature",
      "geometry": {
        "type": "Point",
        "coordinates": [
          140.049358,
          39.385688
        ]
      },
      "properties": {
        "NO": 11117,
        "共通ID": "E0521000122111",
        "都道府県名及び市町村名": "秋田県由利本荘市",
        "施設・場所名": "本荘由利広域行政センター",
        "住所": "秋田県由利本荘市尾崎17",
        "指定緊急避難場所との住所同一": "1",
        "その他市町村長が必要と認める事項": null,
        "受入対象者": null,
        "備考": ""
      }
    },
    {
      "type": "Feature",
      "geometry": {
        "type": "Point",
        "coordinates": [
          140.048776,
          39.390968
        ]
      },
      "properties": {
        "NO": 11118,
        "共通ID": "E0521000124111",
        "都道府県名及び市町村名": "秋田県由利本荘市",
        "施設・場所名": "コミュニティ体育館",
        "住所": "秋田県由利本荘市美倉町30",
        "指定緊急避難場所との住所同一": "1",
        "その他市町村長が必要と認める事項": null,
        "受入対象者": null,
        "備考": ""
      }
    },
    {
      "type": "Feature",
      "geometry": {
        "type": "Point",
        "coordinates": [
          140.03847,
          39.392324
        ]
      },
      "properties": {
        "NO": 11119,
        "共通ID": "E0521000126111",
        "都道府県名及び市町村名": "秋田県由利本荘市",
        "施設・場所名": "ボートプラザ「アクアパル」",
        "住所": "秋田県由利本荘市北裏地54-1",
        "指定緊急避難場所との住所同一": "1",
        "その他市町村長が必要と認める事項": null,
        "受入対象者": null,
        "備考": ""
      }
    },
    {
      "type": "Feature",
      "geometry": {
        "type": "Point",
        "coordinates": [
          140.058032,
          39.360265
        ]
      },
      "properties": {
        "NO": 11120,
        "共通ID": "E0521000128111",
        "都道府県名及び市町村名": "秋田県由利本荘市",
        "施設・場所名": "子吉公民館",
        "住所": "秋田県由利本荘市埋田字用堰北17",
        "指定緊急避難場所との住所同一": "1",
        "その他市町村長が必要と認める事項": null,
        "受入対象者": null,
        "備考": ""
      }
    },
    {
      "type": "Feature",
      "geometry": {
        "type": "Point",
        "coordinates": [
          140.135095,
          39.229797
        ]
      },
      "properties": {
        "NO": 11121,
        "共通ID": "E0521000129111",
        "都道府県名及び市町村名": "秋田県由利本荘市",
        "施設・場所名": "矢島福祉会館",
        "住所": "秋田県由利本荘市矢島町舘町25",
        "指定緊急避難場所との住所同一": "1",
        "その他市町村長が必要と認める事項": null,
        "受入対象者": null,
        "備考": ""
      }
    },
    {
      "type": "Feature",
      "geometry": {
        "type": "Point",
        "coordinates": [
          140.139565,
          39.231494
        ]
      },
      "properties": {
        "NO": 11122,
        "共通ID": "E0521000132111",
        "都道府県名及び市町村名": "秋田県由利本荘市",
        "施設・場所名": "矢島コミュニティセンター「日新館」",
        "住所": "秋田県由利本荘市矢島町七日町字羽坂64-1",
        "指定緊急避難場所との住所同一": "1",
        "その他市町村長が必要と認める事項": null,
        "受入対象者": null,
        "備考": ""
      }
    },
    {
      "type": "Feature",
      "geometry": {
        "type": "Point",
        "coordinates": [
          140.144608,
          39.233778
        ]
      },
      "properties": {
        "NO": 11123,
        "共通ID": "E0521000144111",
        "都道府県名及び市町村名": "秋田県由利本荘市",
        "施設・場所名": "矢島小学校",
        "住所": "秋田県由利本荘市矢島町七日町字助の渕1-4",
        "指定緊急避難場所との住所同一": "1",
        "その他市町村長が必要と認める事項": "",
        "受入対象者": "",
        "備考": ""
      }
    },
    {
      "type": "Feature",
      "geometry": {
        "type": "Point",
        "coordinates": [
          140.137612,
          39.225394
        ]
      },
      "properties": {
        "NO": 11124,
        "共通ID": "E0521000136111",
        "都道府県名及び市町村名": "秋田県由利本荘市",
        "施設・場所名": "矢島体育センター",
        "住所": "秋田県由利本荘市矢島町七日町字上山寺54-1",
        "指定緊急避難場所との住所同一": "1",
        "その他市町村長が必要と認める事項": null,
        "受入対象者": null,
        "備考": ""
      }
    },
    {
      "type": "Feature",
      "geometry": {
        "type": "Point",
        "coordinates": [
          140.144176,
          39.233573
        ]
      },
      "properties": {
        "NO": 11125,
        "共通ID": "E0521000137111",
        "都道府県名及び市町村名": "秋田県由利本荘市",
        "施設・場所名": "矢島中学校",
        "住所": "秋田県由利本荘市矢島町七日町助の渕1-4",
        "指定緊急避難場所との住所同一": "1",
        "その他市町村長が必要と認める事項": null,
        "受入対象者": null,
        "備考": ""
      }
    },
    {
      "type": "Feature",
      "geometry": {
        "type": "Point",
        "coordinates": [
          140.132559,
          39.23013
        ]
      },
      "properties": {
        "NO": 11126,
        "共通ID": "E0521000145111",
        "都道府県名及び市町村名": "秋田県由利本荘市",
        "施設・場所名": "矢島格技場",
        "住所": "秋田県由利本荘市矢島町矢島町1",
        "指定緊急避難場所との住所同一": "1",
        "その他市町村長が必要と認める事項": "",
        "受入対象者": "",
        "備考": ""
      }
    },
    {
      "type": "Feature",
      "geometry": {
        "type": "Point",
        "coordinates": [
          140.059122,
          39.371196
        ]
      },
      "properties": {
        "NO": 11127,
        "共通ID": "E0521000140111",
        "都道府県名及び市町村名": "秋田県由利本荘市",
        "施設・場所名": "本荘東中学校",
        "住所": "秋田県由利本荘市薬師堂字境橋77",
        "指定緊急避難場所との住所同一": "1",
        "その他市町村長が必要と認める事項": null,
        "受入対象者": null,
        "備考": ""
      }
    },
    {
      "type": "Feature",
      "geometry": {
        "type": "Point",
        "coordinates": [
          140.045494,
          39.36838
        ]
      },
      "properties": {
        "NO": 11128,
        "共通ID": "E0521000141111",
        "都道府県名及び市町村名": "秋田県由利本荘市",
        "施設・場所名": "子吉小学校",
        "住所": "秋田県由利本荘市薬師堂字堂ノ下93-2",
        "指定緊急避難場所との住所同一": "1",
        "その他市町村長が必要と認める事項": null,
        "受入対象者": null,
        "備考": ""
      }
    }
  ]
}