{
  "type": "FeatureCollection",
  "name": "052124",
  "features": [
    {
      "type": "Feature",
      "geometry": {
        "type": "Point",
        "coordinates": [
          140.560797,
          39.570546
        ]
      },
      "properties": {
        "NO": 11177,
        "共通ID": "E0521200002111",
        "都道府県名及び市町村名": "秋田県大仙市",
        "施設・場所名": "中仙公民館鴬野分館",
        "住所": "秋田県大仙市下鴬野字上村1",
        "指定緊急避難場所との住所同一": "1",
        "その他市町村長が必要と認める事項": null,
        "受入対象者": null,
        "備考": ""
      }
    },
    {
      "type": "Feature",
      "geometry": {
        "type": "Point",
        "coordinates": [
          140.258332,
          39.553092
        ]
      },
      "properties": {
        "NO": 11178,
        "共通ID": "E0521200003111",
        "都道府県名及び市町村名": "秋田県大仙市",
        "施設・場所名": "協和公民館淀川分館",
        "住所": "秋田県大仙市下淀川字車田16-1",
        "指定緊急避難場所との住所同一": "",
        "その他市町村長が必要と認める事項": "",
        "受入対象者": "",
        "備考": "（住所：秋田県大仙市協和下淀川字車田16-1）"
      }
    },
    {
      "type": "Feature",
      "geometry": {
        "type": "Point",
        "coordinates": [
          140.465346,
          39.472371
        ]
      },
      "properties": {
        "NO": 11179,
        "共通ID": "E0521200004111",
        "都道府県名及び市町村名": "秋田県大仙市",
        "施設・場所名": "花館公民館",
        "住所": "秋田県大仙市花館上町5-19",
        "指定緊急避難場所との住所同一": "",
        "その他市町村長が必要と認める事項": null,
        "受入対象者": null,
        "備考": ""
      }
    },
    {
      "type": "Feature",
      "geometry": {
        "type": "Point",
        "coordinates": [
          140.46467,
          39.472988
        ]
      },
      "properties": {
        "NO": 11180,
        "共通ID": "E0521200005111",
        "都道府県名及び市町村名": "秋田県大仙市",
        "施設・場所名": "花館小学校",
        "住所": "秋田県大仙市花館中町1-40",
        "指定緊急避難場所との住所同一": "",
        "その他市町村長が必要と認める事項": null,
        "受入対象者": null,
        "備考": ""
      }
    },
    {
      "type": "Feature",
      "geometry": {
        "type": "Point",
        "coordinates": [
          140.460103,
          39.474202
        ]
      },
      "properties": {
        "NO": 11181,
        "共通ID": "E0521200006121",
        "都道府県名及び市町村名": "秋田県大仙市",
        "施設・場所名": "特別養護老人ホーム　花館",
        "住所": "秋田県大仙市花館柳町1-51",
        "指定緊急避難場所との住所同一": "",
        "その他市町村長が必要と認める事項": null,
        "受入対象者": "要配慮者",
        "備考": ""
      }
    },
    {
      "type": "Feature",
      "geometry": {
        "type": "Point",
        "coordinates": [
          140.480027,
          39.398548
        ]
      },
      "properties": {
        "NO": 11182,
        "共通ID": "E0521200007121",
        "都道府県名及び市町村名": "秋田県大仙市",
        "施設・場所名": "特別養護老人ホーム　サン・サルビア",
        "住所": "秋田県大仙市角間川町字元道巻97",
        "指定緊急避難場所との住所同一": "",
        "その他市町村長が必要と認める事項": null,
        "受入対象者": "要配慮者",
        "備考": ""
      }
    },
    {
      "type": "Feature",
      "geometry": {
        "type": "Point",
        "coordinates": [
          140.483762,
          39.401965
        ]
      },
      "properties": {
        "NO": 11183,
        "共通ID": "E0521200008111",
        "都道府県名及び市町村名": "秋田県大仙市",
        "施設・場所名": "角間川公民館",
        "住所": "秋田県大仙市角間川町字四上町1",
        "指定緊急避難場所との住所同一": "",
        "その他市町村長が必要と認める事項": null,
        "受入対象者": null,
        "備考": ""
      }
    },
    {
      "type": "Feature",
      "geometry": {
        "type": "Point",
        "coordinates": [
          140.484662,
          39.404027
        ]
      },
      "properties": {
        "NO": 11184,
        "共通ID": "E0521200010111",
        "都道府県名及び市町村名": "秋田県大仙市",
        "施設・場所名": "角間川小学校",
        "住所": "秋田県大仙市角間川町字大浦町99",
        "指定緊急避難場所との住所同一": "1",
        "その他市町村長が必要と認める事項": null,
        "受入対象者": null,
        "備考": ""
      }
    },
    {
      "type": "Feature",
      "geometry": {
        "type": "Point",
        "coordinates": [
          140.480218,
          39.400305
        ]
      },
      "properties": {
        "NO": 11185,
        "共通ID": "E0521200011121",
        "都道府県名及び市町村名": "秋田県大仙市",
        "施設・場所名": "かわ舟の里角間川",
        "住所": "秋田県大仙市角間川町字町頭98",
        "指定緊急避難場所との住所同一": "",
        "その他市町村長が必要と認める事項": null,
        "受入対象者": "要配慮者",
        "備考": ""
      }
    },
    {
      "type": "Feature",
      "geometry": {
        "type": "Point",
        "coordinates": [
          140.375837,
          39.544555
        ]
      },
      "properties": {
        "NO": 11186,
        "共通ID": "E0521200013111",
        "都道府県名及び市町村名": "秋田県大仙市",
        "施設・場所名": "大綱交流館",
        "住所": "秋田県大仙市刈和野字愛宕下24-1",
        "指定緊急避難場所との住所同一": "1",
        "その他市町村長が必要と認める事項": null,
        "受入対象者": null,
        "備考": ""
      }
    },
    {
      "type": "Feature",
      "geometry": {
        "type": "Point",
        "coordinates": [
          140.370201,
          39.544094
        ]
      },
      "properties": {
        "NO": 11187,
        "共通ID": "E0521200015121",
        "都道府県名及び市町村名": "秋田県大仙市",
        "施設・場所名": "特別養護老人ホーム　ウォームハート",
        "住所": "秋田県大仙市刈和野字愛宕町17-1",
        "指定緊急避難場所との住所同一": "",
        "その他市町村長が必要と認める事項": null,
        "受入対象者": "要配慮者",
        "備考": ""
      }
    },
    {
      "type": "Feature",
      "geometry": {
        "type": "Point",
        "coordinates": [
          140.375639,
          39.563808
        ]
      },
      "properties": {
        "NO": 11188,
        "共通ID": "E0521200017111",
        "都道府県名及び市町村名": "秋田県大仙市",
        "施設・場所名": "西仙北ぬく森温泉ユメリア",
        "住所": "秋田県大仙市刈和野字山北ノ沢5-4",
        "指定緊急避難場所との住所同一": "",
        "その他市町村長が必要と認める事項": null,
        "受入対象者": null,
        "備考": ""
      }
    },
    {
      "type": "Feature",
      "geometry": {
        "type": "Point",
        "coordinates": [
          140.372805,
          39.550271
        ]
      },
      "properties": {
        "NO": 11189,
        "共通ID": "E0521200018111",
        "都道府県名及び市町村名": "秋田県大仙市",
        "施設・場所名": "西仙北スポーツセンター",
        "住所": "秋田県大仙市刈和野字小野17-1",
        "指定緊急避難場所との住所同一": "1",
        "その他市町村長が必要と認める事項": null,
        "受入対象者": null,
        "備考": ""
      }
    },
    {
      "type": "Feature",
      "geometry": {
        "type": "Point",
        "coordinates": [
          140.379187,
          39.550941
        ]
      },
      "properties": {
        "NO": 11190,
        "共通ID": "E0521200019111",
        "都道府県名及び市町村名": "秋田県大仙市",
        "施設・場所名": "西仙北小学校",
        "住所": "秋田県大仙市刈和野字上ノ台322",
        "指定緊急避難場所との住所同一": "1",
        "その他市町村長が必要と認める事項": null,
        "受入対象者": null,
        "備考": ""
      }
    },
    {
      "type": "Feature",
      "geometry": {
        "type": "Point",
        "coordinates": [
          140.389274,
          39.549554
        ]
      },
      "properties": {
        "NO": 11191,
        "共通ID": "E0521200020111",
        "都道府県名及び市町村名": "秋田県大仙市",
        "施設・場所名": "西仙北中学校",
        "住所": "秋田県大仙市刈和野字田中蟻塚12",
        "指定緊急避難場所との住所同一": "1",
        "その他市町村長が必要と認める事項": null,
        "受入対象者": null,
        "備考": ""
      }
    },
    {
      "type": "Feature",
      "geometry": {
        "type": "Point",
        "coordinates": [
          140.376258,
          39.556991
        ]
      },
      "properties": {
        "NO": 11192,
        "共通ID": "E0521200021111",
        "都道府県名及び市町村名": "秋田県大仙市",
        "施設・場所名": "西仙北高等学校",
        "住所": "秋田県大仙市刈和野字北ノ沢嶋山5-1",
        "指定緊急避難場所との住所同一": "1",
        "その他市町村長が必要と認める事項": null,
        "受入対象者": null,
        "備考": ""
      }
    },
    {
      "type": "Feature",
      "geometry": {
        "type": "Point",
        "coordinates": [
          140.436689,
          39.614815
        ]
      },
      "properties": {
        "NO": 11193,
        "共通ID": "E0521200194111",
        "都道府県名及び市町村名": "秋田県大仙市",
        "施設・場所名": "稲沢体育館",
        "住所": "秋田県大仙市協和稲沢字堤ヶ沢出口6",
        "指定緊急避難場所との住所同一": "1",
        "その他市町村長が必要と認める事項": "",
        "受入対象者": "",
        "備考": ""
      }
    },
    {
      "type": "Feature",
      "geometry": {
        "type": "Point",
        "coordinates": [
          140.328603,
          39.609772
        ]
      },
      "properties": {
        "NO": 11194,
        "共通ID": "E0521200024111",
        "都道府県名及び市町村名": "秋田県大仙市",
        "施設・場所名": "協和小学校",
        "住所": "秋田県大仙市協和境字岸舘37",
        "指定緊急避難場所との住所同一": "1",
        "その他市町村長が必要と認める事項": null,
        "受入対象者": null,
        "備考": ""
      }
    },
    {
      "type": "Feature",
      "geometry": {
        "type": "Point",
        "coordinates": [
          140.330491,
          39.610672
        ]
      },
      "properties": {
        "NO": 11195,
        "共通ID": "E0521200025111",
        "都道府県名及び市町村名": "秋田県大仙市",
        "施設・場所名": "協和中学校",
        "住所": "秋田県大仙市協和境字岸舘90",
        "指定緊急避難場所との住所同一": "",
        "その他市町村長が必要と認める事項": null,
        "受入対象者": null,
        "備考": ""
      }
    },
    {
      "type": "Feature",
      "geometry": {
        "type": "Point",
        "coordinates": [
          140.362242,
          39.618879
        ]
      },
      "properties": {
        "NO": 11196,
        "共通ID": "E0521200028111",
        "都道府県名及び市町村名": "秋田県大仙市",
        "施設・場所名": "道の駅協和",
        "住所": "秋田県大仙市協和荒川字新田表15-2",
        "指定緊急避難場所との住所同一": "1",
        "その他市町村長が必要と認める事項": null,
        "受入対象者": null,
        "備考": ""
      }
    },
    {
      "type": "Feature",
      "geometry": {
        "type": "Point",
        "coordinates": [
          140.267595,
          39.527765
        ]
      },
      "properties": {
        "NO": 11197,
        "共通ID": "E0521200031111",
        "都道府県名及び市町村名": "秋田県大仙市",
        "施設・場所名": "小種体育館",
        "住所": "秋田県大仙市協和小種字上鏡台2-1",
        "指定緊急避難場所との住所同一": "",
        "その他市町村長が必要と認める事項": null,
        "受入対象者": null,
        "備考": ""
      }
    },
    {
      "type": "Feature",
      "geometry": {
        "type": "Point",
        "coordinates": [
          140.266544,
          39.526976
        ]
      },
      "properties": {
        "NO": 11198,
        "共通ID": "E0521200189111",
        "都道府県名及び市町村名": "秋田県大仙市",
        "施設・場所名": "小種世代交流福祉館",
        "住所": "秋田県大仙市協和小種字上鏡台2-7",
        "指定緊急避難場所との住所同一": "",
        "その他市町村長が必要と認める事項": "",
        "受入対象者": "",
        "備考": ""
      }
    },
    {
      "type": "Feature",
      "geometry": {
        "type": "Point",
        "coordinates": [
          140.303679,
          39.598483
        ]
      },
      "properties": {
        "NO": 11199,
        "共通ID": "E0521200033121",
        "都道府県名及び市町村名": "秋田県大仙市",
        "施設・場所名": "介護老人保健施設　サングレイス",
        "住所": "秋田県大仙市協和上淀川字五百刈田278-5",
        "指定緊急避難場所との住所同一": "",
        "その他市町村長が必要と認める事項": null,
        "受入対象者": "要配慮者",
        "備考": ""
      }
    },
    {
      "type": "Feature",
      "geometry": {
        "type": "Point",
        "coordinates": [
          140.327019,
          39.646283
        ]
      },
      "properties": {
        "NO": 11200,
        "共通ID": "E0521200034111",
        "都道府県名及び市町村名": "秋田県大仙市",
        "施設・場所名": "船岡共学館",
        "住所": "秋田県大仙市協和船岡字下中野159-2",
        "指定緊急避難場所との住所同一": "1",
        "その他市町村長が必要と認める事項": null,
        "受入対象者": null,
        "備考": ""
      }
    },
    {
      "type": "Feature",
      "geometry": {
        "type": "Point",
        "coordinates": [
          140.349717,
          39.660215
        ]
      },
      "properties": {
        "NO": 11201,
        "共通ID": "E0521200036111",
        "都道府県名及び市町村名": "秋田県大仙市",
        "施設・場所名": "宇津野自治会館",
        "住所": "秋田県大仙市協和船岡字上宇津野282-2",
        "指定緊急避難場所との住所同一": "",
        "その他市町村長が必要と認める事項": null,
        "受入対象者": null,
        "備考": ""
      }
    },
    {
      "type": "Feature",
      "geometry": {
        "type": "Point",
        "coordinates": [
          140.393181,
          39.680912
        ]
      },
      "properties": {
        "NO": 11202,
        "共通ID": "E0521200037111",
        "都道府県名及び市町村名": "秋田県大仙市",
        "施設・場所名": "美山荘（協和スキー場）",
        "住所": "秋田県大仙市協和船岡字上庄内71-1",
        "指定緊急避難場所との住所同一": "1",
        "その他市町村長が必要と認める事項": "",
        "受入対象者": "",
        "備考": ""
      }
    },
    {
      "type": "Feature",
      "geometry": {
        "type": "Point",
        "coordinates": [
          140.31516,
          39.621765
        ]
      },
      "properties": {
        "NO": 11203,
        "共通ID": "E0521200039111",
        "都道府県名及び市町村名": "秋田県大仙市",
        "施設・場所名": "協和市民センター「和ピア」",
        "住所": "秋田県大仙市協和船岡字大袋1-7",
        "指定緊急避難場所との住所同一": "1",
        "その他市町村長が必要と認める事項": null,
        "受入対象者": null,
        "備考": ""
      }
    },
    {
      "type": "Feature",
      "geometry": {
        "type": "Point",
        "coordinates": [
          140.258445,
          39.574427
        ]
      },
      "properties": {
        "NO": 11204,
        "共通ID": "E0521200040121",
        "都道府県名及び市町村名": "秋田県大仙市",
        "施設・場所名": "特別養護老人ホーム　峰山荘",
        "住所": "秋田県大仙市協和中淀川字中村12-2",
        "指定緊急避難場所との住所同一": "1",
        "その他市町村長が必要と認める事項": null,
        "受入対象者": "要配慮者",
        "備考": ""
      }
    },
    {
      "type": "Feature",
      "geometry": {
        "type": "Point",
        "coordinates": [
          140.278871,
          39.581252
        ]
      },
      "properties": {
        "NO": 11205,
        "共通ID": "E0521200041111",
        "都道府県名及び市町村名": "秋田県大仙市",
        "施設・場所名": "中淀川世代交流福祉館",
        "住所": "秋田県大仙市協和中淀川字鳥屋野22",
        "指定緊急避難場所との住所同一": "",
        "その他市町村長が必要と認める事項": null,
        "受入対象者": null,
        "備考": ""
      }
    },
    {
      "type": "Feature",
      "geometry": {
        "type": "Point",
        "coordinates": [
          140.331664,
          39.566062
        ]
      },
      "properties": {
        "NO": 11206,
        "共通ID": "E0521200043111",
        "都道府県名及び市町村名": "秋田県大仙市",
        "施設・場所名": "旧峰吉川小学校体育館（協和第２体育館）",
        "住所": "秋田県大仙市協和峰吉川字南明谷地1-1",
        "指定緊急避難場所との住所同一": "",
        "その他市町村長が必要と認める事項": null,
        "受入対象者": null,
        "備考": ""
      }
    },
    {
      "type": "Feature",
      "geometry": {
        "type": "Point",
        "coordinates": [
          140.324693,
          39.566468
        ]
      },
      "properties": {
        "NO": 11207,
        "共通ID": "E0521200045111",
        "都道府県名及び市町村名": "秋田県大仙市",
        "施設・場所名": "半仙会館",
        "住所": "秋田県大仙市協和峰吉川字半仙64-320",
        "指定緊急避難場所との住所同一": "",
        "その他市町村長が必要と認める事項": null,
        "受入対象者": null,
        "備考": ""
      }
    },
    {
      "type": "Feature",
      "geometry": {
        "type": "Point",
        "coordinates": [
          140.300955,
          39.548613
        ]
      },
      "properties": {
        "NO": 11208,
        "共通ID": "E0521200046111",
        "都道府県名及び市町村名": "秋田県大仙市",
        "施設・場所名": "強首地区多目的研修施設",
        "住所": "秋田県大仙市強首字上野台1",
        "指定緊急避難場所との住所同一": "1",
        "その他市町村長が必要と認める事項": null,
        "受入対象者": null,
        "備考": ""
      }
    },
    {
      "type": "Feature",
      "geometry": {
        "type": "Point",
        "coordinates": [
          140.299994,
          39.543781
        ]
      },
      "properties": {
        "NO": 11209,
        "共通ID": "E0521200048121",
        "都道府県名及び市町村名": "秋田県大仙市",
        "施設・場所名": "介護老人保健施設　幸寿園",
        "住所": "秋田県大仙市強首字上野台12-15",
        "指定緊急避難場所との住所同一": "",
        "その他市町村長が必要と認める事項": null,
        "受入対象者": "要配慮者",
        "備考": ""
      }
    },
    {
      "type": "Feature",
      "geometry": {
        "type": "Point",
        "coordinates": [
          140.317726,
          39.534471
        ]
      },
      "properties": {
        "NO": 11210,
        "共通ID": "E0521200049122",
        "都道府県名及び市町村名": "秋田県大仙市",
        "施設・場所名": "特別養護老人ホーム　ありすの街",
        "住所": "秋田県大仙市強首字上野台23-18",
        "指定緊急避難場所との住所同一": "",
        "その他市町村長が必要と認める事項": null,
        "受入対象者": "要配慮者",
        "備考": ""
      }
    },
    {
      "type": "Feature",
      "geometry": {
        "type": "Point",
        "coordinates": [
          140.31822,
          39.533719
        ]
      },
      "properties": {
        "NO": 11211,
        "共通ID": "E0521200049121",
        "都道府県名及び市町村名": "秋田県大仙市",
        "施設・場所名": "障がい者支援施設　柏の郷",
        "住所": "秋田県大仙市強首字上野台23-18",
        "指定緊急避難場所との住所同一": "",
        "その他市町村長が必要と認める事項": null,
        "受入対象者": "要配慮者",
        "備考": ""
      }
    },
    {
      "type": "Feature",
      "geometry": {
        "type": "Point",
        "coordinates": [
          140.306067,
          39.531183
        ]
      },
      "properties": {
        "NO": 11212,
        "共通ID": "E0521200051111",
        "都道府県名及び市町村名": "秋田県大仙市",
        "施設・場所名": "西仙北西体育館",
        "住所": "秋田県大仙市強首字上野台92-1",
        "指定緊急避難場所との住所同一": "1",
        "その他市町村長が必要と認める事項": "",
        "受入対象者": "",
        "備考": ""
      }
    },
    {
      "type": "Feature",
      "geometry": {
        "type": "Point",
        "coordinates": [
          140.494862,
          39.470207
        ]
      },
      "properties": {
        "NO": 11213,
        "共通ID": "E0521200052121",
        "都道府県名及び市町村名": "秋田県大仙市",
        "施設・場所名": "ショートステイ大仙　あんり",
        "住所": "秋田県大仙市戸地谷字大和田288-1",
        "指定緊急避難場所との住所同一": "",
        "その他市町村長が必要と認める事項": null,
        "受入対象者": "要配慮者",
        "備考": ""
      }
    },
    {
      "type": "Feature",
      "geometry": {
        "type": "Point",
        "coordinates": [
          140.480445,
          39.470818
        ]
      },
      "properties": {
        "NO": 11214,
        "共通ID": "E0521200053111",
        "都道府県名及び市町村名": "秋田県大仙市",
        "施設・場所名": "はぴねす大仙",
        "住所": "秋田県大仙市幸町2-70",
        "指定緊急避難場所との住所同一": "",
        "その他市町村長が必要と認める事項": null,
        "受入対象者": null,
        "備考": ""
      }
    },
    {
      "type": "Feature",
      "geometry": {
        "type": "Point",
        "coordinates": [
          140.522467,
          39.456266
        ]
      },
      "properties": {
        "NO": 11215,
        "共通ID": "E0521200054111",
        "都道府県名及び市町村名": "秋田県大仙市",
        "施設・場所名": "高梨小学校",
        "住所": "秋田県大仙市高梨字新屋敷1",
        "指定緊急避難場所との住所同一": "1",
        "その他市町村長が必要と認める事項": null,
        "受入対象者": null,
        "備考": ""
      }
    },
    {
      "type": "Feature",
      "geometry": {
        "type": "Point",
        "coordinates": [
          140.507012,
          39.461748
        ]
      },
      "properties": {
        "NO": 11216,
        "共通ID": "E0521200055111",
        "都道府県名及び市町村名": "秋田県大仙市",
        "施設・場所名": "さくまろ館",
        "住所": "秋田県大仙市高梨字田茂木10",
        "指定緊急避難場所との住所同一": "",
        "その他市町村長が必要と認める事項": null,
        "受入対象者": null,
        "備考": ""
      }
    },
    {
      "type": "Feature",
      "geometry": {
        "type": "Point",
        "coordinates": [
          140.500017,
          39.493861
        ]
      },
      "properties": {
        "NO": 11217,
        "共通ID": "E0521200057111",
        "都道府県名及び市町村名": "秋田県大仙市",
        "施設・場所名": "四ツ屋小学校",
        "住所": "秋田県大仙市四ツ屋字下古道81",
        "指定緊急避難場所との住所同一": "1",
        "その他市町村長が必要と認める事項": null,
        "受入対象者": null,
        "備考": ""
      }
    },
    {
      "type": "Feature",
      "geometry": {
        "type": "Point",
        "coordinates": [
          140.478213,
          39.514032
        ]
      },
      "properties": {
        "NO": 11218,
        "共通ID": "E0521200058112",
        "都道府県名及び市町村名": "秋田県大仙市",
        "施設・場所名": "ふれあいの郷まつくら（交流室）",
        "住所": "秋田県大仙市四ツ屋字小又35-1",
        "指定緊急避難場所との住所同一": "1",
        "その他市町村長が必要と認める事項": "",
        "受入対象者": "",
        "備考": ""
      }
    },
    {
      "type": "Feature",
      "geometry": {
        "type": "Point",
        "coordinates": [
          140.500548,
          39.492209
        ]
      },
      "properties": {
        "NO": 11219,
        "共通ID": "E0521200059111",
        "都道府県名及び市町村名": "秋田県大仙市",
        "施設・場所名": "四ツ屋公民館",
        "住所": "秋田県大仙市四ツ屋字西下瀬162-4",
        "指定緊急避難場所との住所同一": "",
        "その他市町村長が必要と認める事項": "",
        "受入対象者": "",
        "備考": ""
      }
    },
    {
      "type": "Feature",
      "geometry": {
        "type": "Point",
        "coordinates": [
          140.467204,
          39.467305
        ]
      },
      "properties": {
        "NO": 11220,
        "共通ID": "E0521200060111",
        "都道府県名及び市町村名": "秋田県大仙市",
        "施設・場所名": "大曲中学校",
        "住所": "秋田県大仙市若竹町7-17",
        "指定緊急避難場所との住所同一": "1",
        "その他市町村長が必要と認める事項": null,
        "受入対象者": null,
        "備考": ""
      }
    },
    {
      "type": "Feature",
      "geometry": {
        "type": "Point",
        "coordinates": [
          140.414343,
          39.496057
        ]
      },
      "properties": {
        "NO": 11221,
        "共通ID": "E0521200062111",
        "都道府県名及び市町村名": "秋田県大仙市",
        "施設・場所名": "神岡農村環境改善センター",
        "住所": "秋田県大仙市神宮寺字下川原前開100",
        "指定緊急避難場所との住所同一": "",
        "その他市町村長が必要と認める事項": null,
        "受入対象者": null,
        "備考": ""
      }
    },
    {
      "type": "Feature",
      "geometry": {
        "type": "Point",
        "coordinates": [
          140.4137,
          39.496383
        ]
      },
      "properties": {
        "NO": 11222,
        "共通ID": "E0521200063111",
        "都道府県名及び市町村名": "秋田県大仙市",
        "施設・場所名": "かみおか嶽雄館",
        "住所": "秋田県大仙市神宮寺字下川原前開102",
        "指定緊急避難場所との住所同一": "1",
        "その他市町村長が必要と認める事項": null,
        "受入対象者": null,
        "備考": ""
      }
    },
    {
      "type": "Feature",
      "geometry": {
        "type": "Point",
        "coordinates": [
          140.419328,
          39.498446
        ]
      },
      "properties": {
        "NO": 11223,
        "共通ID": "E0521200066111",
        "都道府県名及び市町村名": "秋田県大仙市",
        "施設・場所名": "平和中学校",
        "住所": "秋田県大仙市神宮寺字荒屋20",
        "指定緊急避難場所との住所同一": "",
        "その他市町村長が必要と認める事項": null,
        "受入対象者": null,
        "備考": ""
      }
    },
    {
      "type": "Feature",
      "geometry": {
        "type": "Point",
        "coordinates": [
          140.42834,
          39.490851
        ]
      },
      "properties": {
        "NO": 11224,
        "共通ID": "E0521200068111",
        "都道府県名及び市町村名": "秋田県大仙市",
        "施設・場所名": "神岡小学校",
        "住所": "秋田県大仙市神宮寺字神宮寺52",
        "指定緊急避難場所との住所同一": "",
        "その他市町村長が必要と認める事項": null,
        "受入対象者": null,
        "備考": ""
      }
    },
    {
      "type": "Feature",
      "geometry": {
        "type": "Point",
        "coordinates": [
          140.414286,
          39.49696
        ]
      },
      "properties": {
        "NO": 11225,
        "共通ID": "E0521200069111",
        "都道府県名及び市町村名": "秋田県大仙市",
        "施設・場所名": "神岡体育館",
        "住所": "秋田県大仙市神宮寺字大坪街道下22",
        "指定緊急避難場所との住所同一": "",
        "その他市町村長が必要と認める事項": null,
        "受入対象者": null,
        "備考": ""
      }
    },
    {
      "type": "Feature",
      "geometry": {
        "type": "Point",
        "coordinates": [
          140.417616,
          39.49124
        ]
      },
      "properties": {
        "NO": 11226,
        "共通ID": "E0521200074121",
        "都道府県名及び市町村名": "秋田県大仙市",
        "施設・場所名": "特別養護老人ホーム　愛幸園",
        "住所": "秋田県大仙市神宮寺字本郷道南78",
        "指定緊急避難場所との住所同一": "",
        "その他市町村長が必要と認める事項": null,
        "受入対象者": "要配慮者",
        "備考": ""
      }
    },
    {
      "type": "Feature",
      "geometry": {
        "type": "Point",
        "coordinates": [
          140.425588,
          39.492169
        ]
      },
      "properties": {
        "NO": 11227,
        "共通ID": "E0521200201111",
        "都道府県名及び市町村名": "秋田県大仙市",
        "施設・場所名": "神岡市民センター",
        "住所": "秋田県大仙市神宮寺字蓮沼16-3",
        "指定緊急避難場所との住所同一": "",
        "その他市町村長が必要と認める事項": "",
        "受入対象者": "",
        "備考": "大仙市役所神岡支所内"
      }
    },
    {
      "type": "Feature",
      "geometry": {
        "type": "Point",
        "coordinates": [
          140.551415,
          39.518859
        ]
      },
      "properties": {
        "NO": 11228,
        "共通ID": "E0521200076111",
        "都道府県名及び市町村名": "秋田県大仙市",
        "施設・場所名": "中仙公民館清水分館",
        "住所": "秋田県大仙市清水字上大蔵75-1",
        "指定緊急避難場所との住所同一": "",
        "その他市町村長が必要と認める事項": null,
        "受入対象者": null,
        "備考": ""
      }
    },
    {
      "type": "Feature",
      "geometry": {
        "type": "Point",
        "coordinates": [
          140.554277,
          39.517998
        ]
      },
      "properties": {
        "NO": 11229,
        "共通ID": "E0521200077111",
        "都道府県名及び市町村名": "秋田県大仙市",
        "施設・場所名": "清水小学校",
        "住所": "秋田県大仙市清水字上大蔵86",
        "指定緊急避難場所との住所同一": "1",
        "その他市町村長が必要と認める事項": null,
        "受入対象者": null,
        "備考": ""
      }
    },
    {
      "type": "Feature",
      "geometry": {
        "type": "Point",
        "coordinates": [
          140.59626,
          39.508854
        ]
      },
      "properties": {
        "NO": 11230,
        "共通ID": "E0521200079111",
        "都道府県名及び市町村名": "秋田県大仙市",
        "施設・場所名": "太田南小学校",
        "住所": "秋田県大仙市太田町横沢字窪関南298",
        "指定緊急避難場所との住所同一": "1",
        "その他市町村長が必要と認める事項": null,
        "受入対象者": null,
        "備考": ""
      }
    },
    {
      "type": "Feature",
      "geometry": {
        "type": "Point",
        "coordinates": [
          140.597187,
          39.510629
        ]
      },
      "properties": {
        "NO": 11231,
        "共通ID": "E0521200080111",
        "都道府県名及び市町村名": "秋田県大仙市",
        "施設・場所名": "おおたコミュニティプラザ",
        "住所": "秋田県大仙市太田町横沢字窪関南501",
        "指定緊急避難場所との住所同一": "",
        "その他市町村長が必要と認める事項": null,
        "受入対象者": null,
        "備考": ""
      }
    },
    {
      "type": "Feature",
      "geometry": {
        "type": "Point",
        "coordinates": [
          140.598705,
          39.509877
        ]
      },
      "properties": {
        "NO": 11232,
        "共通ID": "E0521200081121",
        "都道府県名及び市町村名": "秋田県大仙市",
        "施設・場所名": "特別養護老人ホーム　真木苑",
        "住所": "秋田県大仙市太田町横沢字窪関南535-1",
        "指定緊急避難場所との住所同一": "",
        "その他市町村長が必要と認める事項": null,
        "受入対象者": "要配慮者",
        "備考": ""
      }
    },
    {
      "type": "Feature",
      "geometry": {
        "type": "Point",
        "coordinates": [
          140.607338,
          39.505538
        ]
      },
      "properties": {
        "NO": 11233,
        "共通ID": "E0521200083111",
        "都道府県名及び市町村名": "秋田県大仙市",
        "施設・場所名": "太田体育館",
        "住所": "秋田県大仙市太田町横沢字堤田369-1",
        "指定緊急避難場所との住所同一": "",
        "その他市町村長が必要と認める事項": null,
        "受入対象者": null,
        "備考": ""
      }
    },
    {
      "type": "Feature",
      "geometry": {
        "type": "Point",
        "coordinates": [
          140.607531,
          39.505832
        ]
      },
      "properties": {
        "NO": 11234,
        "共通ID": "E0521200084111",
        "都道府県名及び市町村名": "秋田県大仙市",
        "施設・場所名": "太田体育館クラブハウス",
        "住所": "秋田県大仙市太田町横沢字堤田369-4",
        "指定緊急避難場所との住所同一": "",
        "その他市町村長が必要と認める事項": null,
        "受入対象者": null,
        "備考": ""
      }
    },
    {
      "type": "Feature",
      "geometry": {
        "type": "Point",
        "coordinates": [
          140.583535,
          39.529369
        ]
      },
      "properties": {
        "NO": 11235,
        "共通ID": "E0521200085111",
        "都道府県名及び市町村名": "秋田県大仙市",
        "施設・場所名": "太田北小学校",
        "住所": "秋田県大仙市太田町国見字国見田115",
        "指定緊急避難場所との住所同一": "1",
        "その他市町村長が必要と認める事項": null,
        "受入対象者": null,
        "備考": ""
      }
    },
    {
      "type": "Feature",
      "geometry": {
        "type": "Point",
        "coordinates": [
          140.587494,
          39.527973
        ]
      },
      "properties": {
        "NO": 11236,
        "共通ID": "E0521200086111",
        "都道府県名及び市町村名": "秋田県大仙市",
        "施設・場所名": "太田北部地区多目的研修センター",
        "住所": "秋田県大仙市太田町国見字佐弊神161",
        "指定緊急避難場所との住所同一": "",
        "その他市町村長が必要と認める事項": null,
        "受入対象者": null,
        "備考": ""
      }
    },
    {
      "type": "Feature",
      "geometry": {
        "type": "Point",
        "coordinates": [
          140.628637,
          39.526445
        ]
      },
      "properties": {
        "NO": 11237,
        "共通ID": "E0521200087111",
        "都道府県名及び市町村名": "秋田県大仙市",
        "施設・場所名": "太田東小学校",
        "住所": "秋田県大仙市太田町斉内字高野1-93",
        "指定緊急避難場所との住所同一": "1",
        "その他市町村長が必要と認める事項": null,
        "受入対象者": null,
        "備考": ""
      }
    },
    {
      "type": "Feature",
      "geometry": {
        "type": "Point",
        "coordinates": [
          140.597133,
          39.5143
        ]
      },
      "properties": {
        "NO": 11238,
        "共通ID": "E0521200089111",
        "都道府県名及び市町村名": "秋田県大仙市",
        "施設・場所名": "太田文化プラザ",
        "住所": "秋田県大仙市太田町太田字新田田尻3-4",
        "指定緊急避難場所との住所同一": "",
        "その他市町村長が必要と認める事項": null,
        "受入対象者": null,
        "備考": ""
      }
    },
    {
      "type": "Feature",
      "geometry": {
        "type": "Point",
        "coordinates": [
          140.599631,
          39.514633
        ]
      },
      "properties": {
        "NO": 11239,
        "共通ID": "E0521200090111",
        "都道府県名及び市町村名": "秋田県大仙市",
        "施設・場所名": "太田中学校",
        "住所": "秋田県大仙市太田町太田字新田田尻76",
        "指定緊急避難場所との住所同一": "1",
        "その他市町村長が必要と認める事項": null,
        "受入対象者": null,
        "備考": ""
      }
    },
    {
      "type": "Feature",
      "geometry": {
        "type": "Point",
        "coordinates": [
          140.631161,
          39.520641
        ]
      },
      "properties": {
        "NO": 11240,
        "共通ID": "E0521200092112",
        "都道府県名及び市町村名": "秋田県大仙市",
        "施設・場所名": "太田トレーニングセンター",
        "住所": "秋田県大仙市太田町太田字築地古館27-1",
        "指定緊急避難場所との住所同一": "",
        "その他市町村長が必要と認める事項": null,
        "受入対象者": null,
        "備考": ""
      }
    },
    {
      "type": "Feature",
      "geometry": {
        "type": "Point",
        "coordinates": [
          140.630721,
          39.521098
        ]
      },
      "properties": {
        "NO": 11241,
        "共通ID": "E0521200092111",
        "都道府県名及び市町村名": "秋田県大仙市",
        "施設・場所名": "太田東部地区生活改善センター",
        "住所": "秋田県大仙市太田町太田字築地古館27-1",
        "指定緊急避難場所との住所同一": "",
        "その他市町村長が必要と認める事項": null,
        "受入対象者": null,
        "備考": ""
      }
    },
    {
      "type": "Feature",
      "geometry": {
        "type": "Point",
        "coordinates": [
          140.632245,
          39.517066
        ]
      },
      "properties": {
        "NO": 11242,
        "共通ID": "E0521200093111",
        "都道府県名及び市町村名": "秋田県大仙市",
        "施設・場所名": "敬愛館",
        "住所": "秋田県大仙市太田町東今泉字大信田472-10",
        "指定緊急避難場所との住所同一": "",
        "その他市町村長が必要と認める事項": null,
        "受入対象者": null,
        "備考": ""
      }
    },
    {
      "type": "Feature",
      "geometry": {
        "type": "Point",
        "coordinates": [
          140.479527,
          39.453387
        ]
      },
      "properties": {
        "NO": 11243,
        "共通ID": "E0521200097111",
        "都道府県名及び市町村名": "秋田県大仙市",
        "施設・場所名": "大曲高等学校",
        "住所": "秋田県大仙市大曲栄町6-7",
        "指定緊急避難場所との住所同一": "",
        "その他市町村長が必要と認める事項": null,
        "受入対象者": null,
        "備考": ""
      }
    },
    {
      "type": "Feature",
      "geometry": {
        "type": "Point",
        "coordinates": [
          140.474347,
          39.454593
        ]
      },
      "properties": {
        "NO": 11244,
        "共通ID": "E0521200098111",
        "都道府県名及び市町村名": "秋田県大仙市",
        "施設・場所名": "大曲小学校",
        "住所": "秋田県大仙市大曲花園町4-88",
        "指定緊急避難場所との住所同一": "1",
        "その他市町村長が必要と認める事項": null,
        "受入対象者": null,
        "備考": ""
      }
    },
    {
      "type": "Feature",
      "geometry": {
        "type": "Point",
        "coordinates": [
          140.473031,
          39.449286
        ]
      },
      "properties": {
        "NO": 11245,
        "共通ID": "E0521200101111",
        "都道府県名及び市町村名": "秋田県大仙市",
        "施設・場所名": "大曲農業高等学校",
        "住所": "秋田県大仙市大曲金谷町26-9",
        "指定緊急避難場所との住所同一": "1",
        "その他市町村長が必要と認める事項": null,
        "受入対象者": null,
        "備考": ""
      }
    },
    {
      "type": "Feature",
      "geometry": {
        "type": "Point",
        "coordinates": [
          140.494266,
          39.448079
        ]
      },
      "properties": {
        "NO": 11246,
        "共通ID": "E0521200105111",
        "都道府県名及び市町村名": "秋田県大仙市",
        "施設・場所名": "東大曲小学校",
        "住所": "秋田県大仙市大曲字下高畑81",
        "指定緊急避難場所との住所同一": "1",
        "その他市町村長が必要と認める事項": null,
        "受入対象者": null,
        "備考": ""
      }
    },
    {
      "type": "Feature",
      "geometry": {
        "type": "Point",
        "coordinates": [
          140.488565,
          39.452559
        ]
      },
      "properties": {
        "NO": 11247,
        "共通ID": "E0521200106111",
        "都道府県名及び市町村名": "秋田県大仙市",
        "施設・場所名": "大曲工業高等学校",
        "住所": "秋田県大仙市大曲若葉町3-17",
        "指定緊急避難場所との住所同一": "1",
        "その他市町村長が必要と認める事項": null,
        "受入対象者": null,
        "備考": ""
      }
    },
    {
      "type": "Feature",
      "geometry": {
        "type": "Point",
        "coordinates": [
          140.477526,
          39.451046
        ]
      },
      "properties": {
        "NO": 11248,
        "共通ID": "E0521200108121",
        "都道府県名及び市町村名": "秋田県大仙市",
        "施設・場所名": "グループホーム　銀のさじ",
        "住所": "秋田県大仙市大曲上栄町11-2",
        "指定緊急避難場所との住所同一": "",
        "その他市町村長が必要と認める事項": null,
        "受入対象者": "要配慮者",
        "備考": ""
      }
    },
    {
      "type": "Feature",
      "geometry": {
        "type": "Point",
        "coordinates": [
          140.451901,
          39.448072
        ]
      },
      "properties": {
        "NO": 11249,
        "共通ID": "E0521200111111",
        "都道府県名及び市町村名": "秋田県大仙市",
        "施設・場所名": "大川西根公民館",
        "住所": "秋田県大仙市大曲西根字小館10",
        "指定緊急避難場所との住所同一": "",
        "その他市町村長が必要と認める事項": null,
        "受入対象者": null,
        "備考": ""
      }
    },
    {
      "type": "Feature",
      "geometry": {
        "type": "Point",
        "coordinates": [
          140.45277,
          39.44791
        ]
      },
      "properties": {
        "NO": 11250,
        "共通ID": "E0521200112111",
        "都道府県名及び市町村名": "秋田県大仙市",
        "施設・場所名": "大川西根小学校",
        "住所": "秋田県大仙市大曲西根字小館20",
        "指定緊急避難場所との住所同一": "1",
        "その他市町村長が必要と認める事項": null,
        "受入対象者": null,
        "備考": ""
      }
    },
    {
      "type": "Feature",
      "geometry": {
        "type": "Point",
        "coordinates": [
          140.451432,
          39.459007
        ]
      },
      "properties": {
        "NO": 11251,
        "共通ID": "E0521200113111",
        "都道府県名及び市町村名": "秋田県大仙市",
        "施設・場所名": "道路維持センター",
        "住所": "秋田県大仙市大曲西根字上野150-2",
        "指定緊急避難場所との住所同一": "",
        "その他市町村長が必要と認める事項": null,
        "受入対象者": null,
        "備考": ""
      }
    },
    {
      "type": "Feature",
      "geometry": {
        "type": "Point",
        "coordinates": [
          140.471459,
          39.457849
        ]
      },
      "properties": {
        "NO": 11252,
        "共通ID": "E0521200115121",
        "都道府県名及び市町村名": "秋田県大仙市",
        "施設・場所名": "介護老人保健施設　なごみのさと",
        "住所": "秋田県大仙市大曲船場町1-1-4",
        "指定緊急避難場所との住所同一": "",
        "その他市町村長が必要と認める事項": null,
        "受入対象者": "要配慮者",
        "備考": ""
      }
    },
    {
      "type": "Feature",
      "geometry": {
        "type": "Point",
        "coordinates": [
          140.47934,
          39.46301
        ]
      },
      "properties": {
        "NO": 11253,
        "共通ID": "E0521200116111",
        "都道府県名及び市町村名": "秋田県大仙市",
        "施設・場所名": "ペアーレ大仙",
        "住所": "秋田県大仙市大曲中通町10-6",
        "指定緊急避難場所との住所同一": "",
        "その他市町村長が必要と認める事項": null,
        "受入対象者": null,
        "備考": ""
      }
    },
    {
      "type": "Feature",
      "geometry": {
        "type": "Point",
        "coordinates": [
          140.481134,
          39.451547
        ]
      },
      "properties": {
        "NO": 11254,
        "共通ID": "E0521200118111",
        "都道府県名及び市町村名": "秋田県大仙市",
        "施設・場所名": "大曲地域職業訓練センター",
        "住所": "秋田県大仙市大曲田町3-1",
        "指定緊急避難場所との住所同一": "",
        "その他市町村長が必要と認める事項": null,
        "受入対象者": null,
        "備考": ""
      }
    },
    {
      "type": "Feature",
      "geometry": {
        "type": "Point",
        "coordinates": [
          140.4772,
          39.446267
        ]
      },
      "properties": {
        "NO": 11255,
        "共通ID": "E0521200121111",
        "都道府県名及び市町村名": "秋田県大仙市",
        "施設・場所名": "サンクエスト大曲",
        "住所": "秋田県大仙市大曲日の出町1-23-3",
        "指定緊急避難場所との住所同一": "",
        "その他市町村長が必要と認める事項": null,
        "受入対象者": null,
        "備考": ""
      }
    },
    {
      "type": "Feature",
      "geometry": {
        "type": "Point",
        "coordinates": [
          140.481238,
          39.447969
        ]
      },
      "properties": {
        "NO": 11256,
        "共通ID": "E0521200125111",
        "都道府県名及び市町村名": "秋田県大仙市",
        "施設・場所名": "大曲市民会館",
        "住所": "秋田県大仙市大曲日の出町2-6-50",
        "指定緊急避難場所との住所同一": "",
        "その他市町村長が必要と認める事項": null,
        "受入対象者": null,
        "備考": ""
      }
    },
    {
      "type": "Feature",
      "geometry": {
        "type": "Point",
        "coordinates": [
          140.481238,
          39.448914
        ]
      },
      "properties": {
        "NO": 11257,
        "共通ID": "E0521200126111",
        "都道府県名及び市町村名": "秋田県大仙市",
        "施設・場所名": "大曲中央公民館",
        "住所": "秋田県大仙市大曲日の出町2-6-60",
        "指定緊急避難場所との住所同一": "",
        "その他市町村長が必要と認める事項": null,
        "受入対象者": null,
        "備考": ""
      }
    },
    {
      "type": "Feature",
      "geometry": {
        "type": "Point",
        "coordinates": [
          140.481909,
          39.448389
        ]
      },
      "properties": {
        "NO": 11258,
        "共通ID": "E0521200127111",
        "都道府県名及び市町村名": "秋田県大仙市",
        "施設・場所名": "大曲交流センター",
        "住所": "秋田県大仙市大曲日の出町2-7-53",
        "指定緊急避難場所との住所同一": "",
        "その他市町村長が必要と認める事項": null,
        "受入対象者": null,
        "備考": ""
      }
    },
    {
      "type": "Feature",
      "geometry": {
        "type": "Point",
        "coordinates": [
          140.309205,
          39.523112
        ]
      },
      "properties": {
        "NO": 11259,
        "共通ID": "E0521200131111",
        "都道府県名及び市町村名": "秋田県大仙市",
        "施設・場所名": "西仙北林業者等健康増進施設",
        "住所": "秋田県大仙市大沢郷宿字横山59-2",
        "指定緊急避難場所との住所同一": "1",
        "その他市町村長が必要と認める事項": null,
        "受入対象者": null,
        "備考": ""
      }
    },
    {
      "type": "Feature",
      "geometry": {
        "type": "Point",
        "coordinates": [
          140.533075,
          39.538427
        ]
      },
      "properties": {
        "NO": 11260,
        "共通ID": "E0521200133111",
        "都道府県名及び市町村名": "秋田県大仙市",
        "施設・場所名": "道の駅なかせんこめこめプラザ",
        "住所": "秋田県大仙市長野字高畑95-1",
        "指定緊急避難場所との住所同一": "1",
        "その他市町村長が必要と認める事項": null,
        "受入対象者": null,
        "備考": ""
      }
    },
    {
      "type": "Feature",
      "geometry": {
        "type": "Point",
        "coordinates": [
          140.539607,
          39.540496
        ]
      },
      "properties": {
        "NO": 11261,
        "共通ID": "E0521200134111",
        "都道府県名及び市町村名": "秋田県大仙市",
        "施設・場所名": "中仙中学校",
        "住所": "秋田県大仙市長野字新山5-1",
        "指定緊急避難場所との住所同一": "1",
        "その他市町村長が必要と認める事項": null,
        "受入対象者": null,
        "備考": ""
      }
    },
    {
      "type": "Feature",
      "geometry": {
        "type": "Point",
        "coordinates": [
          140.544409,
          39.545035
        ]
      },
      "properties": {
        "NO": 11262,
        "共通ID": "E0521200135111",
        "都道府県名及び市町村名": "秋田県大仙市",
        "施設・場所名": "中仙農村環境改善センター",
        "住所": "秋田県大仙市長野字茶畑108",
        "指定緊急避難場所との住所同一": "",
        "その他市町村長が必要と認める事項": null,
        "受入対象者": null,
        "備考": ""
      }
    },
    {
      "type": "Feature",
      "geometry": {
        "type": "Point",
        "coordinates": [
          140.519714,
          39.536373
        ]
      },
      "properties": {
        "NO": 11263,
        "共通ID": "E0521200136111",
        "都道府県名及び市町村名": "秋田県大仙市",
        "施設・場所名": "八乙女交流センター",
        "住所": "秋田県大仙市長野字長野山88",
        "指定緊急避難場所との住所同一": "",
        "その他市町村長が必要と認める事項": null,
        "受入対象者": null,
        "備考": ""
      }
    },
    {
      "type": "Feature",
      "geometry": {
        "type": "Point",
        "coordinates": [
          140.532228,
          39.543075
        ]
      },
      "properties": {
        "NO": 11264,
        "共通ID": "E0521200137111",
        "都道府県名及び市町村名": "秋田県大仙市",
        "施設・場所名": "中仙小学校",
        "住所": "秋田県大仙市長野字六日町215",
        "指定緊急避難場所との住所同一": "",
        "その他市町村長が必要と認める事項": null,
        "受入対象者": null,
        "備考": ""
      }
    },
    {
      "type": "Feature",
      "geometry": {
        "type": "Point",
        "coordinates": [
          140.402618,
          39.54882
        ]
      },
      "properties": {
        "NO": 11265,
        "共通ID": "E0521200138111",
        "都道府県名及び市町村名": "秋田県大仙市",
        "施設・場所名": "西仙北農村環境改善センター",
        "住所": "秋田県大仙市土川字刈布沢24-48",
        "指定緊急避難場所との住所同一": "1",
        "その他市町村長が必要と認める事項": null,
        "受入対象者": null,
        "備考": ""
      }
    },
    {
      "type": "Feature",
      "geometry": {
        "type": "Point",
        "coordinates": [
          140.45195,
          39.545972
        ]
      },
      "properties": {
        "NO": 11266,
        "共通ID": "E0521200141111",
        "都道府県名及び市町村名": "秋田県大仙市",
        "施設・場所名": "小杉山地区生涯学習センター",
        "住所": "秋田県大仙市土川字小杉山沢ノ内焼山1-2",
        "指定緊急避難場所との住所同一": "1",
        "その他市町村長が必要と認める事項": null,
        "受入対象者": null,
        "備考": ""
      }
    },
    {
      "type": "Feature",
      "geometry": {
        "type": "Point",
        "coordinates": [
          140.407935,
          39.559872
        ]
      },
      "properties": {
        "NO": 11267,
        "共通ID": "E0521200143111",
        "都道府県名及び市町村名": "秋田県大仙市",
        "施設・場所名": "西今泉公民館",
        "住所": "秋田県大仙市土川字大楽182",
        "指定緊急避難場所との住所同一": "",
        "その他市町村長が必要と認める事項": null,
        "受入対象者": null,
        "備考": ""
      }
    },
    {
      "type": "Feature",
      "geometry": {
        "type": "Point",
        "coordinates": [
          140.494855,
          39.412519
        ]
      },
      "properties": {
        "NO": 11268,
        "共通ID": "E0521200146111",
        "都道府県名及び市町村名": "秋田県大仙市",
        "施設・場所名": "藤木公民館",
        "住所": "秋田県大仙市藤木字乙本藤木8",
        "指定緊急避難場所との住所同一": "",
        "その他市町村長が必要と認める事項": null,
        "受入対象者": null,
        "備考": ""
      }
    },
    {
      "type": "Feature",
      "geometry": {
        "type": "Point",
        "coordinates": [
          140.493682,
          39.412397
        ]
      },
      "properties": {
        "NO": 11269,
        "共通ID": "E0521200147111",
        "都道府県名及び市町村名": "秋田県大仙市",
        "施設・場所名": "藤木小学校",
        "住所": "秋田県大仙市藤木字街道下67",
        "指定緊急避難場所との住所同一": "1",
        "その他市町村長が必要と認める事項": null,
        "受入対象者": null,
        "備考": ""
      }
    },
    {
      "type": "Feature",
      "geometry": {
        "type": "Point",
        "coordinates": [
          140.487975,
          39.410796
        ]
      },
      "properties": {
        "NO": 11270,
        "共通ID": "E0521200148111",
        "都道府県名及び市町村名": "秋田県大仙市",
        "施設・場所名": "大曲南中学校",
        "住所": "秋田県大仙市藤木字上野中70-2",
        "指定緊急避難場所との住所同一": "1",
        "その他市町村長が必要と認める事項": null,
        "受入対象者": null,
        "備考": ""
      }
    },
    {
      "type": "Feature",
      "geometry": {
        "type": "Point",
        "coordinates": [
          140.451537,
          39.418522
        ]
      },
      "properties": {
        "NO": 11271,
        "共通ID": "E0521200150111",
        "都道府県名及び市町村名": "秋田県大仙市",
        "施設・場所名": "内小友小学校",
        "住所": "秋田県大仙市内小友字四ツ村35",
        "指定緊急避難場所との住所同一": "1",
        "その他市町村長が必要と認める事項": null,
        "受入対象者": null,
        "備考": ""
      }
    },
    {
      "type": "Feature",
      "geometry": {
        "type": "Point",
        "coordinates": [
          140.451666,
          39.419119
        ]
      },
      "properties": {
        "NO": 11272,
        "共通ID": "E0521200151111",
        "都道府県名及び市町村名": "秋田県大仙市",
        "施設・場所名": "内小友公民館",
        "住所": "秋田県大仙市内小友字仙北屋68-2",
        "指定緊急避難場所との住所同一": "",
        "その他市町村長が必要と認める事項": null,
        "受入対象者": null,
        "備考": ""
      }
    },
    {
      "type": "Feature",
      "geometry": {
        "type": "Point",
        "coordinates": [
          140.441694,
          39.437857
        ]
      },
      "properties": {
        "NO": 11273,
        "共通ID": "E0521200152111",
        "都道府県名及び市町村名": "秋田県大仙市",
        "施設・場所名": "大曲西中学校",
        "住所": "秋田県大仙市内小友字中沢176-1",
        "指定緊急避難場所との住所同一": "1",
        "その他市町村長が必要と認める事項": null,
        "受入対象者": null,
        "備考": ""
      }
    },
    {
      "type": "Feature",
      "geometry": {
        "type": "Point",
        "coordinates": [
          140.438309,
          39.431854
        ]
      },
      "properties": {
        "NO": 11274,
        "共通ID": "E0521200154121",
        "都道府県名及び市町村名": "秋田県大仙市",
        "施設・場所名": "特別養護老人ホーム　テンダーヒルズ",
        "住所": "秋田県大仙市内小友字明通36-2",
        "指定緊急避難場所との住所同一": "",
        "その他市町村長が必要と認める事項": null,
        "受入対象者": "要配慮者",
        "備考": ""
      }
    },
    {
      "type": "Feature",
      "geometry": {
        "type": "Point",
        "coordinates": [
          140.364865,
          39.449122
        ]
      },
      "properties": {
        "NO": 11275,
        "共通ID": "E0521200155111",
        "都道府県名及び市町村名": "秋田県大仙市",
        "施設・場所名": "南外コミュニティセンター",
        "住所": "秋田県大仙市南外字下袋218",
        "指定緊急避難場所との住所同一": "",
        "その他市町村長が必要と認める事項": null,
        "受入対象者": null,
        "備考": ""
      }
    },
    {
      "type": "Feature",
      "geometry": {
        "type": "Point",
        "coordinates": [
          140.356261,
          39.437032
        ]
      },
      "properties": {
        "NO": 11276,
        "共通ID": "E0521200156111",
        "都道府県名及び市町村名": "秋田県大仙市",
        "施設・場所名": "旧南外西小学校",
        "住所": "秋田県大仙市南外字下湯ノ又198-14",
        "指定緊急避難場所との住所同一": "1",
        "その他市町村長が必要と認める事項": null,
        "受入対象者": null,
        "備考": ""
      }
    },
    {
      "type": "Feature",
      "geometry": {
        "type": "Point",
        "coordinates": [
          140.371107,
          39.460742
        ]
      },
      "properties": {
        "NO": 11277,
        "共通ID": "E0521200159111",
        "都道府県名及び市町村名": "秋田県大仙市",
        "施設・場所名": "南外中学校",
        "住所": "秋田県大仙市南外字赤平台野19-1",
        "指定緊急避難場所との住所同一": "1",
        "その他市町村長が必要と認める事項": null,
        "受入対象者": null,
        "備考": ""
      }
    },
    {
      "type": "Feature",
      "geometry": {
        "type": "Point",
        "coordinates": [
          140.35999,
          39.428419
        ]
      },
      "properties": {
        "NO": 11278,
        "共通ID": "E0521200161121",
        "都道府県名及び市町村名": "秋田県大仙市",
        "施設・場所名": "特別養護老人ホーム福寿園",
        "住所": "秋田県大仙市南外字湯神台10",
        "指定緊急避難場所との住所同一": "",
        "その他市町村長が必要と認める事項": null,
        "受入対象者": "要配慮者",
        "備考": ""
      }
    },
    {
      "type": "Feature",
      "geometry": {
        "type": "Point",
        "coordinates": [
          140.384701,
          39.47667
        ]
      },
      "properties": {
        "NO": 11279,
        "共通ID": "E0521200162112",
        "都道府県名及び市町村名": "秋田県大仙市",
        "施設・場所名": "南楢岡コミュニティセンター",
        "住所": "秋田県大仙市南外字坊田240",
        "指定緊急避難場所との住所同一": "",
        "その他市町村長が必要と認める事項": "",
        "受入対象者": "",
        "備考": ""
      }
    },
    {
      "type": "Feature",
      "geometry": {
        "type": "Point",
        "coordinates": [
          140.374252,
          39.462082
        ]
      },
      "properties": {
        "NO": 11280,
        "共通ID": "E0521200163111",
        "都道府県名及び市町村名": "秋田県大仙市",
        "施設・場所名": "南外体育館",
        "住所": "秋田県大仙市南外字梨木田208-3",
        "指定緊急避難場所との住所同一": "",
        "その他市町村長が必要と認める事項": null,
        "受入対象者": null,
        "備考": ""
      }
    },
    {
      "type": "Feature",
      "geometry": {
        "type": "Point",
        "coordinates": [
          140.536168,
          39.472933
        ]
      },
      "properties": {
        "NO": 11281,
        "共通ID": "E0521200191111",
        "都道府県名及び市町村名": "秋田県大仙市",
        "施設・場所名": "柵の湯",
        "住所": "秋田県大仙市板見内字一ツ森149",
        "指定緊急避難場所との住所同一": "1",
        "その他市町村長が必要と認める事項": "",
        "受入対象者": "",
        "備考": ""
      }
    },
    {
      "type": "Feature",
      "geometry": {
        "type": "Point",
        "coordinates": [
          140.534106,
          39.473409
        ]
      },
      "properties": {
        "NO": 11282,
        "共通ID": "E0521200164121",
        "都道府県名及び市町村名": "秋田県大仙市",
        "施設・場所名": "特別養護老人ホーム　真森苑",
        "住所": "秋田県大仙市板見内字一ツ森410",
        "指定緊急避難場所との住所同一": "",
        "その他市町村長が必要と認める事項": null,
        "受入対象者": "要配慮者",
        "備考": ""
      }
    },
    {
      "type": "Feature",
      "geometry": {
        "type": "Point",
        "coordinates": [
          140.48535,
          39.440348
        ]
      },
      "properties": {
        "NO": 11283,
        "共通ID": "E0521200166121",
        "都道府県名及び市町村名": "秋田県大仙市",
        "施設・場所名": "特別養護老人ホーム　こもれびの杜",
        "住所": "秋田県大仙市飯田字堰東235",
        "指定緊急避難場所との住所同一": "",
        "その他市町村長が必要と認める事項": null,
        "受入対象者": "要配慮者",
        "備考": ""
      }
    },
    {
      "type": "Feature",
      "geometry": {
        "type": "Point",
        "coordinates": [
          140.48885,
          39.447029
        ]
      },
      "properties": {
        "NO": 11284,
        "共通ID": "E0521200168121",
        "都道府県名及び市町村名": "秋田県大仙市",
        "施設・場所名": "ショートステイ大曲",
        "住所": "秋田県大仙市飯田字大槻127-1",
        "指定緊急避難場所との住所同一": "",
        "その他市町村長が必要と認める事項": null,
        "受入対象者": "要配慮者",
        "備考": ""
      }
    },
    {
      "type": "Feature",
      "geometry": {
        "type": "Point",
        "coordinates": [
          140.53769,
          39.487488
        ]
      },
      "properties": {
        "NO": 11285,
        "共通ID": "E0521200169111",
        "都道府県名及び市町村名": "秋田県大仙市",
        "施設・場所名": "横堀小学校",
        "住所": "秋田県大仙市福田字穴沢4",
        "指定緊急避難場所との住所同一": "1",
        "その他市町村長が必要と認める事項": null,
        "受入対象者": null,
        "備考": ""
      }
    },
    {
      "type": "Feature",
      "geometry": {
        "type": "Point",
        "coordinates": [
          140.608788,
          39.559408
        ]
      },
      "properties": {
        "NO": 11286,
        "共通ID": "E0521200171111",
        "都道府県名及び市町村名": "秋田県大仙市",
        "施設・場所名": "中仙公民館豊岡分館",
        "住所": "秋田県大仙市豊岡字中荒井野175",
        "指定緊急避難場所との住所同一": "",
        "その他市町村長が必要と認める事項": null,
        "受入対象者": null,
        "備考": ""
      }
    },
    {
      "type": "Feature",
      "geometry": {
        "type": "Point",
        "coordinates": [
          140.586729,
          39.557887
        ]
      },
      "properties": {
        "NO": 11287,
        "共通ID": "E0521200173111",
        "都道府県名及び市町村名": "秋田県大仙市",
        "施設・場所名": "豊成小学校",
        "住所": "秋田県大仙市豊川字下水無47",
        "指定緊急避難場所との住所同一": "1",
        "その他市町村長が必要と認める事項": null,
        "受入対象者": null,
        "備考": ""
      }
    },
    {
      "type": "Feature",
      "geometry": {
        "type": "Point",
        "coordinates": [
          140.582473,
          39.554777
        ]
      },
      "properties": {
        "NO": 11288,
        "共通ID": "E0521200174111",
        "都道府県名及び市町村名": "秋田県大仙市",
        "施設・場所名": "中仙公民館豊川分館",
        "住所": "秋田県大仙市豊川字久保175",
        "指定緊急避難場所との住所同一": "",
        "その他市町村長が必要と認める事項": null,
        "受入対象者": null,
        "備考": ""
      }
    },
    {
      "type": "Feature",
      "geometry": {
        "type": "Point",
        "coordinates": [
          140.547293,
          39.549094
        ]
      },
      "properties": {
        "NO": 11289,
        "共通ID": "E0521200176121",
        "都道府県名及び市町村名": "秋田県大仙市",
        "施設・場所名": "介護老人保健施設　八乙女荘",
        "住所": "秋田県大仙市北長野字野口前23",
        "指定緊急避難場所との住所同一": "",
        "その他市町村長が必要と認める事項": null,
        "受入対象者": "要配慮者",
        "備考": ""
      }
    },
    {
      "type": "Feature",
      "geometry": {
        "type": "Point",
        "coordinates": [
          140.547175,
          39.548532
        ]
      },
      "properties": {
        "NO": 11290,
        "共通ID": "E0521200177121",
        "都道府県名及び市町村名": "秋田県大仙市",
        "施設・場所名": "特別養護老人ホーム　桜寿苑",
        "住所": "秋田県大仙市北長野字野口前47",
        "指定緊急避難場所との住所同一": "",
        "その他市町村長が必要と認める事項": null,
        "受入対象者": "要配慮者",
        "備考": ""
      }
    },
    {
      "type": "Feature",
      "geometry": {
        "type": "Point",
        "coordinates": [
          140.388163,
          39.505875
        ]
      },
      "properties": {
        "NO": 11291,
        "共通ID": "E0521200181111",
        "都道府県名及び市町村名": "秋田県大仙市",
        "施設・場所名": "音楽交流館（旧北神小学校）",
        "住所": "秋田県大仙市北楢岡字嶋151",
        "指定緊急避難場所との住所同一": "1",
        "その他市町村長が必要と認める事項": null,
        "受入対象者": null,
        "備考": ""
      }
    },
    {
      "type": "Feature",
      "geometry": {
        "type": "Point",
        "coordinates": [
          140.399938,
          39.499768
        ]
      },
      "properties": {
        "NO": 11292,
        "共通ID": "E0521200182111",
        "都道府県名及び市町村名": "秋田県大仙市",
        "施設・場所名": "北楢岡公民館",
        "住所": "秋田県大仙市北楢岡字北楢岡57",
        "指定緊急避難場所との住所同一": "",
        "その他市町村長が必要と認める事項": null,
        "受入対象者": null,
        "備考": ""
      }
    },
    {
      "type": "Feature",
      "geometry": {
        "type": "Point",
        "coordinates": [
          140.346365,
          39.544566
        ]
      },
      "properties": {
        "NO": 11293,
        "共通ID": "E0521200183111",
        "都道府県名及び市町村名": "秋田県大仙市",
        "施設・場所名": "西仙北農村交流施設",
        "住所": "秋田県大仙市北野目字堂伝野2",
        "指定緊急避難場所との住所同一": "1",
        "その他市町村長が必要と認める事項": null,
        "受入対象者": null,
        "備考": ""
      }
    },
    {
      "type": "Feature",
      "geometry": {
        "type": "Point",
        "coordinates": [
          140.508946,
          39.466861
        ]
      },
      "properties": {
        "NO": 11294,
        "共通ID": "E0521200184111",
        "都道府県名及び市町村名": "秋田県大仙市",
        "施設・場所名": "ふれあい体育館",
        "住所": "秋田県大仙市堀見内字下田茂木122",
        "指定緊急避難場所との住所同一": "",
        "その他市町村長が必要と認める事項": null,
        "受入対象者": null,
        "備考": ""
      }
    },
    {
      "type": "Feature",
      "geometry": {
        "type": "Point",
        "coordinates": [
          140.508925,
          39.466223
        ]
      },
      "properties": {
        "NO": 11295,
        "共通ID": "E0521200186111",
        "都道府県名及び市町村名": "秋田県大仙市",
        "施設・場所名": "仙北ふれあい文化センター",
        "住所": "秋田県大仙市堀見内字元田茂木7-1",
        "指定緊急避難場所との住所同一": "",
        "その他市町村長が必要と認める事項": null,
        "受入対象者": null,
        "備考": ""
      }
    },
    {
      "type": "Feature",
      "geometry": {
        "type": "Point",
        "coordinates": [
          140.518408,
          39.471505
        ]
      },
      "properties": {
        "NO": 11296,
        "共通ID": "E0521200187111",
        "都道府県名及び市町村名": "秋田県大仙市",
        "施設・場所名": "仙北中学校",
        "住所": "秋田県大仙市堀見内字西福嶋29",
        "指定緊急避難場所との住所同一": "1",
        "その他市町村長が必要と認める事項": null,
        "受入対象者": null,
        "備考": ""
      }
    },
    {
      "type": "Feature",
      "geometry": {
        "type": "Point",
        "coordinates": [
          140.518319,
          39.518659
        ]
      },
      "properties": {
        "NO": 11297,
        "共通ID": "E0521200188111",
        "都道府県名及び市町村名": "秋田県大仙市",
        "施設・場所名": "中仙公民館鑓見内分館",
        "住所": "秋田県大仙市鑓見内字石持108",
        "指定緊急避難場所との住所同一": "1",
        "その他市町村長が必要と認める事項": null,
        "受入対象者": null,
        "備考": ""
      }
    }
  ]
}