{
  "type": "FeatureCollection",
  "name": "053031",
  "features": [
    {
      "type": "Feature",
      "geometry": {
        "type": "Point",
        "coordinates": [
          140.764494,
          40.296351
        ]
      },
      "properties": {
        "NO": 11510,
        "共通ID": "E0530300001111",
        "都道府県名及び市町村名": "秋田県小坂町",
        "施設・場所名": "七滝活性化拠点センター",
        "住所": "秋田県小坂町荒谷字上ノ平27-1",
        "指定緊急避難場所との住所同一": "1",
        "その他市町村長が必要と認める事項": "",
        "受入対象者": "",
        "備考": ""
      }
    },
    {
      "type": "Feature",
      "geometry": {
        "type": "Point",
        "coordinates": [
          140.75957,
          40.2956
        ]
      },
      "properties": {
        "NO": 11511,
        "共通ID": "E0530300002111",
        "都道府県名及び市町村名": "秋田県小坂町",
        "施設・場所名": "七滝コミュニティセンター",
        "住所": "秋田県小坂町荒谷字沢ノ口16-1",
        "指定緊急避難場所との住所同一": "",
        "その他市町村長が必要と認める事項": null,
        "受入対象者": null,
        "備考": ""
      }
    },
    {
      "type": "Feature",
      "geometry": {
        "type": "Point",
        "coordinates": [
          140.857051,
          40.41807
        ]
      },
      "properties": {
        "NO": 11512,
        "共通ID": "E0530300024111",
        "都道府県名及び市町村名": "秋田県小坂町",
        "施設・場所名": "十和田出張所",
        "住所": "秋田県小坂町十和田湖字生出1-2",
        "指定緊急避難場所との住所同一": "1",
        "その他市町村長が必要と認める事項": "",
        "受入対象者": "",
        "備考": ""
      }
    },
    {
      "type": "Feature",
      "geometry": {
        "type": "Point",
        "coordinates": [
          140.843075,
          40.455201
        ]
      },
      "properties": {
        "NO": 11513,
        "共通ID": "E0530300025111",
        "都道府県名及び市町村名": "秋田県小坂町",
        "施設・場所名": "十和田ふるさとセンター",
        "住所": "秋田県小坂町十和田湖字大川岱45-1",
        "指定緊急避難場所との住所同一": "",
        "その他市町村長が必要と認める事項": "",
        "受入対象者": "",
        "備考": ""
      }
    },
    {
      "type": "Feature",
      "geometry": {
        "type": "Point",
        "coordinates": [
          140.730015,
          40.367117
        ]
      },
      "properties": {
        "NO": 11514,
        "共通ID": "E0530300008111",
        "都道府県名及び市町村名": "秋田県小坂町",
        "施設・場所名": "川上公民館",
        "住所": "秋田県小坂町小坂字下川原28-2",
        "指定緊急避難場所との住所同一": "",
        "その他市町村長が必要と認める事項": null,
        "受入対象者": null,
        "備考": ""
      }
    },
    {
      "type": "Feature",
      "geometry": {
        "type": "Point",
        "coordinates": [
          140.741915,
          40.325538
        ]
      },
      "properties": {
        "NO": 11515,
        "共通ID": "E0530300012111",
        "都道府県名及び市町村名": "秋田県小坂町",
        "施設・場所名": "小坂町交流センター",
        "住所": "秋田県小坂町小坂字砂森7-1",
        "指定緊急避難場所との住所同一": "",
        "その他市町村長が必要と認める事項": null,
        "受入対象者": null,
        "備考": ""
      }
    },
    {
      "type": "Feature",
      "geometry": {
        "type": "Point",
        "coordinates": [
          140.740609,
          40.327849
        ]
      },
      "properties": {
        "NO": 11516,
        "共通ID": "E0530300014111",
        "都道府県名及び市町村名": "秋田県小坂町",
        "施設・場所名": "小坂町福祉保健総合センター",
        "住所": "秋田県小坂町小坂字上前田7-1",
        "指定緊急避難場所との住所同一": "",
        "その他市町村長が必要と認める事項": "",
        "受入対象者": "",
        "備考": ""
      }
    },
    {
      "type": "Feature",
      "geometry": {
        "type": "Point",
        "coordinates": [
          140.740578,
          40.327781
        ]
      },
      "properties": {
        "NO": 11517,
        "共通ID": "E0530300014121",
        "都道府県名及び市町村名": "秋田県小坂町",
        "施設・場所名": "小坂町福祉保健総合センター",
        "住所": "秋田県小坂町小坂字上前田7-1",
        "指定緊急避難場所との住所同一": "",
        "その他市町村長が必要と認める事項": null,
        "受入対象者": "要配慮者",
        "備考": ""
      }
    },
    {
      "type": "Feature",
      "geometry": {
        "type": "Point",
        "coordinates": [
          140.740089,
          40.327544
        ]
      },
      "properties": {
        "NO": 11518,
        "共通ID": "E0530300015111",
        "都道府県名及び市町村名": "秋田県小坂町",
        "施設・場所名": "小坂マリア園",
        "住所": "秋田県小坂町小坂字上前田7-9",
        "指定緊急避難場所との住所同一": "",
        "その他市町村長が必要と認める事項": null,
        "受入対象者": null,
        "備考": ""
      }
    },
    {
      "type": "Feature",
      "geometry": {
        "type": "Point",
        "coordinates": [
          140.735949,
          40.333377
        ]
      },
      "properties": {
        "NO": 11519,
        "共通ID": "E0530300017111",
        "都道府県名及び市町村名": "秋田県小坂町",
        "施設・場所名": "向陽体育館",
        "住所": "秋田県小坂町小坂字上谷地41-1",
        "指定緊急避難場所との住所同一": "",
        "その他市町村長が必要と認める事項": "",
        "受入対象者": "",
        "備考": ""
      }
    },
    {
      "type": "Feature",
      "geometry": {
        "type": "Point",
        "coordinates": [
          140.746557,
          40.390527
        ]
      },
      "properties": {
        "NO": 11520,
        "共通ID": "E0530300018111",
        "都道府県名及び市町村名": "秋田県小坂町",
        "施設・場所名": "障害者支援施設　あすなろ",
        "住所": "秋田県小坂町小坂字仁吾平16",
        "指定緊急避難場所との住所同一": "",
        "その他市町村長が必要と認める事項": null,
        "受入対象者": null,
        "備考": ""
      }
    },
    {
      "type": "Feature",
      "geometry": {
        "type": "Point",
        "coordinates": [
          140.743118,
          40.325074
        ]
      },
      "properties": {
        "NO": 11521,
        "共通ID": "E0530300020111",
        "都道府県名及び市町村名": "秋田県小坂町",
        "施設・場所名": "小坂中学校",
        "住所": "秋田県小坂町小坂字赤神4-1",
        "指定緊急避難場所との住所同一": "1",
        "その他市町村長が必要と認める事項": null,
        "受入対象者": null,
        "備考": ""
      }
    },
    {
      "type": "Feature",
      "geometry": {
        "type": "Point",
        "coordinates": [
          140.743711,
          40.325509
        ]
      },
      "properties": {
        "NO": 11522,
        "共通ID": "E0530300020112",
        "都道府県名及び市町村名": "秋田県小坂町",
        "施設・場所名": "小坂小学校",
        "住所": "秋田県小坂町小坂字赤神4-1",
        "指定緊急避難場所との住所同一": "1",
        "その他市町村長が必要と認める事項": null,
        "受入対象者": null,
        "備考": ""
      }
    },
    {
      "type": "Feature",
      "geometry": {
        "type": "Point",
        "coordinates": [
          140.749345,
          40.389972
        ]
      },
      "properties": {
        "NO": 11523,
        "共通ID": "E0530300021111",
        "都道府県名及び市町村名": "秋田県小坂町",
        "施設・場所名": "障害者支援施設　更望園",
        "住所": "秋田県小坂町小坂字大石平45",
        "指定緊急避難場所との住所同一": "",
        "その他市町村長が必要と認める事項": null,
        "受入対象者": null,
        "備考": ""
      }
    },
    {
      "type": "Feature",
      "geometry": {
        "type": "Point",
        "coordinates": [
          140.782119,
          40.356616
        ]
      },
      "properties": {
        "NO": 11524,
        "共通ID": "E0530300023111",
        "都道府県名及び市町村名": "秋田県小坂町",
        "施設・場所名": "孫左衛門",
        "住所": "秋田県小坂町上向字藤原35-3",
        "指定緊急避難場所との住所同一": "",
        "その他市町村長が必要と認める事項": null,
        "受入対象者": null,
        "備考": ""
      }
    }
  ]
}