{
  "type": "FeatureCollection",
  "name": "053279",
  "features": [
    {
      "type": "Feature",
      "geometry": {
        "type": "Point",
        "coordinates": [
          140.283353,
          40.046291
        ]
      },
      "properties": {
        "NO": 11525,
        "共通ID": "E0532700005111",
        "都道府県名及び市町村名": "秋田県上小阿仁村",
        "施設・場所名": "若者センター",
        "住所": "秋田県上小阿仁村沖田面字野中278-7",
        "指定緊急避難場所との住所同一": "1",
        "その他市町村長が必要と認める事項": "",
        "受入対象者": "",
        "備考": ""
      }
    },
    {
      "type": "Feature",
      "geometry": {
        "type": "Point",
        "coordinates": [
          140.295559,
          40.063511
        ]
      },
      "properties": {
        "NO": 11526,
        "共通ID": "E0532700010111",
        "都道府県名及び市町村名": "秋田県上小阿仁村",
        "施設・場所名": "開発センター",
        "住所": "秋田県上小阿仁村小沢田字向川原118",
        "指定緊急避難場所との住所同一": "1",
        "その他市町村長が必要と認める事項": "",
        "受入対象者": "",
        "備考": ""
      }
    },
    {
      "type": "Feature",
      "geometry": {
        "type": "Point",
        "coordinates": [
          140.297949,
          40.063913
        ]
      },
      "properties": {
        "NO": 11527,
        "共通ID": "E0532700028111",
        "都道府県名及び市町村名": "秋田県上小阿仁村",
        "施設・場所名": "生涯学習センター",
        "住所": "秋田県上小阿仁村小沢田字向川原60-3",
        "指定緊急避難場所との住所同一": "1",
        "その他市町村長が必要と認める事項": "",
        "受入対象者": "",
        "備考": ""
      }
    },
    {
      "type": "Feature",
      "geometry": {
        "type": "Point",
        "coordinates": [
          140.296449,
          40.061609
        ]
      },
      "properties": {
        "NO": 11528,
        "共通ID": "E0532700014111",
        "都道府県名及び市町村名": "秋田県上小阿仁村",
        "施設・場所名": "集住型宿泊交流拠点施設",
        "住所": "秋田県上小阿仁村小沢田字向川原72-2",
        "指定緊急避難場所との住所同一": "1",
        "その他市町村長が必要と認める事項": "",
        "受入対象者": "",
        "備考": ""
      }
    },
    {
      "type": "Feature",
      "geometry": {
        "type": "Point",
        "coordinates": [
          140.296786,
          40.064755
        ]
      },
      "properties": {
        "NO": 11529,
        "共通ID": "E0532700016111",
        "都道府県名及び市町村名": "秋田県上小阿仁村",
        "施設・場所名": "保健センター",
        "住所": "秋田県上小阿仁村小沢田字向川原80",
        "指定緊急避難場所との住所同一": "1",
        "その他市町村長が必要と認める事項": "",
        "受入対象者": "",
        "備考": ""
      }
    },
    {
      "type": "Feature",
      "geometry": {
        "type": "Point",
        "coordinates": [
          140.293321,
          40.060572
        ]
      },
      "properties": {
        "NO": 11530,
        "共通ID": "E0532700017111",
        "都道府県名及び市町村名": "秋田県上小阿仁村",
        "施設・場所名": "上小阿仁小・中学校",
        "住所": "秋田県上小阿仁村小沢田字上ノ岱97",
        "指定緊急避難場所との住所同一": "",
        "その他市町村長が必要と認める事項": "",
        "受入対象者": "",
        "備考": ""
      }
    },
    {
      "type": "Feature",
      "geometry": {
        "type": "Point",
        "coordinates": [
          140.301684,
          40.066045
        ]
      },
      "properties": {
        "NO": 11531,
        "共通ID": "E0532700019111",
        "都道府県名及び市町村名": "秋田県上小阿仁村",
        "施設・場所名": "杉花交流センター",
        "住所": "秋田県上小阿仁村杉花字杉花33-4",
        "指定緊急避難場所との住所同一": "1",
        "その他市町村長が必要と認める事項": "",
        "受入対象者": "",
        "備考": ""
      }
    },
    {
      "type": "Feature",
      "geometry": {
        "type": "Point",
        "coordinates": [
          140.295565,
          40.057422
        ]
      },
      "properties": {
        "NO": 11532,
        "共通ID": "E0532700023111",
        "都道府県名及び市町村名": "秋田県上小阿仁村",
        "施設・場所名": "い樹い樹交流センター",
        "住所": "秋田県上小阿仁村福舘字村岱43",
        "指定緊急避難場所との住所同一": "1",
        "その他市町村長が必要と認める事項": "",
        "受入対象者": "",
        "備考": ""
      }
    },
    {
      "type": "Feature",
      "geometry": {
        "type": "Point",
        "coordinates": [
          140.312997,
          40.076684
        ]
      },
      "properties": {
        "NO": 11533,
        "共通ID": "E0532700030111",
        "都道府県名及び市町村名": "秋田県上小阿仁村",
        "施設・場所名": "羽立集会施設",
        "住所": "秋田県上小阿仁村仏社字羽立台22-5",
        "指定緊急避難場所との住所同一": "1",
        "その他市町村長が必要と認める事項": "",
        "受入対象者": "",
        "備考": ""
      }
    }
  ]
}