{
  "type": "FeatureCollection",
  "name": "053635",
  "features": [
    {
      "type": "Feature",
      "geometry": {
        "type": "Point",
        "coordinates": [
          140.079545,
          39.942573
        ]
      },
      "properties": {
        "NO": 11604,
        "共通ID": "E0536300004121",
        "都道府県名及び市町村名": "秋田県八郎潟町",
        "施設・場所名": "老人福祉センター（社協）",
        "住所": "秋田県八郎潟町家ノ後23-3",
        "指定緊急避難場所との住所同一": "",
        "その他市町村長が必要と認める事項": "",
        "受入対象者": "一般の避難所での生活が困難な災害時要援護者等",
        "備考": ""
      }
    },
    {
      "type": "Feature",
      "geometry": {
        "type": "Point",
        "coordinates": [
          140.078118,
          39.941899
        ]
      },
      "properties": {
        "NO": 11605,
        "共通ID": "E0536300008111",
        "都道府県名及び市町村名": "秋田県八郎潟町",
        "施設・場所名": "防災センター",
        "住所": "秋田県八郎潟町字家ノ後6-1",
        "指定緊急避難場所との住所同一": "1",
        "その他市町村長が必要と認める事項": "",
        "受入対象者": "",
        "備考": ""
      }
    },
    {
      "type": "Feature",
      "geometry": {
        "type": "Point",
        "coordinates": [
          140.074548,
          39.950622
        ]
      },
      "properties": {
        "NO": 11606,
        "共通ID": "E0536300012111",
        "都道府県名及び市町村名": "秋田県八郎潟町",
        "施設・場所名": "第二町民体育館",
        "住所": "秋田県八郎潟町字大道111",
        "指定緊急避難場所との住所同一": "1",
        "その他市町村長が必要と認める事項": "",
        "受入対象者": "",
        "備考": ""
      }
    },
    {
      "type": "Feature",
      "geometry": {
        "type": "Point",
        "coordinates": [
          140.07355,
          39.948586
        ]
      },
      "properties": {
        "NO": 11607,
        "共通ID": "E0536300013111",
        "都道府県名及び市町村名": "秋田県八郎潟町",
        "施設・場所名": "青年婦人会館　ロマンの里",
        "住所": "秋田県八郎潟町字大道23-1",
        "指定緊急避難場所との住所同一": "1",
        "その他市町村長が必要と認める事項": "",
        "受入対象者": "",
        "備考": ""
      }
    },
    {
      "type": "Feature",
      "geometry": {
        "type": "Point",
        "coordinates": [
          140.072847,
          39.949478
        ]
      },
      "properties": {
        "NO": 11608,
        "共通ID": "E0536300014111",
        "都道府県名及び市町村名": "秋田県八郎潟町",
        "施設・場所名": "農村環境改善センター",
        "住所": "秋田県八郎潟町字大道81-1",
        "指定緊急避難場所との住所同一": "1",
        "その他市町村長が必要と認める事項": "",
        "受入対象者": "",
        "備考": ""
      }
    },
    {
      "type": "Feature",
      "geometry": {
        "type": "Point",
        "coordinates": [
          140.072448,
          39.950067
        ]
      },
      "properties": {
        "NO": 11609,
        "共通ID": "E0536300015121",
        "都道府県名及び市町村名": "秋田県八郎潟町",
        "施設・場所名": "保健センター",
        "住所": "秋田県八郎潟町字大道84",
        "指定緊急避難場所との住所同一": "",
        "その他市町村長が必要と認める事項": "",
        "受入対象者": "一般の避難所での生活が困難な災害時要援護者等",
        "備考": ""
      }
    },
    {
      "type": "Feature",
      "geometry": {
        "type": "Point",
        "coordinates": [
          140.077734,
          39.948245
        ]
      },
      "properties": {
        "NO": 11610,
        "共通ID": "E0536300022111",
        "都道府県名及び市町村名": "秋田県八郎潟町",
        "施設・場所名": "えきまえ交流館　はちパル",
        "住所": "秋田県八郎潟町字中田67-4",
        "指定緊急避難場所との住所同一": "1",
        "その他市町村長が必要と認める事項": null,
        "受入対象者": null,
        "備考": ""
      }
    },
    {
      "type": "Feature",
      "geometry": {
        "type": "Point",
        "coordinates": [
          140.073743,
          39.948306
        ]
      },
      "properties": {
        "NO": 11611,
        "共通ID": "E0536300025111",
        "都道府県名及び市町村名": "秋田県八郎潟町",
        "施設・場所名": "中央児童館",
        "住所": "秋田県八郎潟町字中嶋336-60",
        "指定緊急避難場所との住所同一": "1",
        "その他市町村長が必要と認める事項": "",
        "受入対象者": "",
        "備考": ""
      }
    },
    {
      "type": "Feature",
      "geometry": {
        "type": "Point",
        "coordinates": [
          140.085489,
          39.967343
        ]
      },
      "properties": {
        "NO": 11612,
        "共通ID": "E0536300034111",
        "都道府県名及び市町村名": "秋田県八郎潟町",
        "施設・場所名": "高岡コミュニティ体育館",
        "住所": "秋田県八郎潟町真坂字沢田30-5",
        "指定緊急避難場所との住所同一": "1",
        "その他市町村長が必要と認める事項": "",
        "受入対象者": "",
        "備考": ""
      }
    },
    {
      "type": "Feature",
      "geometry": {
        "type": "Point",
        "coordinates": [
          140.073408,
          39.95356
        ]
      },
      "properties": {
        "NO": 11613,
        "共通ID": "E0536300043111",
        "都道府県名及び市町村名": "秋田県八郎潟町",
        "施設・場所名": "八郎潟小学校・中学校（体育館、武道場）",
        "住所": "秋田県八郎潟町夜叉袋字大嶋田107",
        "指定緊急避難場所との住所同一": "1",
        "その他市町村長が必要と認める事項": "",
        "受入対象者": "",
        "備考": ""
      }
    },
    {
      "type": "Feature",
      "geometry": {
        "type": "Point",
        "coordinates": [
          140.081095,
          39.952071
        ]
      },
      "properties": {
        "NO": 11614,
        "共通ID": "E0536300044111",
        "都道府県名及び市町村名": "秋田県八郎潟町",
        "施設・場所名": "町民体育館",
        "住所": "秋田県八郎潟町夜叉袋字中羽立1-1",
        "指定緊急避難場所との住所同一": "1",
        "その他市町村長が必要と認める事項": null,
        "受入対象者": null,
        "備考": ""
      }
    },
    {
      "type": "Feature",
      "geometry": {
        "type": "Point",
        "coordinates": [
          140.080441,
          39.952158
        ]
      },
      "properties": {
        "NO": 11615,
        "共通ID": "E0536300044112",
        "都道府県名及び市町村名": "秋田県八郎潟町",
        "施設・場所名": "オリンピック記念会館",
        "住所": "秋田県八郎潟町夜叉袋字中羽立1-1",
        "指定緊急避難場所との住所同一": "1",
        "その他市町村長が必要と認める事項": null,
        "受入対象者": null,
        "備考": ""
      }
    },
    {
      "type": "Feature",
      "geometry": {
        "type": "Point",
        "coordinates": [
          140.080215,
          39.952359
        ]
      },
      "properties": {
        "NO": 11616,
        "共通ID": "E0536300044113",
        "都道府県名及び市町村名": "秋田県八郎潟町",
        "施設・場所名": "中羽立公園管理棟",
        "住所": "秋田県八郎潟町夜叉袋字中羽立1-1",
        "指定緊急避難場所との住所同一": "1",
        "その他市町村長が必要と認める事項": null,
        "受入対象者": null,
        "備考": ""
      }
    }
  ]
}