{
  "type": "FeatureCollection",
  "name": "062049",
  "features": [
    {
      "type": "Feature",
      "geometry": {
        "type": "Point",
        "coordinates": [
          139.851109,
          38.903651
        ]
      },
      "properties": {
        "NO": 12190,
        "共通ID": "E0620400013111",
        "都道府県名及び市町村名": "山形県酒田市",
        "施設・場所名": "松原コミュニティ防災センター",
        "住所": "山形県酒田市みずほ2-8-7",
        "指定緊急避難場所との住所同一": "1",
        "その他市町村長が必要と認める事項": null,
        "受入対象者": null,
        "備考": ""
      }
    },
    {
      "type": "Feature",
      "geometry": {
        "type": "Point",
        "coordinates": [
          139.844661,
          38.936667
        ]
      },
      "properties": {
        "NO": 12191,
        "共通ID": "E0620400016111",
        "都道府県名及び市町村名": "山形県酒田市",
        "施設・場所名": "泉学区コミュニティ防災センター",
        "住所": "山形県酒田市ゆたか2-2-11",
        "指定緊急避難場所との住所同一": "1",
        "その他市町村長が必要と認める事項": null,
        "受入対象者": null,
        "備考": ""
      }
    },
    {
      "type": "Feature",
      "geometry": {
        "type": "Point",
        "coordinates": [
          139.837745,
          38.922588
        ]
      },
      "properties": {
        "NO": 12192,
        "共通ID": "E0620400024111",
        "都道府県名及び市町村名": "山形県酒田市",
        "施設・場所名": "琢成小学校",
        "住所": "山形県酒田市栄町10-8",
        "指定緊急避難場所との住所同一": "1",
        "その他市町村長が必要と認める事項": null,
        "受入対象者": null,
        "備考": ""
      }
    },
    {
      "type": "Feature",
      "geometry": {
        "type": "Point",
        "coordinates": [
          139.890274,
          38.918546
        ]
      },
      "properties": {
        "NO": 12193,
        "共通ID": "E0620400029111",
        "都道府県名及び市町村名": "山形県酒田市",
        "施設・場所名": "平田小学校",
        "住所": "山形県酒田市荻島字面桜8",
        "指定緊急避難場所との住所同一": "1",
        "その他市町村長が必要と認める事項": null,
        "受入対象者": null,
        "備考": ""
      }
    },
    {
      "type": "Feature",
      "geometry": {
        "type": "Point",
        "coordinates": [
          139.855253,
          38.928303
        ]
      },
      "properties": {
        "NO": 12194,
        "共通ID": "E0620400031111",
        "都道府県名及び市町村名": "山形県酒田市",
        "施設・場所名": "第六中学校",
        "住所": "山形県酒田市下安町13-1",
        "指定緊急避難場所との住所同一": "1",
        "その他市町村長が必要と認める事項": null,
        "受入対象者": null,
        "備考": ""
      }
    },
    {
      "type": "Feature",
      "geometry": {
        "type": "Point",
        "coordinates": [
          139.943845,
          38.973973
        ]
      },
      "properties": {
        "NO": 12195,
        "共通ID": "E0620400036111",
        "都道府県名及び市町村名": "山形県酒田市",
        "施設・場所名": "八幡小学校",
        "住所": "山形県酒田市観音寺字古楯1-1",
        "指定緊急避難場所との住所同一": "1",
        "その他市町村長が必要と認める事項": null,
        "受入対象者": null,
        "備考": ""
      }
    },
    {
      "type": "Feature",
      "geometry": {
        "type": "Point",
        "coordinates": [
          139.942534,
          38.971092
        ]
      },
      "properties": {
        "NO": 12196,
        "共通ID": "E0620400037111",
        "都道府県名及び市町村名": "山形県酒田市",
        "施設・場所名": "八幡タウンセンター",
        "住所": "山形県酒田市観音寺字寺ノ下41",
        "指定緊急避難場所との住所同一": "1",
        "その他市町村長が必要と認める事項": null,
        "受入対象者": null,
        "備考": ""
      }
    },
    {
      "type": "Feature",
      "geometry": {
        "type": "Point",
        "coordinates": [
          139.942763,
          38.970209
        ]
      },
      "properties": {
        "NO": 12197,
        "共通ID": "E0620400038111",
        "都道府県名及び市町村名": "山形県酒田市",
        "施設・場所名": "修道館",
        "住所": "山形県酒田市観音寺字町後15",
        "指定緊急避難場所との住所同一": "1",
        "その他市町村長が必要と認める事項": null,
        "受入対象者": null,
        "備考": ""
      }
    },
    {
      "type": "Feature",
      "geometry": {
        "type": "Point",
        "coordinates": [
          139.943551,
          38.970296
        ]
      },
      "properties": {
        "NO": 12198,
        "共通ID": "E0620400038112",
        "都道府県名及び市町村名": "山形県酒田市",
        "施設・場所名": "八幡体育館",
        "住所": "山形県酒田市観音寺字町後15",
        "指定緊急避難場所との住所同一": "1",
        "その他市町村長が必要と認める事項": null,
        "受入対象者": null,
        "備考": ""
      }
    },
    {
      "type": "Feature",
      "geometry": {
        "type": "Point",
        "coordinates": [
          139.842209,
          38.909919
        ]
      },
      "properties": {
        "NO": 12199,
        "共通ID": "E0620400043111",
        "都道府県名及び市町村名": "山形県酒田市",
        "施設・場所名": "酒田東高等学校体育館",
        "住所": "山形県酒田市亀ケ崎1-3-60",
        "指定緊急避難場所との住所同一": "1",
        "その他市町村長が必要と認める事項": null,
        "受入対象者": null,
        "備考": ""
      }
    },
    {
      "type": "Feature",
      "geometry": {
        "type": "Point",
        "coordinates": [
          139.84283,
          38.906105
        ]
      },
      "properties": {
        "NO": 12200,
        "共通ID": "E0620400044111",
        "都道府県名及び市町村名": "山形県酒田市",
        "施設・場所名": "亀ケ崎小学校",
        "住所": "山形県酒田市亀ケ崎2-3-55",
        "指定緊急避難場所との住所同一": "1",
        "その他市町村長が必要と認める事項": null,
        "受入対象者": null,
        "備考": ""
      }
    },
    {
      "type": "Feature",
      "geometry": {
        "type": "Point",
        "coordinates": [
          139.848071,
          38.902894
        ]
      },
      "properties": {
        "NO": 12201,
        "共通ID": "E0620400045111",
        "都道府県名及び市町村名": "山形県酒田市",
        "施設・場所名": "亀ケ崎コミュニティ防災センター",
        "住所": "山形県酒田市亀ケ崎3-13-25",
        "指定緊急避難場所との住所同一": "1",
        "その他市町村長が必要と認める事項": null,
        "受入対象者": null,
        "備考": ""
      }
    },
    {
      "type": "Feature",
      "geometry": {
        "type": "Point",
        "coordinates": [
          139.850373,
          38.90117
        ]
      },
      "properties": {
        "NO": 12202,
        "共通ID": "E0620400049111",
        "都道府県名及び市町村名": "山形県酒田市",
        "施設・場所名": "松原小学校",
        "住所": "山形県酒田市亀ケ崎5-8-25",
        "指定緊急避難場所との住所同一": "1",
        "その他市町村長が必要と認める事項": null,
        "受入対象者": null,
        "備考": ""
      }
    },
    {
      "type": "Feature",
      "geometry": {
        "type": "Point",
        "coordinates": [
          139.845636,
          38.897776
        ]
      },
      "properties": {
        "NO": 12203,
        "共通ID": "E0620400358121",
        "都道府県名及び市町村名": "山形県酒田市",
        "施設・場所名": "酒田子育て支援センター",
        "住所": "山形県酒田市亀ケ崎6-10-1",
        "指定緊急避難場所との住所同一": "",
        "その他市町村長が必要と認める事項": "",
        "受入対象者": "妊婦や乳児世帯",
        "備考": ""
      }
    },
    {
      "type": "Feature",
      "geometry": {
        "type": "Point",
        "coordinates": [
          139.844063,
          38.953867
        ]
      },
      "properties": {
        "NO": 12204,
        "共通ID": "E0620400059111",
        "都道府県名及び市町村名": "山形県酒田市",
        "施設・場所名": "酒田特別支援学校体育館",
        "住所": "山形県酒田市宮海字新林307",
        "指定緊急避難場所との住所同一": "1",
        "その他市町村長が必要と認める事項": null,
        "受入対象者": null,
        "備考": ""
      }
    },
    {
      "type": "Feature",
      "geometry": {
        "type": "Point",
        "coordinates": [
          139.851093,
          38.962102
        ]
      },
      "properties": {
        "NO": 12205,
        "共通ID": "E0620400061111",
        "都道府県名及び市町村名": "山形県酒田市",
        "施設・場所名": "西荒瀬コミュニティ防災センター",
        "住所": "山形県酒田市宮海字新林660",
        "指定緊急避難場所との住所同一": "1",
        "その他市町村長が必要と認める事項": null,
        "受入対象者": null,
        "備考": ""
      }
    },
    {
      "type": "Feature",
      "geometry": {
        "type": "Point",
        "coordinates": [
          139.851156,
          38.962344
        ]
      },
      "properties": {
        "NO": 12206,
        "共通ID": "E0620400061112",
        "都道府県名及び市町村名": "山形県酒田市",
        "施設・場所名": "西荒瀬小学校",
        "住所": "山形県酒田市宮海字新林660",
        "指定緊急避難場所との住所同一": "1",
        "その他市町村長が必要と認める事項": null,
        "受入対象者": null,
        "備考": ""
      }
    },
    {
      "type": "Feature",
      "geometry": {
        "type": "Point",
        "coordinates": [
          139.890254,
          38.982909
        ]
      },
      "properties": {
        "NO": 12207,
        "共通ID": "E0620400066111",
        "都道府県名及び市町村名": "山形県酒田市",
        "施設・場所名": "南遊佐コミュニティセンター",
        "住所": "山形県酒田市宮内字小楯62-1",
        "指定緊急避難場所との住所同一": "1",
        "その他市町村長が必要と認める事項": null,
        "受入対象者": null,
        "備考": ""
      }
    },
    {
      "type": "Feature",
      "geometry": {
        "type": "Point",
        "coordinates": [
          139.889837,
          38.983427
        ]
      },
      "properties": {
        "NO": 12208,
        "共通ID": "E0620400066112",
        "都道府県名及び市町村名": "山形県酒田市",
        "施設・場所名": "旧南遊佐小学校",
        "住所": "山形県酒田市宮内字小楯62-1",
        "指定緊急避難場所との住所同一": "1",
        "その他市町村長が必要と認める事項": null,
        "受入対象者": null,
        "備考": ""
      }
    },
    {
      "type": "Feature",
      "geometry": {
        "type": "Point",
        "coordinates": [
          139.816081,
          38.907033
        ]
      },
      "properties": {
        "NO": 12209,
        "共通ID": "E0620400067111",
        "都道府県名及び市町村名": "山形県酒田市",
        "施設・場所名": "宮野浦小学校",
        "住所": "山形県酒田市宮野浦1-11-1",
        "指定緊急避難場所との住所同一": "1",
        "その他市町村長が必要と認める事項": null,
        "受入対象者": null,
        "備考": ""
      }
    },
    {
      "type": "Feature",
      "geometry": {
        "type": "Point",
        "coordinates": [
          139.814595,
          38.904681
        ]
      },
      "properties": {
        "NO": 12210,
        "共通ID": "E0620400069111",
        "都道府県名及び市町村名": "山形県酒田市",
        "施設・場所名": "宮野浦学区コミュニティ防災センター",
        "住所": "山形県酒田市宮野浦2-3-3",
        "指定緊急避難場所との住所同一": "1",
        "その他市町村長が必要と認める事項": null,
        "受入対象者": null,
        "備考": ""
      }
    },
    {
      "type": "Feature",
      "geometry": {
        "type": "Point",
        "coordinates": [
          139.811084,
          38.914269
        ]
      },
      "properties": {
        "NO": 12211,
        "共通ID": "E0620400359121",
        "都道府県名及び市町村名": "山形県酒田市",
        "施設・場所名": "特別養護老人ホーム芙蓉荘",
        "住所": "山形県酒田市宮野浦3-20-1",
        "指定緊急避難場所との住所同一": "",
        "その他市町村長が必要と認める事項": "",
        "受入対象者": "要配慮者等で施設が認めたもの",
        "備考": ""
      }
    },
    {
      "type": "Feature",
      "geometry": {
        "type": "Point",
        "coordinates": [
          139.813117,
          38.913142
        ]
      },
      "properties": {
        "NO": 12212,
        "共通ID": "E0620400360121",
        "都道府県名及び市町村名": "山形県酒田市",
        "施設・場所名": "障がい者支援施設光風園",
        "住所": "山形県酒田市宮野浦3-21-28",
        "指定緊急避難場所との住所同一": "",
        "その他市町村長が必要と認める事項": "",
        "受入対象者": "要配慮者等で施設が認めたもの",
        "備考": ""
      }
    },
    {
      "type": "Feature",
      "geometry": {
        "type": "Point",
        "coordinates": [
          139.834808,
          38.882179
        ]
      },
      "properties": {
        "NO": 12213,
        "共通ID": "E0620400080111",
        "都道府県名及び市町村名": "山形県酒田市",
        "施設・場所名": "第四中学校",
        "住所": "山形県酒田市錦町1-32-1",
        "指定緊急避難場所との住所同一": "1",
        "その他市町村長が必要と認める事項": null,
        "受入対象者": null,
        "備考": ""
      }
    },
    {
      "type": "Feature",
      "geometry": {
        "type": "Point",
        "coordinates": [
          139.894359,
          38.906178
        ]
      },
      "properties": {
        "NO": 12214,
        "共通ID": "E0620400086111",
        "都道府県名及び市町村名": "山形県酒田市",
        "施設・場所名": "中平田コミュニティセンター",
        "住所": "山形県酒田市熊手島字中福島66",
        "指定緊急避難場所との住所同一": "1",
        "その他市町村長が必要と認める事項": null,
        "受入対象者": null,
        "備考": ""
      }
    },
    {
      "type": "Feature",
      "geometry": {
        "type": "Point",
        "coordinates": [
          139.923985,
          38.903002
        ]
      },
      "properties": {
        "NO": 12215,
        "共通ID": "E0620400087111",
        "都道府県名及び市町村名": "山形県酒田市",
        "施設・場所名": "郡鏡・山谷コミュニティセンター",
        "住所": "山形県酒田市郡山字上台134-1",
        "指定緊急避難場所との住所同一": "1",
        "その他市町村長が必要と認める事項": null,
        "受入対象者": null,
        "備考": ""
      }
    },
    {
      "type": "Feature",
      "geometry": {
        "type": "Point",
        "coordinates": [
          139.832473,
          38.931795
        ]
      },
      "properties": {
        "NO": 12216,
        "共通ID": "E0620400094111",
        "都道府県名及び市町村名": "山形県酒田市",
        "施設・場所名": "松陵学区コミュニティ防災センター",
        "住所": "山形県酒田市光ケ丘3-1-1",
        "指定緊急避難場所との住所同一": "1",
        "その他市町村長が必要と認める事項": null,
        "受入対象者": null,
        "備考": ""
      }
    },
    {
      "type": "Feature",
      "geometry": {
        "type": "Point",
        "coordinates": [
          139.852547,
          38.84312
        ]
      },
      "properties": {
        "NO": 12217,
        "共通ID": "E0620400104111",
        "都道府県名及び市町村名": "山形県酒田市",
        "施設・場所名": "酒田農村環境改善センター（広野コミュニティセンター）",
        "住所": "山形県酒田市広野字上通232",
        "指定緊急避難場所との住所同一": "1",
        "その他市町村長が必要と認める事項": null,
        "受入対象者": null,
        "備考": ""
      }
    },
    {
      "type": "Feature",
      "geometry": {
        "type": "Point",
        "coordinates": [
          139.852008,
          38.846417
        ]
      },
      "properties": {
        "NO": 12218,
        "共通ID": "E0620400105111",
        "都道府県名及び市町村名": "山形県酒田市",
        "施設・場所名": "広野小学校",
        "住所": "山形県酒田市広野字中通53",
        "指定緊急避難場所との住所同一": "1",
        "その他市町村長が必要と認める事項": null,
        "受入対象者": null,
        "備考": ""
      }
    },
    {
      "type": "Feature",
      "geometry": {
        "type": "Point",
        "coordinates": [
          139.847406,
          38.848887
        ]
      },
      "properties": {
        "NO": 12219,
        "共通ID": "E0620400361121",
        "都道府県名及び市町村名": "山形県酒田市",
        "施設・場所名": "特別養護老人ホームさくらホーム広野",
        "住所": "山形県酒田市広野字末広102-1",
        "指定緊急避難場所との住所同一": "",
        "その他市町村長が必要と認める事項": "",
        "受入対象者": "要配慮者等で施設が認めたもの",
        "備考": ""
      }
    },
    {
      "type": "Feature",
      "geometry": {
        "type": "Point",
        "coordinates": [
          139.822749,
          38.851207
        ]
      },
      "properties": {
        "NO": 12220,
        "共通ID": "E0620400111111",
        "都道府県名及び市町村名": "山形県酒田市",
        "施設・場所名": "黒森小学校",
        "住所": "山形県酒田市黒森字一の木450",
        "指定緊急避難場所との住所同一": "1",
        "その他市町村長が必要と認める事項": null,
        "受入対象者": null,
        "備考": ""
      }
    },
    {
      "type": "Feature",
      "geometry": {
        "type": "Point",
        "coordinates": [
          139.817902,
          38.851135
        ]
      },
      "properties": {
        "NO": 12221,
        "共通ID": "E0620400112111",
        "都道府県名及び市町村名": "山形県酒田市",
        "施設・場所名": "黒森コミュニティセンター",
        "住所": "山形県酒田市黒森字草刈谷地57-2",
        "指定緊急避難場所との住所同一": "",
        "その他市町村長が必要と認める事項": null,
        "受入対象者": null,
        "備考": ""
      }
    },
    {
      "type": "Feature",
      "geometry": {
        "type": "Point",
        "coordinates": [
          139.817124,
          38.853065
        ]
      },
      "properties": {
        "NO": 12222,
        "共通ID": "E0620400362121",
        "都道府県名及び市町村名": "山形県酒田市",
        "施設・場所名": "特別養護老人ホームライフケア黒森",
        "住所": "山形県酒田市黒森字葭葉山54-10",
        "指定緊急避難場所との住所同一": "",
        "その他市町村長が必要と認める事項": "",
        "受入対象者": "要配慮者等で施設が認めたもの",
        "備考": ""
      }
    },
    {
      "type": "Feature",
      "geometry": {
        "type": "Point",
        "coordinates": [
          139.910982,
          38.891442
        ]
      },
      "properties": {
        "NO": 12223,
        "共通ID": "E0620400115111",
        "都道府県名及び市町村名": "山形県酒田市",
        "施設・場所名": "砂越・砂越緑町コミュニティセンター",
        "住所": "山形県酒田市砂越字楯之内60-1",
        "指定緊急避難場所との住所同一": "1",
        "その他市町村長が必要と認める事項": null,
        "受入対象者": null,
        "備考": ""
      }
    },
    {
      "type": "Feature",
      "geometry": {
        "type": "Point",
        "coordinates": [
          139.816435,
          38.877206
        ]
      },
      "properties": {
        "NO": 12224,
        "共通ID": "E0620400119111",
        "都道府県名及び市町村名": "山形県酒田市",
        "施設・場所名": "十坂小学校",
        "住所": "山形県酒田市坂野辺新田字地続山987-1",
        "指定緊急避難場所との住所同一": "1",
        "その他市町村長が必要と認める事項": null,
        "受入対象者": null,
        "備考": ""
      }
    },
    {
      "type": "Feature",
      "geometry": {
        "type": "Point",
        "coordinates": [
          140.00821,
          38.847689
        ]
      },
      "properties": {
        "NO": 12225,
        "共通ID": "E0620400125111",
        "都道府県名及び市町村名": "山形県酒田市",
        "施設・場所名": "やまもと農村交流センター",
        "住所": "山形県酒田市山元字中峯1",
        "指定緊急避難場所との住所同一": "1",
        "その他市町村長が必要と認める事項": null,
        "受入対象者": null,
        "備考": ""
      }
    },
    {
      "type": "Feature",
      "geometry": {
        "type": "Point",
        "coordinates": [
          139.962271,
          38.849006
        ]
      },
      "properties": {
        "NO": 12226,
        "共通ID": "E0620400126111",
        "都道府県名及び市町村名": "山形県酒田市",
        "施設・場所名": "松山小学校（改築中）",
        "住所": "山形県酒田市山寺字見初沢157-1",
        "指定緊急避難場所との住所同一": "1",
        "その他市町村長が必要と認める事項": null,
        "受入対象者": null,
        "備考": ""
      }
    },
    {
      "type": "Feature",
      "geometry": {
        "type": "Point",
        "coordinates": [
          139.961672,
          38.849003
        ]
      },
      "properties": {
        "NO": 12227,
        "共通ID": "E0620400127111",
        "都道府県名及び市町村名": "山形県酒田市",
        "施設・場所名": "山寺コミュニティセンター",
        "住所": "山形県酒田市山寺字見初沢165",
        "指定緊急避難場所との住所同一": "1",
        "その他市町村長が必要と認める事項": null,
        "受入対象者": null,
        "備考": ""
      }
    },
    {
      "type": "Feature",
      "geometry": {
        "type": "Point",
        "coordinates": [
          139.933974,
          38.963478
        ]
      },
      "properties": {
        "NO": 12228,
        "共通ID": "E0620400132111",
        "都道府県名及び市町村名": "山形県酒田市",
        "施設・場所名": "一條コミュニティセンター",
        "住所": "山形県酒田市市条字村ノ前25-3",
        "指定緊急避難場所との住所同一": "1",
        "その他市町村長が必要と認める事項": null,
        "受入対象者": null,
        "備考": ""
      }
    },
    {
      "type": "Feature",
      "geometry": {
        "type": "Point",
        "coordinates": [
          139.954668,
          38.858192
        ]
      },
      "properties": {
        "NO": 12229,
        "共通ID": "E0620400134111",
        "都道府県名及び市町村名": "山形県酒田市",
        "施設・場所名": "松嶺コミュニティセンター",
        "住所": "山形県酒田市字山田20-1",
        "指定緊急避難場所との住所同一": "1",
        "その他市町村長が必要と認める事項": null,
        "受入対象者": null,
        "備考": ""
      }
    },
    {
      "type": "Feature",
      "geometry": {
        "type": "Point",
        "coordinates": [
          139.953833,
          38.857426
        ]
      },
      "properties": {
        "NO": 12230,
        "共通ID": "E0620400135111",
        "都道府県名及び市町村名": "山形県酒田市",
        "施設・場所名": "松山農村環境改善センター",
        "住所": "山形県酒田市字山田28",
        "指定緊急避難場所との住所同一": "1",
        "その他市町村長が必要と認める事項": null,
        "受入対象者": null,
        "備考": ""
      }
    },
    {
      "type": "Feature",
      "geometry": {
        "type": "Point",
        "coordinates": [
          139.962202,
          38.858706
        ]
      },
      "properties": {
        "NO": 12231,
        "共通ID": "E0620400138111",
        "都道府県名及び市町村名": "山形県酒田市",
        "施設・場所名": "松山体育館",
        "住所": "山形県酒田市字内町6-2",
        "指定緊急避難場所との住所同一": "1",
        "その他市町村長が必要と認める事項": null,
        "受入対象者": null,
        "備考": ""
      }
    },
    {
      "type": "Feature",
      "geometry": {
        "type": "Point",
        "coordinates": [
          139.927746,
          38.956881
        ]
      },
      "properties": {
        "NO": 12232,
        "共通ID": "E0620400139111",
        "都道府県名及び市町村名": "山形県酒田市",
        "施設・場所名": "一條小学校",
        "住所": "山形県酒田市寺田字沖1-1",
        "指定緊急避難場所との住所同一": "1",
        "その他市町村長が必要と認める事項": null,
        "受入対象者": null,
        "備考": ""
      }
    },
    {
      "type": "Feature",
      "geometry": {
        "type": "Point",
        "coordinates": [
          139.88919,
          38.931496
        ]
      },
      "properties": {
        "NO": 12233,
        "共通ID": "E0620400142111",
        "都道府県名及び市町村名": "山形県酒田市",
        "施設・場所名": "北平田コミュニティセンター",
        "住所": "山形県酒田市漆曽根字千刈13",
        "指定緊急避難場所との住所同一": "1",
        "その他市町村長が必要と認める事項": null,
        "受入対象者": null,
        "備考": ""
      }
    },
    {
      "type": "Feature",
      "geometry": {
        "type": "Point",
        "coordinates": [
          139.849689,
          38.914533
        ]
      },
      "properties": {
        "NO": 12234,
        "共通ID": "E0620400154111",
        "都道府県名及び市町村名": "山形県酒田市",
        "施設・場所名": "若浜小学校",
        "住所": "山形県酒田市若浜町1-1",
        "指定緊急避難場所との住所同一": "1",
        "その他市町村長が必要と認める事項": null,
        "受入対象者": null,
        "備考": ""
      }
    },
    {
      "type": "Feature",
      "geometry": {
        "type": "Point",
        "coordinates": [
          139.84817,
          38.913653
        ]
      },
      "properties": {
        "NO": 12235,
        "共通ID": "E0620400156111",
        "都道府県名及び市町村名": "山形県酒田市",
        "施設・場所名": "若浜学区コミュニティ防災センター",
        "住所": "山形県酒田市若浜町1-48",
        "指定緊急避難場所との住所同一": "1",
        "その他市町村長が必要と認める事項": null,
        "受入対象者": null,
        "備考": ""
      }
    },
    {
      "type": "Feature",
      "geometry": {
        "type": "Point",
        "coordinates": [
          139.835474,
          38.929271
        ]
      },
      "properties": {
        "NO": 12236,
        "共通ID": "E0620400161111",
        "都道府県名及び市町村名": "山形県酒田市",
        "施設・場所名": "第一中学校",
        "住所": "山形県酒田市住吉町10-70",
        "指定緊急避難場所との住所同一": "1",
        "その他市町村長が必要と認める事項": null,
        "受入対象者": null,
        "備考": ""
      }
    },
    {
      "type": "Feature",
      "geometry": {
        "type": "Point",
        "coordinates": [
          139.8343,
          38.931469
        ]
      },
      "properties": {
        "NO": 12237,
        "共通ID": "E0620400163111",
        "都道府県名及び市町村名": "山形県酒田市",
        "施設・場所名": "松陵小学校",
        "住所": "山形県酒田市住吉町9-36",
        "指定緊急避難場所との住所同一": "1",
        "その他市町村長が必要と認める事項": null,
        "受入対象者": null,
        "備考": ""
      }
    },
    {
      "type": "Feature",
      "geometry": {
        "type": "Point",
        "coordinates": [
          139.816581,
          38.878083
        ]
      },
      "properties": {
        "NO": 12238,
        "共通ID": "E0620400164111",
        "都道府県名及び市町村名": "山形県酒田市",
        "施設・場所名": "十坂コミュニティセンター",
        "住所": "山形県酒田市十里塚字村東山112-4",
        "指定緊急避難場所との住所同一": "1",
        "その他市町村長が必要と認める事項": null,
        "受入対象者": null,
        "備考": ""
      }
    },
    {
      "type": "Feature",
      "geometry": {
        "type": "Point",
        "coordinates": [
          139.86424,
          38.920087
        ]
      },
      "properties": {
        "NO": 12239,
        "共通ID": "E0620400363121",
        "都道府県名及び市町村名": "山形県酒田市",
        "施設・場所名": "老人保健施設明日葉",
        "住所": "山形県酒田市曙町2-18-6",
        "指定緊急避難場所との住所同一": "",
        "その他市町村長が必要と認める事項": "",
        "受入対象者": "要配慮者等で施設が認めたもの",
        "備考": ""
      }
    },
    {
      "type": "Feature",
      "geometry": {
        "type": "Point",
        "coordinates": [
          139.864166,
          38.919453
        ]
      },
      "properties": {
        "NO": 12240,
        "共通ID": "E0620400364121",
        "都道府県名及び市町村名": "山形県酒田市",
        "施設・場所名": "特別養護老人ホームサン・シティ",
        "住所": "山形県酒田市曙町2-26-1",
        "指定緊急避難場所との住所同一": "",
        "その他市町村長が必要と認める事項": "",
        "受入対象者": "要配慮者等で施設が認めたもの",
        "備考": ""
      }
    },
    {
      "type": "Feature",
      "geometry": {
        "type": "Point",
        "coordinates": [
          139.863017,
          38.919019
        ]
      },
      "properties": {
        "NO": 12241,
        "共通ID": "E0620400365121",
        "都道府県名及び市町村名": "山形県酒田市",
        "施設・場所名": "地域密着型特別養護老人ホームサン・シティⅡ",
        "住所": "山形県酒田市曙町2-28-5",
        "指定緊急避難場所との住所同一": "",
        "その他市町村長が必要と認める事項": "",
        "受入対象者": "要配慮者等で施設が認めたもの",
        "備考": ""
      }
    },
    {
      "type": "Feature",
      "geometry": {
        "type": "Point",
        "coordinates": [
          139.86383,
          38.919075
        ]
      },
      "properties": {
        "NO": 12242,
        "共通ID": "E0620400169111",
        "都道府県名及び市町村名": "山形県酒田市",
        "施設・場所名": "富士見学区コミュニティ防災センター",
        "住所": "山形県酒田市曙町2-68-3",
        "指定緊急避難場所との住所同一": "1",
        "その他市町村長が必要と認める事項": null,
        "受入対象者": null,
        "備考": ""
      }
    },
    {
      "type": "Feature",
      "geometry": {
        "type": "Point",
        "coordinates": [
          140.040335,
          38.998472
        ]
      },
      "properties": {
        "NO": 12243,
        "共通ID": "E0620400171111",
        "都道府県名及び市町村名": "山形県酒田市",
        "施設・場所名": "滝の里ふれあい館",
        "住所": "山形県酒田市升田字大西11-1",
        "指定緊急避難場所との住所同一": "1",
        "その他市町村長が必要と認める事項": null,
        "受入対象者": null,
        "備考": ""
      }
    },
    {
      "type": "Feature",
      "geometry": {
        "type": "Point",
        "coordinates": [
          139.935232,
          38.969248
        ]
      },
      "properties": {
        "NO": 12244,
        "共通ID": "E0620400366121",
        "都道府県名及び市町村名": "山形県酒田市",
        "施設・場所名": "特別養護老人ホーム幸楽荘",
        "住所": "山形県酒田市小泉字前田50",
        "指定緊急避難場所との住所同一": "",
        "その他市町村長が必要と認める事項": "",
        "受入対象者": "要配慮者等で施設が認めたもの",
        "備考": ""
      }
    },
    {
      "type": "Feature",
      "geometry": {
        "type": "Point",
        "coordinates": [
          139.936247,
          38.968515
        ]
      },
      "properties": {
        "NO": 12245,
        "共通ID": "E0620400173111",
        "都道府県名及び市町村名": "山形県酒田市",
        "施設・場所名": "鳥海八幡中学校",
        "住所": "山形県酒田市小泉字前田91-1",
        "指定緊急避難場所との住所同一": "1",
        "その他市町村長が必要と認める事項": null,
        "受入対象者": null,
        "備考": ""
      }
    },
    {
      "type": "Feature",
      "geometry": {
        "type": "Point",
        "coordinates": [
          140.010313,
          38.833373
        ]
      },
      "properties": {
        "NO": 12246,
        "共通ID": "E0620400174111",
        "都道府県名及び市町村名": "山形県酒田市",
        "施設・場所名": "小林温泉",
        "住所": "山形県酒田市小林字杉沢117-1",
        "指定緊急避難場所との住所同一": "1",
        "その他市町村長が必要と認める事項": null,
        "受入対象者": null,
        "備考": ""
      }
    },
    {
      "type": "Feature",
      "geometry": {
        "type": "Point",
        "coordinates": [
          139.852295,
          38.90105
        ]
      },
      "properties": {
        "NO": 12247,
        "共通ID": "E0620400176111",
        "都道府県名及び市町村名": "山形県酒田市",
        "施設・場所名": "第三中学校",
        "住所": "山形県酒田市松原南13-1",
        "指定緊急避難場所との住所同一": "1",
        "その他市町村長が必要と認める事項": null,
        "受入対象者": null,
        "備考": ""
      }
    },
    {
      "type": "Feature",
      "geometry": {
        "type": "Point",
        "coordinates": [
          140.000313,
          38.993239
        ]
      },
      "properties": {
        "NO": 12248,
        "共通ID": "E0620400180111",
        "都道府県名及び市町村名": "山形県酒田市",
        "施設・場所名": "日向コミュニティセンター",
        "住所": "山形県酒田市上黒川字家ノ東19-2",
        "指定緊急避難場所との住所同一": "1",
        "その他市町村長が必要と認める事項": null,
        "受入対象者": null,
        "備考": ""
      }
    },
    {
      "type": "Feature",
      "geometry": {
        "type": "Point",
        "coordinates": [
          140.03316,
          38.969942
        ]
      },
      "properties": {
        "NO": 12249,
        "共通ID": "E0620400181111",
        "都道府県名及び市町村名": "山形県酒田市",
        "施設・場所名": "曙自治会館",
        "住所": "山形県酒田市上青沢字向芦沢154-5",
        "指定緊急避難場所との住所同一": "1",
        "その他市町村長が必要と認める事項": null,
        "受入対象者": null,
        "備考": ""
      }
    },
    {
      "type": "Feature",
      "geometry": {
        "type": "Point",
        "coordinates": [
          139.888898,
          38.944101
        ]
      },
      "properties": {
        "NO": 12250,
        "共通ID": "E0620400184111",
        "都道府県名及び市町村名": "山形県酒田市",
        "施設・場所名": "上田コミュニティ防災センター",
        "住所": "山形県酒田市上野曽根字上中割49",
        "指定緊急避難場所との住所同一": "1",
        "その他市町村長が必要と認める事項": null,
        "受入対象者": null,
        "備考": ""
      }
    },
    {
      "type": "Feature",
      "geometry": {
        "type": "Point",
        "coordinates": [
          139.853416,
          38.915583
        ]
      },
      "properties": {
        "NO": 12251,
        "共通ID": "E0620400193111",
        "都道府県名及び市町村名": "山形県酒田市",
        "施設・場所名": "第二中学校",
        "住所": "山形県酒田市新橋4-19-3",
        "指定緊急避難場所との住所同一": "1",
        "その他市町村長が必要と認める事項": null,
        "受入対象者": null,
        "備考": ""
      }
    },
    {
      "type": "Feature",
      "geometry": {
        "type": "Point",
        "coordinates": [
          139.83314,
          38.933062
        ]
      },
      "properties": {
        "NO": 12252,
        "共通ID": "E0620400196111",
        "都道府県名及び市町村名": "山形県酒田市",
        "施設・場所名": "酒田市武道館",
        "住所": "山形県酒田市新町光ケ丘33-26",
        "指定緊急避難場所との住所同一": "1",
        "その他市町村長が必要と認める事項": null,
        "受入対象者": null,
        "備考": ""
      }
    },
    {
      "type": "Feature",
      "geometry": {
        "type": "Point",
        "coordinates": [
          139.939856,
          38.922505
        ]
      },
      "properties": {
        "NO": 12253,
        "共通ID": "E0620400367121",
        "都道府県名及び市町村名": "山形県酒田市",
        "施設・場所名": "地域密着型特別養護老人ホームあずま",
        "住所": "山形県酒田市生石字奥山155-1",
        "指定緊急避難場所との住所同一": "",
        "その他市町村長が必要と認める事項": "",
        "受入対象者": "要配慮者等で施設が認めたもの",
        "備考": ""
      }
    },
    {
      "type": "Feature",
      "geometry": {
        "type": "Point",
        "coordinates": [
          139.937567,
          38.923155
        ]
      },
      "properties": {
        "NO": 12254,
        "共通ID": "E0620400198111",
        "都道府県名及び市町村名": "山形県酒田市",
        "施設・場所名": "東平田コミュニティ防災センター",
        "住所": "山形県酒田市生石字登路田8-1",
        "指定緊急避難場所との住所同一": "1",
        "その他市町村長が必要と認める事項": null,
        "受入対象者": null,
        "備考": ""
      }
    },
    {
      "type": "Feature",
      "geometry": {
        "type": "Point",
        "coordinates": [
          139.95179,
          38.875222
        ]
      },
      "properties": {
        "NO": 12255,
        "共通ID": "E0620400211111",
        "都道府県名及び市町村名": "山形県酒田市",
        "施設・場所名": "内郷コミュニティセンター",
        "住所": "山形県酒田市相沢字鶴牧56",
        "指定緊急避難場所との住所同一": "1",
        "その他市町村長が必要と認める事項": null,
        "受入対象者": null,
        "備考": ""
      }
    },
    {
      "type": "Feature",
      "geometry": {
        "type": "Point",
        "coordinates": [
          139.951039,
          38.875135
        ]
      },
      "properties": {
        "NO": 12256,
        "共通ID": "E0620400212111",
        "都道府県名及び市町村名": "山形県酒田市",
        "施設・場所名": "松山小学校（旧内郷小学校）",
        "住所": "山形県酒田市相沢字鶴牧6",
        "指定緊急避難場所との住所同一": "1",
        "その他市町村長が必要と認める事項": null,
        "受入対象者": null,
        "備考": ""
      }
    },
    {
      "type": "Feature",
      "geometry": {
        "type": "Point",
        "coordinates": [
          139.939342,
          38.876246
        ]
      },
      "properties": {
        "NO": 12257,
        "共通ID": "E0620400368121",
        "都道府県名及び市町村名": "山形県酒田市",
        "施設・場所名": "医療法人徳洲会介護老人保健施設徳田山",
        "住所": "山形県酒田市相沢字道脇7",
        "指定緊急避難場所との住所同一": "",
        "その他市町村長が必要と認める事項": "",
        "受入対象者": "要配慮者等で施設が認めたもの",
        "備考": ""
      }
    },
    {
      "type": "Feature",
      "geometry": {
        "type": "Point",
        "coordinates": [
          139.947442,
          38.878447
        ]
      },
      "properties": {
        "NO": 12258,
        "共通ID": "E0620400369121",
        "都道府県名及び市町村名": "山形県酒田市",
        "施設・場所名": "障がい者支援施設和光園",
        "住所": "山形県酒田市相沢字北森155",
        "指定緊急避難場所との住所同一": "",
        "その他市町村長が必要と認める事項": "",
        "受入対象者": "要配慮者等で施設が認めたもの",
        "備考": ""
      }
    },
    {
      "type": "Feature",
      "geometry": {
        "type": "Point",
        "coordinates": [
          140.034984,
          39.034409
        ]
      },
      "properties": {
        "NO": 12259,
        "共通ID": "E0620400214111",
        "都道府県名及び市町村名": "山形県酒田市",
        "施設・場所名": "鳥海高原家族旅行村",
        "住所": "山形県酒田市草津字湯ノ台149",
        "指定緊急避難場所との住所同一": "1",
        "その他市町村長が必要と認める事項": null,
        "受入対象者": null,
        "備考": ""
      }
    },
    {
      "type": "Feature",
      "geometry": {
        "type": "Point",
        "coordinates": [
          140.03297,
          39.030808
        ]
      },
      "properties": {
        "NO": 12260,
        "共通ID": "E0620400215111",
        "都道府県名及び市町村名": "山形県酒田市",
        "施設・場所名": "湯ノ台温泉鳥海山荘",
        "住所": "山形県酒田市草津字湯ノ台66-1",
        "指定緊急避難場所との住所同一": "1",
        "その他市町村長が必要と認める事項": null,
        "受入対象者": null,
        "備考": ""
      }
    },
    {
      "type": "Feature",
      "geometry": {
        "type": "Point",
        "coordinates": [
          139.997248,
          38.96463
        ]
      },
      "properties": {
        "NO": 12261,
        "共通ID": "E0620400222111",
        "都道府県名及び市町村名": "山形県酒田市",
        "施設・場所名": "大沢コミュニティセンター",
        "住所": "山形県酒田市大蕨字二タ子213",
        "指定緊急避難場所との住所同一": "1",
        "その他市町村長が必要と認める事項": null,
        "受入対象者": null,
        "備考": ""
      }
    },
    {
      "type": "Feature",
      "geometry": {
        "type": "Point",
        "coordinates": [
          139.995357,
          38.812887
        ]
      },
      "properties": {
        "NO": 12262,
        "共通ID": "E0620400223111",
        "都道府県名及び市町村名": "山形県酒田市",
        "施設・場所名": "南部コミュニティセンター（旧地見興屋小学校）",
        "住所": "山形県酒田市地見興屋字前割9-1",
        "指定緊急避難場所との住所同一": "1",
        "その他市町村長が必要と認める事項": null,
        "受入対象者": null,
        "備考": ""
      }
    },
    {
      "type": "Feature",
      "geometry": {
        "type": "Point",
        "coordinates": [
          139.837134,
          38.921188
        ]
      },
      "properties": {
        "NO": 12263,
        "共通ID": "E0620400225111",
        "都道府県名及び市町村名": "山形県酒田市",
        "施設・場所名": "酒田市総合文化センター",
        "住所": "山形県酒田市中央西町2-59",
        "指定緊急避難場所との住所同一": "1",
        "その他市町村長が必要と認める事項": null,
        "受入対象者": null,
        "備考": ""
      }
    },
    {
      "type": "Feature",
      "geometry": {
        "type": "Point",
        "coordinates": [
          139.834231,
          38.916949
        ]
      },
      "properties": {
        "NO": 12264,
        "共通ID": "E0620400232121",
        "都道府県名及び市町村名": "山形県酒田市",
        "施設・場所名": "介護老人保健施設ひだまり",
        "住所": "山形県酒田市中町3-5-23",
        "指定緊急避難場所との住所同一": "1",
        "その他市町村長が必要と認める事項": "",
        "受入対象者": "要配慮者等で施設が認めたもの",
        "備考": ""
      }
    },
    {
      "type": "Feature",
      "geometry": {
        "type": "Point",
        "coordinates": [
          139.939535,
          38.87511
        ]
      },
      "properties": {
        "NO": 12265,
        "共通ID": "E0620400370121",
        "都道府県名及び市町村名": "山形県酒田市",
        "施設・場所名": "特別養護老人ホームさくらホーム",
        "住所": "山形県酒田市中牧田字丸福171",
        "指定緊急避難場所との住所同一": "",
        "その他市町村長が必要と認める事項": "",
        "受入対象者": "要配慮者等で施設が認めたもの",
        "備考": ""
      }
    },
    {
      "type": "Feature",
      "geometry": {
        "type": "Point",
        "coordinates": [
          139.991319,
          38.873663
        ]
      },
      "properties": {
        "NO": 12266,
        "共通ID": "E0620400239111",
        "都道府県名及び市町村名": "山形県酒田市",
        "施設・場所名": "旧田沢小学校",
        "住所": "山形県酒田市田沢字小平34-2",
        "指定緊急避難場所との住所同一": "1",
        "その他市町村長が必要と認める事項": "",
        "受入対象者": "",
        "備考": ""
      }
    },
    {
      "type": "Feature",
      "geometry": {
        "type": "Point",
        "coordinates": [
          139.992479,
          38.872597
        ]
      },
      "properties": {
        "NO": 12267,
        "共通ID": "E0620400240111",
        "都道府県名及び市町村名": "山形県酒田市",
        "施設・場所名": "田沢コミュニティセンター",
        "住所": "山形県酒田市田沢字道の外105",
        "指定緊急避難場所との住所同一": "1",
        "その他市町村長が必要と認める事項": null,
        "受入対象者": null,
        "備考": ""
      }
    },
    {
      "type": "Feature",
      "geometry": {
        "type": "Point",
        "coordinates": [
          139.851355,
          38.931754
        ]
      },
      "properties": {
        "NO": 12268,
        "共通ID": "E0620400248111",
        "都道府県名及び市町村名": "山形県酒田市",
        "施設・場所名": "泉小学校",
        "住所": "山形県酒田市東泉町4-4-1",
        "指定緊急避難場所との住所同一": "1",
        "その他市町村長が必要と認める事項": null,
        "受入対象者": null,
        "備考": ""
      }
    },
    {
      "type": "Feature",
      "geometry": {
        "type": "Point",
        "coordinates": [
          139.851145,
          38.933689
        ]
      },
      "properties": {
        "NO": 12269,
        "共通ID": "E0620400251111",
        "都道府県名及び市町村名": "山形県酒田市",
        "施設・場所名": "酒田西高等学校体育館",
        "住所": "山形県酒田市東泉町5-9-5",
        "指定緊急避難場所との住所同一": "1",
        "その他市町村長が必要と認める事項": null,
        "受入対象者": null,
        "備考": ""
      }
    },
    {
      "type": "Feature",
      "geometry": {
        "type": "Point",
        "coordinates": [
          139.949942,
          38.892219
        ]
      },
      "properties": {
        "NO": 12270,
        "共通ID": "E0620400371121",
        "都道府県名及び市町村名": "山形県酒田市",
        "施設・場所名": "特別養護老人ホーム寿康園",
        "住所": "山形県酒田市楢橋字大柳3-1",
        "指定緊急避難場所との住所同一": "",
        "その他市町村長が必要と認める事項": "",
        "受入対象者": "要配慮者等で施設が認めたもの",
        "備考": ""
      }
    },
    {
      "type": "Feature",
      "geometry": {
        "type": "Point",
        "coordinates": [
          139.831949,
          38.907261
        ]
      },
      "properties": {
        "NO": 12271,
        "共通ID": "E0620400274111",
        "都道府県名及び市町村名": "山形県酒田市",
        "施設・場所名": "港南コミュニティ防災センター",
        "住所": "山形県酒田市入船町3-15",
        "指定緊急避難場所との住所同一": "",
        "その他市町村長が必要と認める事項": null,
        "受入対象者": null,
        "備考": ""
      }
    },
    {
      "type": "Feature",
      "geometry": {
        "type": "Point",
        "coordinates": [
          139.822258,
          38.893133
        ]
      },
      "properties": {
        "NO": 12272,
        "共通ID": "E0620400353111",
        "都道府県名及び市町村名": "山形県酒田市",
        "施設・場所名": "国体記念体育館",
        "住所": "山形県酒田市飯森山2-296-1",
        "指定緊急避難場所との住所同一": "",
        "その他市町村長が必要と認める事項": "",
        "受入対象者": "",
        "備考": ""
      }
    },
    {
      "type": "Feature",
      "geometry": {
        "type": "Point",
        "coordinates": [
          139.819563,
          38.892318
        ]
      },
      "properties": {
        "NO": 12273,
        "共通ID": "E0620400278111",
        "都道府県名及び市町村名": "山形県酒田市",
        "施設・場所名": "酒田市公益研修センター",
        "住所": "山形県酒田市飯森山3-5-1",
        "指定緊急避難場所との住所同一": "1",
        "その他市町村長が必要と認める事項": null,
        "受入対象者": null,
        "備考": ""
      }
    },
    {
      "type": "Feature",
      "geometry": {
        "type": "Point",
        "coordinates": [
          139.928068,
          38.889185
        ]
      },
      "properties": {
        "NO": 12274,
        "共通ID": "E0620400279111",
        "都道府県名及び市町村名": "山形県酒田市",
        "施設・場所名": "ひらたＢ＆Ｇ海洋センター",
        "住所": "山形県酒田市飛鳥字契約場31",
        "指定緊急避難場所との住所同一": "1",
        "その他市町村長が必要と認める事項": null,
        "受入対象者": null,
        "備考": ""
      }
    },
    {
      "type": "Feature",
      "geometry": {
        "type": "Point",
        "coordinates": [
          139.92658,
          38.889148
        ]
      },
      "properties": {
        "NO": 12275,
        "共通ID": "E0620400280111",
        "都道府県名及び市町村名": "山形県酒田市",
        "施設・場所名": "ひらたタウンセンター",
        "住所": "山形県酒田市飛鳥字契約場35",
        "指定緊急避難場所との住所同一": "1",
        "その他市町村長が必要と認める事項": null,
        "受入対象者": null,
        "備考": ""
      }
    },
    {
      "type": "Feature",
      "geometry": {
        "type": "Point",
        "coordinates": [
          139.925499,
          38.887114
        ]
      },
      "properties": {
        "NO": 12276,
        "共通ID": "E0620400281111",
        "都道府県名及び市町村名": "山形県酒田市",
        "施設・場所名": "平田農村環境改善センター",
        "住所": "山形県酒田市飛鳥字契約場70-1",
        "指定緊急避難場所との住所同一": "1",
        "その他市町村長が必要と認める事項": null,
        "受入対象者": null,
        "備考": ""
      }
    },
    {
      "type": "Feature",
      "geometry": {
        "type": "Point",
        "coordinates": [
          139.925434,
          38.886721
        ]
      },
      "properties": {
        "NO": 12277,
        "共通ID": "E0620400282111",
        "都道府県名及び市町村名": "山形県酒田市",
        "施設・場所名": "南平田コミュニティセンター",
        "住所": "山形県酒田市飛鳥字契約場80",
        "指定緊急避難場所との住所同一": "1",
        "その他市町村長が必要と認める事項": null,
        "受入対象者": null,
        "備考": ""
      }
    },
    {
      "type": "Feature",
      "geometry": {
        "type": "Point",
        "coordinates": [
          139.923736,
          38.889667
        ]
      },
      "properties": {
        "NO": 12278,
        "共通ID": "E0620400283111",
        "都道府県名及び市町村名": "山形県酒田市",
        "施設・場所名": "南平田小学校",
        "住所": "山形県酒田市飛鳥字腰巻99",
        "指定緊急避難場所との住所同一": "1",
        "その他市町村長が必要と認める事項": null,
        "受入対象者": null,
        "備考": ""
      }
    },
    {
      "type": "Feature",
      "geometry": {
        "type": "Point",
        "coordinates": [
          139.931622,
          38.889715
        ]
      },
      "properties": {
        "NO": 12279,
        "共通ID": "E0620400286111",
        "都道府県名及び市町村名": "山形県酒田市",
        "施設・場所名": "東部中学校",
        "住所": "山形県酒田市飛鳥字堂之後30",
        "指定緊急避難場所との住所同一": "1",
        "その他市町村長が必要と認める事項": null,
        "受入対象者": null,
        "備考": ""
      }
    },
    {
      "type": "Feature",
      "geometry": {
        "type": "Point",
        "coordinates": [
          139.559743,
          39.195973
        ]
      },
      "properties": {
        "NO": 12280,
        "共通ID": "E0620400288111",
        "都道府県名及び市町村名": "山形県酒田市",
        "施設・場所名": "とびしま総合センター",
        "住所": "山形県酒田市飛島字中村甲283",
        "指定緊急避難場所との住所同一": "1",
        "その他市町村長が必要と認める事項": null,
        "受入対象者": null,
        "備考": ""
      }
    },
    {
      "type": "Feature",
      "geometry": {
        "type": "Point",
        "coordinates": [
          139.558872,
          39.195882
        ]
      },
      "properties": {
        "NO": 12281,
        "共通ID": "E0620400288112",
        "都道府県名及び市町村名": "山形県酒田市",
        "施設・場所名": "飛島小・中学校",
        "住所": "山形県酒田市飛島字中村甲283",
        "指定緊急避難場所との住所同一": "1",
        "その他市町村長が必要と認める事項": null,
        "受入対象者": null,
        "備考": ""
      }
    },
    {
      "type": "Feature",
      "geometry": {
        "type": "Point",
        "coordinates": [
          139.783586,
          38.825931
        ]
      },
      "properties": {
        "NO": 12282,
        "共通ID": "E0620400291111",
        "都道府県名及び市町村名": "山形県酒田市",
        "施設・場所名": "浜中小学校",
        "住所": "山形県酒田市浜中字上村370-2",
        "指定緊急避難場所との住所同一": "1",
        "その他市町村長が必要と認める事項": null,
        "受入対象者": null,
        "備考": ""
      }
    },
    {
      "type": "Feature",
      "geometry": {
        "type": "Point",
        "coordinates": [
          139.784953,
          38.825381
        ]
      },
      "properties": {
        "NO": 12283,
        "共通ID": "E0620400292111",
        "都道府県名及び市町村名": "山形県酒田市",
        "施設・場所名": "浜中コミュニティセンター",
        "住所": "山形県酒田市浜中字上村386-11",
        "指定緊急避難場所との住所同一": "1",
        "その他市町村長が必要と認める事項": null,
        "受入対象者": null,
        "備考": ""
      }
    },
    {
      "type": "Feature",
      "geometry": {
        "type": "Point",
        "coordinates": [
          139.785203,
          38.825563
        ]
      },
      "properties": {
        "NO": 12284,
        "共通ID": "E0620400293111",
        "都道府県名及び市町村名": "山形県酒田市",
        "施設・場所名": "浜中農村研修センター",
        "住所": "山形県酒田市浜中字上村387-3",
        "指定緊急避難場所との住所同一": "1",
        "その他市町村長が必要と認める事項": null,
        "受入対象者": null,
        "備考": ""
      }
    },
    {
      "type": "Feature",
      "geometry": {
        "type": "Point",
        "coordinates": [
          139.845468,
          38.916991
        ]
      },
      "properties": {
        "NO": 12285,
        "共通ID": "E0620400296111",
        "都道府県名及び市町村名": "山形県酒田市",
        "施設・場所名": "浜田学区コミュニティ防災センター",
        "住所": "山形県酒田市浜田1-10-3",
        "指定緊急避難場所との住所同一": "1",
        "その他市町村長が必要と認める事項": null,
        "受入対象者": null,
        "備考": ""
      }
    },
    {
      "type": "Feature",
      "geometry": {
        "type": "Point",
        "coordinates": [
          139.848399,
          38.917664
        ]
      },
      "properties": {
        "NO": 12286,
        "共通ID": "E0620400297111",
        "都道府県名及び市町村名": "山形県酒田市",
        "施設・場所名": "酒田南高等学校体育館",
        "住所": "山形県酒田市浜田1-3-47",
        "指定緊急避難場所との住所同一": "1",
        "その他市町村長が必要と認める事項": null,
        "受入対象者": null,
        "備考": ""
      }
    },
    {
      "type": "Feature",
      "geometry": {
        "type": "Point",
        "coordinates": [
          139.846524,
          38.916996
        ]
      },
      "properties": {
        "NO": 12287,
        "共通ID": "E0620400298111",
        "都道府県名及び市町村名": "山形県酒田市",
        "施設・場所名": "浜田小学校",
        "住所": "山形県酒田市浜田1-5-46",
        "指定緊急避難場所との住所同一": "1",
        "その他市町村長が必要と認める事項": null,
        "受入対象者": null,
        "備考": ""
      }
    },
    {
      "type": "Feature",
      "geometry": {
        "type": "Point",
        "coordinates": [
          139.862476,
          38.92449
        ]
      },
      "properties": {
        "NO": 12288,
        "共通ID": "E0620400301111",
        "都道府県名及び市町村名": "山形県酒田市",
        "施設・場所名": "富士見小学校",
        "住所": "山形県酒田市富士見町2-10-1",
        "指定緊急避難場所との住所同一": "1",
        "その他市町村長が必要と認める事項": null,
        "受入対象者": null,
        "備考": ""
      }
    },
    {
      "type": "Feature",
      "geometry": {
        "type": "Point",
        "coordinates": [
          139.832913,
          38.923483
        ]
      },
      "properties": {
        "NO": 12289,
        "共通ID": "E0620400315111",
        "都道府県名及び市町村名": "山形県酒田市",
        "施設・場所名": "酒田西高等学校定時制校舎体育館",
        "住所": "山形県酒田市北新町1-1-57",
        "指定緊急避難場所との住所同一": "1",
        "その他市町村長が必要と認める事項": null,
        "受入対象者": null,
        "備考": ""
      }
    },
    {
      "type": "Feature",
      "geometry": {
        "type": "Point",
        "coordinates": [
          139.833613,
          38.9229
        ]
      },
      "properties": {
        "NO": 12290,
        "共通ID": "E0620400316111",
        "都道府県名及び市町村名": "山形県酒田市",
        "施設・場所名": "琢成学区コミュニティ防災センター",
        "住所": "山形県酒田市北新町1-1-60",
        "指定緊急避難場所との住所同一": "1",
        "その他市町村長が必要と認める事項": null,
        "受入対象者": null,
        "備考": ""
      }
    },
    {
      "type": "Feature",
      "geometry": {
        "type": "Point",
        "coordinates": [
          140.047097,
          38.967542
        ]
      },
      "properties": {
        "NO": 12291,
        "共通ID": "E0620400318111",
        "都道府県名及び市町村名": "山形県酒田市",
        "施設・場所名": "青沢克雪管理センター",
        "住所": "山形県酒田市北青沢字家ノ前280",
        "指定緊急避難場所との住所同一": "1",
        "その他市町村長が必要と認める事項": null,
        "受入対象者": null,
        "備考": ""
      }
    },
    {
      "type": "Feature",
      "geometry": {
        "type": "Point",
        "coordinates": [
          139.834532,
          38.935716
        ]
      },
      "properties": {
        "NO": 12292,
        "共通ID": "E0620400372121",
        "都道府県名及び市町村名": "山形県酒田市",
        "施設・場所名": "特定施設かたばみの家",
        "住所": "山形県酒田市北千日堂前字松境16",
        "指定緊急避難場所との住所同一": "",
        "その他市町村長が必要と認める事項": "",
        "受入対象者": "要配慮者等で施設が認めたもの",
        "備考": ""
      }
    },
    {
      "type": "Feature",
      "geometry": {
        "type": "Point",
        "coordinates": [
          139.835281,
          38.935375
        ]
      },
      "properties": {
        "NO": 12293,
        "共通ID": "E0620400322121",
        "都道府県名及び市町村名": "山形県酒田市",
        "施設・場所名": "特別養護老人ホームかたばみ荘",
        "住所": "山形県酒田市北千日堂前字松境18-1",
        "指定緊急避難場所との住所同一": "1",
        "その他市町村長が必要と認める事項": "",
        "受入対象者": "要配慮者等で施設が認めたもの",
        "備考": ""
      }
    },
    {
      "type": "Feature",
      "geometry": {
        "type": "Point",
        "coordinates": [
          139.833754,
          38.932926
        ]
      },
      "properties": {
        "NO": 12294,
        "共通ID": "E0620400323111",
        "都道府県名及び市町村名": "山形県酒田市",
        "施設・場所名": "酒田光陵高等学校体育館",
        "住所": "山形県酒田市北千日堂前字松境7-3",
        "指定緊急避難場所との住所同一": "1",
        "その他市町村長が必要と認める事項": null,
        "受入対象者": null,
        "備考": ""
      }
    },
    {
      "type": "Feature",
      "geometry": {
        "type": "Point",
        "coordinates": [
          139.980008,
          38.894275
        ]
      },
      "properties": {
        "NO": 12295,
        "共通ID": "E0620400326111",
        "都道府県名及び市町村名": "山形県酒田市",
        "施設・場所名": "ひらた生涯学習センター",
        "住所": "山形県酒田市北俣字仁助新田31-1",
        "指定緊急避難場所との住所同一": "1",
        "その他市町村長が必要と認める事項": null,
        "受入対象者": null,
        "備考": ""
      }
    },
    {
      "type": "Feature",
      "geometry": {
        "type": "Point",
        "coordinates": [
          139.88754,
          38.967818
        ]
      },
      "properties": {
        "NO": 12296,
        "共通ID": "E0620400328111",
        "都道府県名及び市町村名": "山形県酒田市",
        "施設・場所名": "北部農民センター（本楯コミュニティセンター）",
        "住所": "山形県酒田市本楯字新田目87-1",
        "指定緊急避難場所との住所同一": "1",
        "その他市町村長が必要と認める事項": null,
        "受入対象者": null,
        "備考": ""
      }
    },
    {
      "type": "Feature",
      "geometry": {
        "type": "Point",
        "coordinates": [
          139.889023,
          38.964564
        ]
      },
      "properties": {
        "NO": 12297,
        "共通ID": "E0620400373121",
        "都道府県名及び市町村名": "山形県酒田市",
        "施設・場所名": "老人保健施設うらら",
        "住所": "山形県酒田市本楯字前田127-2",
        "指定緊急避難場所との住所同一": "",
        "その他市町村長が必要と認める事項": "",
        "受入対象者": "要配慮者等で施設が認めたもの",
        "備考": ""
      }
    },
    {
      "type": "Feature",
      "geometry": {
        "type": "Point",
        "coordinates": [
          139.888253,
          38.962905
        ]
      },
      "properties": {
        "NO": 12298,
        "共通ID": "E0620400329111",
        "都道府県名及び市町村名": "山形県酒田市",
        "施設・場所名": "鳥海小学校",
        "住所": "山形県酒田市本楯字前田94-1",
        "指定緊急避難場所との住所同一": "1",
        "その他市町村長が必要と認める事項": null,
        "受入対象者": null,
        "備考": ""
      }
    },
    {
      "type": "Feature",
      "geometry": {
        "type": "Point",
        "coordinates": [
          139.877136,
          38.867859
        ]
      },
      "properties": {
        "NO": 12299,
        "共通ID": "E0620400336111",
        "都道府県名及び市町村名": "山形県酒田市",
        "施設・場所名": "新堀小学校",
        "住所": "山形県酒田市木川字アラコウヤ32",
        "指定緊急避難場所との住所同一": "1",
        "その他市町村長が必要と認める事項": null,
        "受入対象者": null,
        "備考": ""
      }
    },
    {
      "type": "Feature",
      "geometry": {
        "type": "Point",
        "coordinates": [
          139.877156,
          38.868298
        ]
      },
      "properties": {
        "NO": 12300,
        "共通ID": "E0620400337111",
        "都道府県名及び市町村名": "山形県酒田市",
        "施設・場所名": "新堀コミュニティ防災センター",
        "住所": "山形県酒田市木川字アラコウヤ34",
        "指定緊急避難場所との住所同一": "1",
        "その他市町村長が必要と認める事項": null,
        "受入対象者": null,
        "備考": ""
      }
    },
    {
      "type": "Feature",
      "geometry": {
        "type": "Point",
        "coordinates": [
          139.808594,
          38.896603
        ]
      },
      "properties": {
        "NO": 12301,
        "共通ID": "E0620400374121",
        "都道府県名及び市町村名": "山形県酒田市",
        "施設・場所名": "地域密着型介護老人福祉施設あおい",
        "住所": "山形県酒田市緑ケ丘2-16-1",
        "指定緊急避難場所との住所同一": "",
        "その他市町村長が必要と認める事項": "",
        "受入対象者": "要配慮者等で施設が認めたもの",
        "備考": ""
      }
    },
    {
      "type": "Feature",
      "geometry": {
        "type": "Point",
        "coordinates": [
          139.852663,
          38.910613
        ]
      },
      "properties": {
        "NO": 12302,
        "共通ID": "E0620400348121",
        "都道府県名及び市町村名": "山形県酒田市",
        "施設・場所名": "介護老人保健施設シェ・モワ",
        "住所": "山形県酒田市緑町13-37",
        "指定緊急避難場所との住所同一": "1",
        "その他市町村長が必要と認める事項": "",
        "受入対象者": "要配慮者等で施設が認めたもの",
        "備考": ""
      }
    },
    {
      "type": "Feature",
      "geometry": {
        "type": "Point",
        "coordinates": [
          139.851798,
          38.910679
        ]
      },
      "properties": {
        "NO": 12303,
        "共通ID": "E0620400349111",
        "都道府県名及び市町村名": "山形県酒田市",
        "施設・場所名": "勤労者福祉センター",
        "住所": "山形県酒田市緑町19-10",
        "指定緊急避難場所との住所同一": "1",
        "その他市町村長が必要と認める事項": null,
        "受入対象者": null,
        "備考": ""
      }
    },
    {
      "type": "Feature",
      "geometry": {
        "type": "Point",
        "coordinates": [
          139.851527,
          38.910209
        ]
      },
      "properties": {
        "NO": 12304,
        "共通ID": "E0620400350111",
        "都道府県名及び市町村名": "山形県酒田市",
        "施設・場所名": "勤労者体育センター",
        "住所": "山形県酒田市緑町19-15",
        "指定緊急避難場所との住所同一": "",
        "その他市町村長が必要と認める事項": null,
        "受入対象者": null,
        "備考": ""
      }
    }
  ]
}