{
  "type": "FeatureCollection",
  "name": "062081",
  "features": [
    {
      "type": "Feature",
      "geometry": {
        "type": "Point",
        "coordinates": [
          140.392061,
          38.476495
        ]
      },
      "properties": {
        "NO": 12398,
        "共通ID": "E0620800136111",
        "都道府県名及び市町村名": "山形県村山市",
        "施設・場所名": "Ｌｉｎｋ　ＭＵＲＡＹＡＭＡ",
        "住所": "山形県村山市楯岡荒町2-1-1",
        "指定緊急避難場所との住所同一": "",
        "その他市町村長が必要と認める事項": "",
        "受入対象者": "",
        "備考": ""
      }
    },
    {
      "type": "Feature",
      "geometry": {
        "type": "Point",
        "coordinates": [
          140.395326,
          38.482537
        ]
      },
      "properties": {
        "NO": 12399,
        "共通ID": "E0620800012111",
        "都道府県名及び市町村名": "山形県村山市",
        "施設・場所名": "楯岡小学校",
        "住所": "山形県村山市楯岡楯18-1",
        "指定緊急避難場所との住所同一": "1",
        "その他市町村長が必要と認める事項": null,
        "受入対象者": null,
        "備考": ""
      }
    },
    {
      "type": "Feature",
      "geometry": {
        "type": "Point",
        "coordinates": [
          140.386882,
          38.486544
        ]
      },
      "properties": {
        "NO": 12400,
        "共通ID": "E0620800013111",
        "都道府県名及び市町村名": "山形県村山市",
        "施設・場所名": "楯岡中学校",
        "住所": "山形県村山市楯岡新高田11-3",
        "指定緊急避難場所との住所同一": "1",
        "その他市町村長が必要と認める事項": null,
        "受入対象者": null,
        "備考": ""
      }
    },
    {
      "type": "Feature",
      "geometry": {
        "type": "Point",
        "coordinates": [
          140.402776,
          38.479279
        ]
      },
      "properties": {
        "NO": 12401,
        "共通ID": "E0620800022121",
        "都道府県名及び市町村名": "山形県村山市",
        "施設・場所名": "村山光ホーム",
        "住所": "山形県村山市楯岡笛田2-19-40",
        "指定緊急避難場所との住所同一": "",
        "その他市町村長が必要と認める事項": null,
        "受入対象者": "要配慮者",
        "備考": ""
      }
    },
    {
      "type": "Feature",
      "geometry": {
        "type": "Point",
        "coordinates": [
          140.403763,
          38.479637
        ]
      },
      "properties": {
        "NO": 12402,
        "共通ID": "E0620800023121",
        "都道府県名及び市町村名": "山形県村山市",
        "施設・場所名": "特養ひがしざわ",
        "住所": "山形県村山市楯岡笛田2-19-57",
        "指定緊急避難場所との住所同一": "",
        "その他市町村長が必要と認める事項": null,
        "受入対象者": "要配慮者",
        "備考": ""
      }
    },
    {
      "type": "Feature",
      "geometry": {
        "type": "Point",
        "coordinates": [
          140.385473,
          38.475356
        ]
      },
      "properties": {
        "NO": 12403,
        "共通ID": "E0620800029121",
        "都道府県名及び市町村名": "山形県村山市",
        "施設・場所名": "グループホーム香紅の里",
        "住所": "山形県村山市楯岡俵町20-19",
        "指定緊急避難場所との住所同一": "",
        "その他市町村長が必要と認める事項": null,
        "受入対象者": "要配慮者",
        "備考": ""
      }
    },
    {
      "type": "Feature",
      "geometry": {
        "type": "Point",
        "coordinates": [
          140.393794,
          38.500267
        ]
      },
      "properties": {
        "NO": 12404,
        "共通ID": "E0620800031121",
        "都道府県名及び市町村名": "山形県村山市",
        "施設・場所名": "楯岡特別支援学校",
        "住所": "山形県村山市楯岡北町1-8-1",
        "指定緊急避難場所との住所同一": "",
        "その他市町村長が必要と認める事項": null,
        "受入対象者": "要配慮者",
        "備考": ""
      }
    },
    {
      "type": "Feature",
      "geometry": {
        "type": "Point",
        "coordinates": [
          140.330924,
          38.482024
        ]
      },
      "properties": {
        "NO": 12405,
        "共通ID": "E0620800036111",
        "都道府県名及び市町村名": "山形県村山市",
        "施設・場所名": "葉山中学校",
        "住所": "山形県村山市大字稲下1757",
        "指定緊急避難場所との住所同一": "",
        "その他市町村長が必要と認める事項": null,
        "受入対象者": null,
        "備考": ""
      }
    },
    {
      "type": "Feature",
      "geometry": {
        "type": "Point",
        "coordinates": [
          140.305951,
          38.560159
        ]
      },
      "properties": {
        "NO": 12406,
        "共通ID": "E0620800046111",
        "都道府県名及び市町村名": "山形県村山市",
        "施設・場所名": "やまばと",
        "住所": "山形県村山市大字山の内120",
        "指定緊急避難場所との住所同一": "1",
        "その他市町村長が必要と認める事項": null,
        "受入対象者": null,
        "備考": ""
      }
    },
    {
      "type": "Feature",
      "geometry": {
        "type": "Point",
        "coordinates": [
          140.329756,
          38.468499
        ]
      },
      "properties": {
        "NO": 12407,
        "共通ID": "E0620800050111",
        "都道府県名及び市町村名": "山形県村山市",
        "施設・場所名": "大久保小学校",
        "住所": "山形県村山市大字大久保甲1-1",
        "指定緊急避難場所との住所同一": "1",
        "その他市町村長が必要と認める事項": null,
        "受入対象者": null,
        "備考": ""
      }
    },
    {
      "type": "Feature",
      "geometry": {
        "type": "Point",
        "coordinates": [
          140.32412,
          38.494655
        ]
      },
      "properties": {
        "NO": 12408,
        "共通ID": "E0620800069111",
        "都道府県名及び市町村名": "山形県村山市",
        "施設・場所名": "戸沢小学校",
        "住所": "山形県村山市大字長善寺293-2",
        "指定緊急避難場所との住所同一": "1",
        "その他市町村長が必要と認める事項": null,
        "受入対象者": null,
        "備考": ""
      }
    },
    {
      "type": "Feature",
      "geometry": {
        "type": "Point",
        "coordinates": [
          140.400869,
          38.543467
        ]
      },
      "properties": {
        "NO": 12409,
        "共通ID": "E0620800076121",
        "都道府県名及び市町村名": "山形県村山市",
        "施設・場所名": "特養袖崎",
        "住所": "山形県村山市大字土生田260-4",
        "指定緊急避難場所との住所同一": "",
        "その他市町村長が必要と認める事項": null,
        "受入対象者": "要配慮者",
        "備考": ""
      }
    },
    {
      "type": "Feature",
      "geometry": {
        "type": "Point",
        "coordinates": [
          140.400489,
          38.543759
        ]
      },
      "properties": {
        "NO": 12410,
        "共通ID": "E0620800077111",
        "都道府県名及び市町村名": "山形県村山市",
        "施設・場所名": "袖崎小学校",
        "住所": "山形県村山市大字土生田263",
        "指定緊急避難場所との住所同一": "1",
        "その他市町村長が必要と認める事項": null,
        "受入対象者": null,
        "備考": ""
      }
    },
    {
      "type": "Feature",
      "geometry": {
        "type": "Point",
        "coordinates": [
          140.318491,
          38.471708
        ]
      },
      "properties": {
        "NO": 12411,
        "共通ID": "E0620800089121",
        "都道府県名及び市町村名": "山形県村山市",
        "施設・場所名": "はやまホーム",
        "住所": "山形県村山市大字湯野沢1881-6",
        "指定緊急避難場所との住所同一": "",
        "その他市町村長が必要と認める事項": null,
        "受入対象者": "要配慮者",
        "備考": ""
      }
    },
    {
      "type": "Feature",
      "geometry": {
        "type": "Point",
        "coordinates": [
          140.318267,
          38.471926
        ]
      },
      "properties": {
        "NO": 12412,
        "共通ID": "E0620800089111",
        "都道府県名及び市町村名": "山形県村山市",
        "施設・場所名": "はやまホーム",
        "住所": "山形県村山市大字湯野沢1881-6",
        "指定緊急避難場所との住所同一": "",
        "その他市町村長が必要と認める事項": null,
        "受入対象者": null,
        "備考": ""
      }
    },
    {
      "type": "Feature",
      "geometry": {
        "type": "Point",
        "coordinates": [
          140.307066,
          38.462597
        ]
      },
      "properties": {
        "NO": 12413,
        "共通ID": "E0620800093121",
        "都道府県名及び市町村名": "山形県村山市",
        "施設・場所名": "特養ふもと",
        "住所": "山形県村山市大字湯野沢956-3",
        "指定緊急避難場所との住所同一": "1",
        "その他市町村長が必要と認める事項": null,
        "受入対象者": "要配慮者",
        "備考": ""
      }
    },
    {
      "type": "Feature",
      "geometry": {
        "type": "Point",
        "coordinates": [
          140.307059,
          38.462229
        ]
      },
      "properties": {
        "NO": 12414,
        "共通ID": "E0620800093111",
        "都道府県名及び市町村名": "山形県村山市",
        "施設・場所名": "特養ふもと",
        "住所": "山形県村山市大字湯野沢956-3",
        "指定緊急避難場所との住所同一": "1",
        "その他市町村長が必要と認める事項": null,
        "受入対象者": null,
        "備考": ""
      }
    },
    {
      "type": "Feature",
      "geometry": {
        "type": "Point",
        "coordinates": [
          140.336086,
          38.548464
        ]
      },
      "properties": {
        "NO": 12415,
        "共通ID": "E0620800099121",
        "都道府県名及び市町村名": "山形県村山市",
        "施設・場所名": "グループホーム村山",
        "住所": "山形県村山市大字富並1469-9",
        "指定緊急避難場所との住所同一": "",
        "その他市町村長が必要と認める事項": null,
        "受入対象者": "要配慮者",
        "備考": ""
      }
    },
    {
      "type": "Feature",
      "geometry": {
        "type": "Point",
        "coordinates": [
          140.346327,
          38.545703
        ]
      },
      "properties": {
        "NO": 12416,
        "共通ID": "E0620800102111",
        "都道府県名及び市町村名": "山形県村山市",
        "施設・場所名": "富並小学校",
        "住所": "山形県村山市大字富並2169",
        "指定緊急避難場所との住所同一": "1",
        "その他市町村長が必要と認める事項": null,
        "受入対象者": null,
        "備考": ""
      }
    },
    {
      "type": "Feature",
      "geometry": {
        "type": "Point",
        "coordinates": [
          140.391482,
          38.519261
        ]
      },
      "properties": {
        "NO": 12417,
        "共通ID": "E0620800109121",
        "都道府県名及び市町村名": "山形県村山市",
        "施設・場所名": "ローズむらやま",
        "住所": "山形県村山市大字本飯田2486-65",
        "指定緊急避難場所との住所同一": "",
        "その他市町村長が必要と認める事項": null,
        "受入対象者": "要配慮者",
        "備考": ""
      }
    },
    {
      "type": "Feature",
      "geometry": {
        "type": "Point",
        "coordinates": [
          140.364106,
          38.497653
        ]
      },
      "properties": {
        "NO": 12418,
        "共通ID": "E0620800114111",
        "都道府県名及び市町村名": "山形県村山市",
        "施設・場所名": "西郷小学校",
        "住所": "山形県村山市大字名取1217",
        "指定緊急避難場所との住所同一": "",
        "その他市町村長が必要と認める事項": null,
        "受入対象者": null,
        "備考": ""
      }
    },
    {
      "type": "Feature",
      "geometry": {
        "type": "Point",
        "coordinates": [
          140.403486,
          38.50636
        ]
      },
      "properties": {
        "NO": 12419,
        "共通ID": "E0620800130111",
        "都道府県名及び市町村名": "山形県村山市",
        "施設・場所名": "旧大倉小学校",
        "住所": "山形県村山市大字櫤山48-7",
        "指定緊急避難場所との住所同一": "",
        "その他市町村長が必要と認める事項": null,
        "受入対象者": null,
        "備考": ""
      }
    },
    {
      "type": "Feature",
      "geometry": {
        "type": "Point",
        "coordinates": [
          140.375125,
          38.482719
        ]
      },
      "properties": {
        "NO": 12420,
        "共通ID": "E0620800132121",
        "都道府県名及び市町村名": "山形県村山市",
        "施設・場所名": "特養むらやま",
        "住所": "山形県村山市中央2-3-46",
        "指定緊急避難場所との住所同一": "",
        "その他市町村長が必要と認める事項": null,
        "受入対象者": "要配慮者",
        "備考": ""
      }
    }
  ]
}