{
  "type": "FeatureCollection",
  "name": "062120",
  "features": [
    {
      "type": "Feature",
      "geometry": {
        "type": "Point",
        "coordinates": [
          140.409166,
          38.608681
        ]
      },
      "properties": {
        "NO": 12532,
        "共通ID": "E0621200001111",
        "都道府県名及び市町村名": "山形県尾花沢市",
        "施設・場所名": "尾花沢中学校",
        "住所": "山形県尾花沢市横町2-2-80",
        "指定緊急避難場所との住所同一": "1",
        "その他市町村長が必要と認める事項": null,
        "受入対象者": null,
        "備考": ""
      }
    },
    {
      "type": "Feature",
      "geometry": {
        "type": "Point",
        "coordinates": [
          140.407282,
          38.600747
        ]
      },
      "properties": {
        "NO": 12533,
        "共通ID": "E0621200042111",
        "都道府県名及び市町村名": "山形県尾花沢市",
        "施設・場所名": "尾花沢市共同福祉施設",
        "住所": "山形県尾花沢市若葉町1-2-20",
        "指定緊急避難場所との住所同一": "1",
        "その他市町村長が必要と認める事項": "",
        "受入対象者": "",
        "備考": ""
      }
    },
    {
      "type": "Feature",
      "geometry": {
        "type": "Point",
        "coordinates": [
          140.406774,
          38.601042
        ]
      },
      "properties": {
        "NO": 12534,
        "共通ID": "E0621200003111",
        "都道府県名及び市町村名": "山形県尾花沢市",
        "施設・場所名": "尾花沢市役所",
        "住所": "山形県尾花沢市若葉町1-2-3",
        "指定緊急避難場所との住所同一": "",
        "その他市町村長が必要と認める事項": null,
        "受入対象者": null,
        "備考": ""
      }
    },
    {
      "type": "Feature",
      "geometry": {
        "type": "Point",
        "coordinates": [
          140.406849,
          38.599175
        ]
      },
      "properties": {
        "NO": 12535,
        "共通ID": "E0621200004111",
        "都道府県名及び市町村名": "山形県尾花沢市",
        "施設・場所名": "尾花沢市文化体育施設",
        "住所": "山形県尾花沢市若葉町1-4-27",
        "指定緊急避難場所との住所同一": "1",
        "その他市町村長が必要と認める事項": null,
        "受入対象者": null,
        "備考": ""
      }
    },
    {
      "type": "Feature",
      "geometry": {
        "type": "Point",
        "coordinates": [
          140.407711,
          38.598366
        ]
      },
      "properties": {
        "NO": 12536,
        "共通ID": "E0621200005111",
        "都道府県名及び市町村名": "山形県尾花沢市",
        "施設・場所名": "尾花沢市学習情報センター",
        "住所": "山形県尾花沢市若葉町1-8-25",
        "指定緊急避難場所との住所同一": "1",
        "その他市町村長が必要と認める事項": null,
        "受入対象者": null,
        "備考": ""
      }
    },
    {
      "type": "Feature",
      "geometry": {
        "type": "Point",
        "coordinates": [
          140.399615,
          38.599902
        ]
      },
      "properties": {
        "NO": 12537,
        "共通ID": "E0621200006111",
        "都道府県名及び市町村名": "山形県尾花沢市",
        "施設・場所名": "尾花沢幼稚園",
        "住所": "山形県尾花沢市上町4-6-16",
        "指定緊急避難場所との住所同一": "",
        "その他市町村長が必要と認める事項": "",
        "受入対象者": "",
        "備考": ""
      }
    },
    {
      "type": "Feature",
      "geometry": {
        "type": "Point",
        "coordinates": [
          140.401732,
          38.604684
        ]
      },
      "properties": {
        "NO": 12538,
        "共通ID": "E0621200007111",
        "都道府県名及び市町村名": "山形県尾花沢市",
        "施設・場所名": "おもだか保育園",
        "住所": "山形県尾花沢市上町5-6-15",
        "指定緊急避難場所との住所同一": "1",
        "その他市町村長が必要と認める事項": null,
        "受入対象者": null,
        "備考": ""
      }
    },
    {
      "type": "Feature",
      "geometry": {
        "type": "Point",
        "coordinates": [
          140.407464,
          38.604268
        ]
      },
      "properties": {
        "NO": 12539,
        "共通ID": "E0621200009111",
        "都道府県名及び市町村名": "山形県尾花沢市",
        "施設・場所名": "尾花沢市中心商店街活性化センター",
        "住所": "山形県尾花沢市新町1-16-1",
        "指定緊急避難場所との住所同一": "1",
        "その他市町村長が必要と認める事項": null,
        "受入対象者": null,
        "備考": ""
      }
    },
    {
      "type": "Feature",
      "geometry": {
        "type": "Point",
        "coordinates": [
          140.412642,
          38.603663
        ]
      },
      "properties": {
        "NO": 12540,
        "共通ID": "E0621200010111",
        "都道府県名及び市町村名": "山形県尾花沢市",
        "施設・場所名": "老人福祉センター東光館",
        "住所": "山形県尾花沢市新町3-2-5",
        "指定緊急避難場所との住所同一": "1",
        "その他市町村長が必要と認める事項": null,
        "受入対象者": null,
        "備考": ""
      }
    },
    {
      "type": "Feature",
      "geometry": {
        "type": "Point",
        "coordinates": [
          140.415255,
          38.603348
        ]
      },
      "properties": {
        "NO": 12541,
        "共通ID": "E0621200011111",
        "都道府県名及び市町村名": "山形県尾花沢市",
        "施設・場所名": "尾花沢市体育館",
        "住所": "山形県尾花沢市新町3-5-35",
        "指定緊急避難場所との住所同一": "1",
        "その他市町村長が必要と認める事項": "",
        "受入対象者": "",
        "備考": ""
      }
    },
    {
      "type": "Feature",
      "geometry": {
        "type": "Point",
        "coordinates": [
          140.414195,
          38.608494
        ]
      },
      "properties": {
        "NO": 12542,
        "共通ID": "E0621200012111",
        "都道府県名及び市町村名": "山形県尾花沢市",
        "施設・場所名": "ひまわり保育園",
        "住所": "山形県尾花沢市新町4-4-17",
        "指定緊急避難場所との住所同一": "",
        "その他市町村長が必要と認める事項": null,
        "受入対象者": null,
        "備考": ""
      }
    },
    {
      "type": "Feature",
      "geometry": {
        "type": "Point",
        "coordinates": [
          140.421903,
          38.61173
        ]
      },
      "properties": {
        "NO": 12543,
        "共通ID": "E0621200013111",
        "都道府県名及び市町村名": "山形県尾花沢市",
        "施設・場所名": "ＪＡみちのく村山尾花沢営農センター",
        "住所": "山形県尾花沢市新町5-7-39",
        "指定緊急避難場所との住所同一": "",
        "その他市町村長が必要と認める事項": null,
        "受入対象者": null,
        "備考": ""
      }
    },
    {
      "type": "Feature",
      "geometry": {
        "type": "Point",
        "coordinates": [
          140.363702,
          38.656915
        ]
      },
      "properties": {
        "NO": 12544,
        "共通ID": "E0621200014111",
        "都道府県名及び市町村名": "山形県尾花沢市",
        "施設・場所名": "道の駅「ねまる」",
        "住所": "山形県尾花沢市大字芦沢1195-1",
        "指定緊急避難場所との住所同一": "1",
        "その他市町村長が必要と認める事項": null,
        "受入対象者": null,
        "備考": ""
      }
    },
    {
      "type": "Feature",
      "geometry": {
        "type": "Point",
        "coordinates": [
          140.445063,
          38.594622
        ]
      },
      "properties": {
        "NO": 12545,
        "共通ID": "E0621200015111",
        "都道府県名及び市町村名": "山形県尾花沢市",
        "施設・場所名": "自然研修センター",
        "住所": "山形県尾花沢市大字延沢3636-14",
        "指定緊急避難場所との住所同一": "1",
        "その他市町村長が必要と認める事項": null,
        "受入対象者": null,
        "備考": ""
      }
    },
    {
      "type": "Feature",
      "geometry": {
        "type": "Point",
        "coordinates": [
          140.445525,
          38.594366
        ]
      },
      "properties": {
        "NO": 12546,
        "共通ID": "E0621200015112",
        "都道府県名及び市町村名": "山形県尾花沢市",
        "施設・場所名": "基幹集落センター",
        "住所": "山形県尾花沢市大字延沢3636-14",
        "指定緊急避難場所との住所同一": "1",
        "その他市町村長が必要と認める事項": null,
        "受入対象者": null,
        "備考": ""
      }
    },
    {
      "type": "Feature",
      "geometry": {
        "type": "Point",
        "coordinates": [
          140.464207,
          38.566652
        ]
      },
      "properties": {
        "NO": 12547,
        "共通ID": "E0621200017111",
        "都道府県名及び市町村名": "山形県尾花沢市",
        "施設・場所名": "常盤小学校",
        "住所": "山形県尾花沢市大字延沢783",
        "指定緊急避難場所との住所同一": "1",
        "その他市町村長が必要と認める事項": null,
        "受入対象者": null,
        "備考": ""
      }
    },
    {
      "type": "Feature",
      "geometry": {
        "type": "Point",
        "coordinates": [
          140.463186,
          38.566283
        ]
      },
      "properties": {
        "NO": 12548,
        "共通ID": "E0621200018111",
        "都道府県名及び市町村名": "山形県尾花沢市",
        "施設・場所名": "常盤地区公民館",
        "住所": "山形県尾花沢市大字延沢887",
        "指定緊急避難場所との住所同一": "1",
        "その他市町村長が必要と認める事項": null,
        "受入対象者": null,
        "備考": ""
      }
    },
    {
      "type": "Feature",
      "geometry": {
        "type": "Point",
        "coordinates": [
          140.478937,
          38.623309
        ]
      },
      "properties": {
        "NO": 12549,
        "共通ID": "E0621200020111",
        "都道府県名及び市町村名": "山形県尾花沢市",
        "施設・場所名": "宮沢地区公民館",
        "住所": "山形県尾花沢市大字押切1",
        "指定緊急避難場所との住所同一": "1",
        "その他市町村長が必要と認める事項": null,
        "受入対象者": null,
        "備考": ""
      }
    },
    {
      "type": "Feature",
      "geometry": {
        "type": "Point",
        "coordinates": [
          140.382498,
          38.625843
        ]
      },
      "properties": {
        "NO": 12550,
        "共通ID": "E0621200021111",
        "都道府県名及び市町村名": "山形県尾花沢市",
        "施設・場所名": "よつばこども園",
        "住所": "山形県尾花沢市大字荻袋1287-17",
        "指定緊急避難場所との住所同一": "1",
        "その他市町村長が必要と認める事項": "",
        "受入対象者": "",
        "備考": ""
      }
    },
    {
      "type": "Feature",
      "geometry": {
        "type": "Point",
        "coordinates": [
          140.403848,
          38.622891
        ]
      },
      "properties": {
        "NO": 12551,
        "共通ID": "E0621200022111",
        "都道府県名及び市町村名": "山形県尾花沢市",
        "施設・場所名": "新生園",
        "住所": "山形県尾花沢市大字荻袋911-1",
        "指定緊急避難場所との住所同一": "",
        "その他市町村長が必要と認める事項": null,
        "受入対象者": null,
        "備考": ""
      }
    },
    {
      "type": "Feature",
      "geometry": {
        "type": "Point",
        "coordinates": [
          140.440754,
          38.650444
        ]
      },
      "properties": {
        "NO": 12552,
        "共通ID": "E0621200023111",
        "都道府県名及び市町村名": "山形県尾花沢市",
        "施設・場所名": "ほたるの里郷土資料館",
        "住所": "山形県尾花沢市大字牛房野635",
        "指定緊急避難場所との住所同一": "1",
        "その他市町村長が必要と認める事項": null,
        "受入対象者": null,
        "備考": ""
      }
    },
    {
      "type": "Feature",
      "geometry": {
        "type": "Point",
        "coordinates": [
          140.485504,
          38.63025
        ]
      },
      "properties": {
        "NO": 12553,
        "共通ID": "E0621200024111",
        "都道府県名及び市町村名": "山形県尾花沢市",
        "施設・場所名": "尾花沢市地域交流センター",
        "住所": "山形県尾花沢市大字高橋115-4",
        "指定緊急避難場所との住所同一": "1",
        "その他市町村長が必要と認める事項": "",
        "受入対象者": "",
        "備考": ""
      }
    },
    {
      "type": "Feature",
      "geometry": {
        "type": "Point",
        "coordinates": [
          140.497328,
          38.656364
        ]
      },
      "properties": {
        "NO": 12554,
        "共通ID": "E0621200041111",
        "都道府県名及び市町村名": "山形県尾花沢市",
        "施設・場所名": "市野々公民館",
        "住所": "山形県尾花沢市大字市野々335",
        "指定緊急避難場所との住所同一": "",
        "その他市町村長が必要と認める事項": "",
        "受入対象者": "",
        "備考": ""
      }
    },
    {
      "type": "Feature",
      "geometry": {
        "type": "Point",
        "coordinates": [
          140.405111,
          38.652387
        ]
      },
      "properties": {
        "NO": 12555,
        "共通ID": "E0621200025111",
        "都道府県名及び市町村名": "山形県尾花沢市",
        "施設・場所名": "福原小学校",
        "住所": "山形県尾花沢市大字寺内1170",
        "指定緊急避難場所との住所同一": "1",
        "その他市町村長が必要と認める事項": null,
        "受入対象者": null,
        "備考": ""
      }
    },
    {
      "type": "Feature",
      "geometry": {
        "type": "Point",
        "coordinates": [
          140.446549,
          38.623611
        ]
      },
      "properties": {
        "NO": 12556,
        "共通ID": "E0621200027111",
        "都道府県名及び市町村名": "山形県尾花沢市",
        "施設・場所名": "さくら保育園",
        "住所": "山形県尾花沢市大字丹生180-5",
        "指定緊急避難場所との住所同一": "1",
        "その他市町村長が必要と認める事項": null,
        "受入対象者": null,
        "備考": ""
      }
    },
    {
      "type": "Feature",
      "geometry": {
        "type": "Point",
        "coordinates": [
          140.46878,
          38.624603
        ]
      },
      "properties": {
        "NO": 12557,
        "共通ID": "E0621200028111",
        "都道府県名及び市町村名": "山形県尾花沢市",
        "施設・場所名": "宮沢小学校",
        "住所": "山形県尾花沢市大字丹生1933",
        "指定緊急避難場所との住所同一": "1",
        "その他市町村長が必要と認める事項": null,
        "受入対象者": null,
        "備考": ""
      }
    },
    {
      "type": "Feature",
      "geometry": {
        "type": "Point",
        "coordinates": [
          140.483307,
          38.598962
        ]
      },
      "properties": {
        "NO": 12558,
        "共通ID": "E0621200029111",
        "都道府県名及び市町村名": "山形県尾花沢市",
        "施設・場所名": "玉野保育園",
        "住所": "山形県尾花沢市大字鶴巻田504-1",
        "指定緊急避難場所との住所同一": "1",
        "その他市町村長が必要と認める事項": null,
        "受入対象者": null,
        "備考": ""
      }
    },
    {
      "type": "Feature",
      "geometry": {
        "type": "Point",
        "coordinates": [
          140.480398,
          38.603671
        ]
      },
      "properties": {
        "NO": 12559,
        "共通ID": "E0621200030111",
        "都道府県名及び市町村名": "山形県尾花沢市",
        "施設・場所名": "玉野小学校",
        "住所": "山形県尾花沢市大字鶴巻田580",
        "指定緊急避難場所との住所同一": "1",
        "その他市町村長が必要と認める事項": null,
        "受入対象者": null,
        "備考": ""
      }
    },
    {
      "type": "Feature",
      "geometry": {
        "type": "Point",
        "coordinates": [
          140.487132,
          38.59858
        ]
      },
      "properties": {
        "NO": 12560,
        "共通ID": "E0621200031112",
        "都道府県名及び市町村名": "山形県尾花沢市",
        "施設・場所名": "玉野地区公民館",
        "住所": "山形県尾花沢市大字鶴巻田866",
        "指定緊急避難場所との住所同一": "1",
        "その他市町村長が必要と認める事項": "",
        "受入対象者": "",
        "備考": ""
      }
    },
    {
      "type": "Feature",
      "geometry": {
        "type": "Point",
        "coordinates": [
          140.49799,
          38.547089
        ]
      },
      "properties": {
        "NO": 12561,
        "共通ID": "E0621200032111",
        "都道府県名及び市町村名": "山形県尾花沢市",
        "施設・場所名": "鶴子交流施設",
        "住所": "山形県尾花沢市大字鶴子667",
        "指定緊急避難場所との住所同一": "1",
        "その他市町村長が必要と認める事項": null,
        "受入対象者": null,
        "備考": ""
      }
    },
    {
      "type": "Feature",
      "geometry": {
        "type": "Point",
        "coordinates": [
          140.318955,
          38.663158
        ]
      },
      "properties": {
        "NO": 12562,
        "共通ID": "E0621200033111",
        "都道府県名及び市町村名": "山形県尾花沢市",
        "施設・場所名": "環境衛生センター",
        "住所": "山形県尾花沢市大字毒沢",
        "指定緊急避難場所との住所同一": "",
        "その他市町村長が必要と認める事項": null,
        "受入対象者": null,
        "備考": ""
      }
    },
    {
      "type": "Feature",
      "geometry": {
        "type": "Point",
        "coordinates": [
          140.391138,
          38.596801
        ]
      },
      "properties": {
        "NO": 12563,
        "共通ID": "E0621200034111",
        "都道府県名及び市町村名": "山形県尾花沢市",
        "施設・場所名": "北村山高等学校",
        "住所": "山形県尾花沢市大字尾花沢1593",
        "指定緊急避難場所との住所同一": "",
        "その他市町村長が必要と認める事項": null,
        "受入対象者": null,
        "備考": ""
      }
    },
    {
      "type": "Feature",
      "geometry": {
        "type": "Point",
        "coordinates": [
          140.436513,
          38.596296
        ]
      },
      "properties": {
        "NO": 12564,
        "共通ID": "E0621200035111",
        "都道府県名及び市町村名": "山形県尾花沢市",
        "施設・場所名": "徳良湖温泉　花笠の湯",
        "住所": "山形県尾花沢市大字尾花沢5151-67",
        "指定緊急避難場所との住所同一": "1",
        "その他市町村長が必要と認める事項": null,
        "受入対象者": null,
        "備考": ""
      }
    },
    {
      "type": "Feature",
      "geometry": {
        "type": "Point",
        "coordinates": [
          140.342542,
          38.663642
        ]
      },
      "properties": {
        "NO": 12565,
        "共通ID": "E0621200036111",
        "都道府県名及び市町村名": "山形県尾花沢市",
        "施設・場所名": "名木沢生涯スポーツ交流センター",
        "住所": "山形県尾花沢市大字名木沢855-1",
        "指定緊急避難場所との住所同一": "",
        "その他市町村長が必要と認める事項": null,
        "受入対象者": null,
        "備考": ""
      }
    },
    {
      "type": "Feature",
      "geometry": {
        "type": "Point",
        "coordinates": [
          140.343563,
          38.663683
        ]
      },
      "properties": {
        "NO": 12566,
        "共通ID": "E0621200037111",
        "都道府県名及び市町村名": "山形県尾花沢市",
        "施設・場所名": "名木沢地区コミュニティセンター",
        "住所": "山形県尾花沢市大字名木沢862-4",
        "指定緊急避難場所との住所同一": "",
        "その他市町村長が必要と認める事項": null,
        "受入対象者": null,
        "備考": ""
      }
    },
    {
      "type": "Feature",
      "geometry": {
        "type": "Point",
        "coordinates": [
          140.377283,
          38.638507
        ]
      },
      "properties": {
        "NO": 12567,
        "共通ID": "E0621200038111",
        "都道府県名及び市町村名": "山形県尾花沢市",
        "施設・場所名": "福原中学校",
        "住所": "山形県尾花沢市大字野黒沢208",
        "指定緊急避難場所との住所同一": "1",
        "その他市町村長が必要と認める事項": null,
        "受入対象者": null,
        "備考": ""
      }
    },
    {
      "type": "Feature",
      "geometry": {
        "type": "Point",
        "coordinates": [
          140.378973,
          38.635097
        ]
      },
      "properties": {
        "NO": 12568,
        "共通ID": "E0621200039111",
        "都道府県名及び市町村名": "山形県尾花沢市",
        "施設・場所名": "福原地区公民館",
        "住所": "山形県尾花沢市大字野黒沢255",
        "指定緊急避難場所との住所同一": "1",
        "その他市町村長が必要と認める事項": null,
        "受入対象者": null,
        "備考": ""
      }
    },
    {
      "type": "Feature",
      "geometry": {
        "type": "Point",
        "coordinates": [
          140.47874,
          38.57166
        ]
      },
      "properties": {
        "NO": 12569,
        "共通ID": "E0621200043111",
        "都道府県名及び市町村名": "山形県尾花沢市",
        "施設・場所名": "六沢地区生涯学習推進センター",
        "住所": "山形県尾花沢市大字六沢171",
        "指定緊急避難場所との住所同一": "1",
        "その他市町村長が必要と認める事項": "",
        "受入対象者": "",
        "備考": ""
      }
    },
    {
      "type": "Feature",
      "geometry": {
        "type": "Point",
        "coordinates": [
          140.40199,
          38.608593
        ]
      },
      "properties": {
        "NO": 12570,
        "共通ID": "E0621200040111",
        "都道府県名及び市町村名": "山形県尾花沢市",
        "施設・場所名": "尾花沢小学校",
        "住所": "山形県尾花沢市梺町3-3-1",
        "指定緊急避難場所との住所同一": "1",
        "その他市町村長が必要と認める事項": "",
        "受入対象者": "",
        "備考": ""
      }
    }
  ]
}