{
  "type": "FeatureCollection",
  "name": "063215",
  "features": [
    {
      "type": "Feature",
      "geometry": {
        "type": "Point",
        "coordinates": [
          140.28514,
          38.414848
        ]
      },
      "properties": {
        "NO": 12601,
        "共通ID": "E0632100003111",
        "都道府県名及び市町村名": "山形県河北町",
        "施設・場所名": "西里小学校",
        "住所": "山形県河北町西里562",
        "指定緊急避難場所との住所同一": "1",
        "その他市町村長が必要と認める事項": "",
        "受入対象者": "",
        "備考": ""
      }
    },
    {
      "type": "Feature",
      "geometry": {
        "type": "Point",
        "coordinates": [
          140.279246,
          38.420211
        ]
      },
      "properties": {
        "NO": 12602,
        "共通ID": "E0632100004111",
        "都道府県名及び市町村名": "山形県河北町",
        "施設・場所名": "両所活性化センター",
        "住所": "山形県河北町西里6346",
        "指定緊急避難場所との住所同一": "1",
        "その他市町村長が必要と認める事項": "",
        "受入対象者": "",
        "備考": ""
      }
    },
    {
      "type": "Feature",
      "geometry": {
        "type": "Point",
        "coordinates": [
          140.287863,
          38.41786
        ]
      },
      "properties": {
        "NO": 12603,
        "共通ID": "E0632100006111",
        "都道府県名及び市町村名": "山形県河北町",
        "施設・場所名": "西里農村環境改善センター",
        "住所": "山形県河北町西里750-7",
        "指定緊急避難場所との住所同一": "1",
        "その他市町村長が必要と認める事項": "",
        "受入対象者": "",
        "備考": ""
      }
    },
    {
      "type": "Feature",
      "geometry": {
        "type": "Point",
        "coordinates": [
          140.314612,
          38.444567
        ]
      },
      "properties": {
        "NO": 12604,
        "共通ID": "E0632100011111",
        "都道府県名及び市町村名": "山形県河北町",
        "施設・場所名": "北谷地小学校",
        "住所": "山形県河北町大字吉田367",
        "指定緊急避難場所との住所同一": "1",
        "その他市町村長が必要と認める事項": "",
        "受入対象者": "",
        "備考": ""
      }
    },
    {
      "type": "Feature",
      "geometry": {
        "type": "Point",
        "coordinates": [
          140.313968,
          38.445354
        ]
      },
      "properties": {
        "NO": 12605,
        "共通ID": "E0632100012111",
        "都道府県名及び市町村名": "山形県河北町",
        "施設・場所名": "北谷地構造改善センター",
        "住所": "山形県河北町大字吉田字馬場261",
        "指定緊急避難場所との住所同一": "1",
        "その他市町村長が必要と認める事項": "",
        "受入対象者": "",
        "備考": ""
      }
    },
    {
      "type": "Feature",
      "geometry": {
        "type": "Point",
        "coordinates": [
          140.317501,
          38.39649
        ]
      },
      "properties": {
        "NO": 12606,
        "共通ID": "E0632100014111",
        "都道府県名及び市町村名": "山形県河北町",
        "施設・場所名": "溝延小学校",
        "住所": "山形県河北町大字溝延字小堤312-1",
        "指定緊急避難場所との住所同一": "1",
        "その他市町村長が必要と認める事項": "",
        "受入対象者": "",
        "備考": ""
      }
    },
    {
      "type": "Feature",
      "geometry": {
        "type": "Point",
        "coordinates": [
          140.31513,
          38.39643
        ]
      },
      "properties": {
        "NO": 12607,
        "共通ID": "E0632100015111",
        "都道府県名及び市町村名": "山形県河北町",
        "施設・場所名": "溝延研修センター",
        "住所": "山形県河北町大字溝延字小堤40",
        "指定緊急避難場所との住所同一": "1",
        "その他市町村長が必要と認める事項": "",
        "受入対象者": "",
        "備考": ""
      }
    },
    {
      "type": "Feature",
      "geometry": {
        "type": "Point",
        "coordinates": [
          140.315997,
          38.424565
        ]
      },
      "properties": {
        "NO": 12608,
        "共通ID": "E0632100028111",
        "都道府県名及び市町村名": "山形県河北町",
        "施設・場所名": "総合福祉センター",
        "住所": "山形県河北町谷地甲2325-3",
        "指定緊急避難場所との住所同一": "1",
        "その他市町村長が必要と認める事項": "",
        "受入対象者": "",
        "備考": ""
      }
    },
    {
      "type": "Feature",
      "geometry": {
        "type": "Point",
        "coordinates": [
          140.317616,
          38.421607
        ]
      },
      "properties": {
        "NO": 12609,
        "共通ID": "E0632100030111",
        "都道府県名及び市町村名": "山形県河北町",
        "施設・場所名": "谷地南部小学校",
        "住所": "山形県河北町谷地荒町東1-7-1",
        "指定緊急避難場所との住所同一": "1",
        "その他市町村長が必要と認める事項": "",
        "受入対象者": "",
        "備考": ""
      }
    },
    {
      "type": "Feature",
      "geometry": {
        "type": "Point",
        "coordinates": [
          140.321514,
          38.41773
        ]
      },
      "properties": {
        "NO": 12610,
        "共通ID": "E0632100035111",
        "都道府県名及び市町村名": "山形県河北町",
        "施設・場所名": "べに花温泉ひなの湯",
        "住所": "山形県河北町谷地字下野269",
        "指定緊急避難場所との住所同一": "1",
        "その他市町村長が必要と認める事項": "",
        "受入対象者": "",
        "備考": ""
      }
    },
    {
      "type": "Feature",
      "geometry": {
        "type": "Point",
        "coordinates": [
          140.310263,
          38.429552
        ]
      },
      "properties": {
        "NO": 12611,
        "共通ID": "E0632100040111",
        "都道府県名及び市町村名": "山形県河北町",
        "施設・場所名": "河北町職業訓練センター",
        "住所": "山形県河北町谷地字所岡142-2",
        "指定緊急避難場所との住所同一": "1",
        "その他市町村長が必要と認める事項": "",
        "受入対象者": "",
        "備考": ""
      }
    },
    {
      "type": "Feature",
      "geometry": {
        "type": "Point",
        "coordinates": [
          140.310777,
          38.428615
        ]
      },
      "properties": {
        "NO": 12612,
        "共通ID": "E0632100041111",
        "都道府県名及び市町村名": "山形県河北町",
        "施設・場所名": "谷地中部小学校",
        "住所": "山形県河北町谷地字所岡73",
        "指定緊急避難場所との住所同一": "1",
        "その他市町村長が必要と認める事項": "",
        "受入対象者": "",
        "備考": ""
      }
    },
    {
      "type": "Feature",
      "geometry": {
        "type": "Point",
        "coordinates": [
          140.311135,
          38.429599
        ]
      },
      "properties": {
        "NO": 12613,
        "共通ID": "E0632100042111",
        "都道府県名及び市町村名": "山形県河北町",
        "施設・場所名": "河北町民体育館",
        "住所": "山形県河北町谷地字所岡77",
        "指定緊急避難場所との住所同一": "1",
        "その他市町村長が必要と認める事項": "",
        "受入対象者": "",
        "備考": ""
      }
    },
    {
      "type": "Feature",
      "geometry": {
        "type": "Point",
        "coordinates": [
          140.308894,
          38.422035
        ]
      },
      "properties": {
        "NO": 12614,
        "共通ID": "E0632100045111",
        "都道府県名及び市町村名": "山形県河北町",
        "施設・場所名": "県立谷地高等学校",
        "住所": "山形県河北町谷地字田中170",
        "指定緊急避難場所との住所同一": "1",
        "その他市町村長が必要と認める事項": "",
        "受入対象者": "",
        "備考": ""
      }
    },
    {
      "type": "Feature",
      "geometry": {
        "type": "Point",
        "coordinates": [
          140.302122,
          38.437991
        ]
      },
      "properties": {
        "NO": 12615,
        "共通ID": "E0632100048111",
        "都道府県名及び市町村名": "山形県河北町",
        "施設・場所名": "谷地西部小学校",
        "住所": "山形県河北町谷地字布田55",
        "指定緊急避難場所との住所同一": "1",
        "その他市町村長が必要と認める事項": "",
        "受入対象者": "",
        "備考": ""
      }
    },
    {
      "type": "Feature",
      "geometry": {
        "type": "Point",
        "coordinates": [
          140.309258,
          38.431463
        ]
      },
      "properties": {
        "NO": 12616,
        "共通ID": "E0632100051111",
        "都道府県名及び市町村名": "山形県河北町",
        "施設・場所名": "総合交流センターサハトべに花",
        "住所": "山形県河北町谷地所岡3-1-10",
        "指定緊急避難場所との住所同一": "1",
        "その他市町村長が必要と認める事項": "",
        "受入対象者": "",
        "備考": ""
      }
    },
    {
      "type": "Feature",
      "geometry": {
        "type": "Point",
        "coordinates": [
          140.310309,
          38.418891
        ]
      },
      "properties": {
        "NO": 12617,
        "共通ID": "E0632100055111",
        "都道府県名及び市町村名": "山形県河北町",
        "施設・場所名": "河北中学校",
        "住所": "山形県河北町谷地中央4-12-1",
        "指定緊急避難場所との住所同一": "1",
        "その他市町村長が必要と認める事項": "",
        "受入対象者": "",
        "備考": ""
      }
    },
    {
      "type": "Feature",
      "geometry": {
        "type": "Point",
        "coordinates": [
          140.366653,
          38.437359
        ]
      },
      "properties": {
        "NO": 12618,
        "共通ID": "E0632100060113",
        "都道府県名及び市町村名": "山形県河北町",
        "施設・場所名": "西部防災センター",
        "住所": "山形県東根市大字蟹沢1156-4",
        "指定緊急避難場所との住所同一": "",
        "その他市町村長が必要と認める事項": "",
        "受入対象者": "",
        "備考": ""
      }
    },
    {
      "type": "Feature",
      "geometry": {
        "type": "Point",
        "coordinates": [
          140.35882,
          38.433112
        ]
      },
      "properties": {
        "NO": 12619,
        "共通ID": "E0632100058111",
        "都道府県名及び市町村名": "山形県河北町",
        "施設・場所名": "東根市立小田島小学校",
        "住所": "山形県東根市大字郡山411-1",
        "指定緊急避難場所との住所同一": "1",
        "その他市町村長が必要と認める事項": "",
        "受入対象者": "",
        "備考": ""
      }
    },
    {
      "type": "Feature",
      "geometry": {
        "type": "Point",
        "coordinates": [
          140.406409,
          38.42349
        ]
      },
      "properties": {
        "NO": 12620,
        "共通ID": "E0632100061113",
        "都道府県名及び市町村名": "山形県河北町",
        "施設・場所名": "東根市民体育館",
        "住所": "山形県東根市東根乙1119-1",
        "指定緊急避難場所との住所同一": "",
        "その他市町村長が必要と認める事項": "",
        "受入対象者": "",
        "備考": ""
      }
    },
    {
      "type": "Feature",
      "geometry": {
        "type": "Point",
        "coordinates": [
          140.363077,
          38.404336
        ]
      },
      "properties": {
        "NO": 12621,
        "共通ID": "E0632100059111",
        "都道府県名及び市町村名": "山形県河北町",
        "施設・場所名": "東根市立大富中学校",
        "住所": "山形県東根市柏原3-1-1",
        "指定緊急避難場所との住所同一": "1",
        "その他市町村長が必要と認める事項": "",
        "受入対象者": "",
        "備考": ""
      }
    }
  ]
}