{
  "type": "FeatureCollection",
  "name": "072028",
  "features": [
    {
      "type": "Feature",
      "geometry": {
        "type": "Point",
        "coordinates": [
          139.954732,
          37.534069
        ]
      },
      "properties": {
        "NO": 13153,
        "共通ID": "E0720200004122",
        "都道府県名及び市町村名": "福島県会津若松市",
        "施設・場所名": "そらと星のバラード",
        "住所": "福島県会津若松市一箕町松長1-19",
        "指定緊急避難場所との住所同一": "",
        "その他市町村長が必要と認める事項": "",
        "受入対象者": "高齢者",
        "備考": ""
      }
    },
    {
      "type": "Feature",
      "geometry": {
        "type": "Point",
        "coordinates": [
          139.954732,
          37.534069
        ]
      },
      "properties": {
        "NO": 13154,
        "共通ID": "E0720200004121",
        "都道府県名及び市町村名": "福島県会津若松市",
        "施設・場所名": "丘の一番星",
        "住所": "福島県会津若松市一箕町松長1-19",
        "指定緊急避難場所との住所同一": "",
        "その他市町村長が必要と認める事項": "",
        "受入対象者": "高齢者",
        "備考": ""
      }
    },
    {
      "type": "Feature",
      "geometry": {
        "type": "Point",
        "coordinates": [
          139.959203,
          37.528366
        ]
      },
      "properties": {
        "NO": 13155,
        "共通ID": "E0720200180111",
        "都道府県名及び市町村名": "福島県会津若松市",
        "施設・場所名": "松長コミュニティセンター",
        "住所": "福島県会津若松市一箕町松長4-9-108",
        "指定緊急避難場所との住所同一": "1",
        "その他市町村長が必要と認める事項": "",
        "受入対象者": "",
        "備考": ""
      }
    },
    {
      "type": "Feature",
      "geometry": {
        "type": "Point",
        "coordinates": [
          139.957237,
          37.52608
        ]
      },
      "properties": {
        "NO": 13156,
        "共通ID": "E0720200006111",
        "都道府県名及び市町村名": "福島県会津若松市",
        "施設・場所名": "松長小学校",
        "住所": "福島県会津若松市一箕町松長4-9-2",
        "指定緊急避難場所との住所同一": "1",
        "その他市町村長が必要と認める事項": null,
        "受入対象者": null,
        "備考": ""
      }
    },
    {
      "type": "Feature",
      "geometry": {
        "type": "Point",
        "coordinates": [
          139.953629,
          37.52357
        ]
      },
      "properties": {
        "NO": 13157,
        "共通ID": "E0720200009121",
        "都道府県名及び市町村名": "福島県会津若松市",
        "施設・場所名": "枝雪零苑",
        "住所": "福島県会津若松市一箕町大字松長字下長原152",
        "指定緊急避難場所との住所同一": "",
        "その他市町村長が必要と認める事項": null,
        "受入対象者": "高齢者",
        "備考": ""
      }
    },
    {
      "type": "Feature",
      "geometry": {
        "type": "Point",
        "coordinates": [
          139.93502,
          37.523692
        ]
      },
      "properties": {
        "NO": 13158,
        "共通ID": "E0720200010121",
        "都道府県名及び市町村名": "福島県会津若松市",
        "施設・場所名": "福島県立会津支援学校",
        "住所": "福島県会津若松市一箕町大字鶴賀字下柳原102",
        "指定緊急避難場所との住所同一": "",
        "その他市町村長が必要と認める事項": null,
        "受入対象者": "要配慮児童",
        "備考": ""
      }
    },
    {
      "type": "Feature",
      "geometry": {
        "type": "Point",
        "coordinates": [
          139.93804,
          37.523684
        ]
      },
      "properties": {
        "NO": 13159,
        "共通ID": "E0720200011111",
        "都道府県名及び市町村名": "福島県会津若松市",
        "施設・場所名": "公立学校法人会津大学",
        "住所": "福島県会津若松市一箕町大字鶴賀字上居合90",
        "指定緊急避難場所との住所同一": "1",
        "その他市町村長が必要と認める事項": "",
        "受入対象者": "",
        "備考": ""
      }
    },
    {
      "type": "Feature",
      "geometry": {
        "type": "Point",
        "coordinates": [
          139.953904,
          37.516914
        ]
      },
      "properties": {
        "NO": 13160,
        "共通ID": "E0720200012111",
        "都道府県名及び市町村名": "福島県会津若松市",
        "施設・場所名": "一箕中学校",
        "住所": "福島県会津若松市一箕町大字八幡字堰下70",
        "指定緊急避難場所との住所同一": "1",
        "その他市町村長が必要と認める事項": null,
        "受入対象者": null,
        "備考": ""
      }
    },
    {
      "type": "Feature",
      "geometry": {
        "type": "Point",
        "coordinates": [
          139.951333,
          37.507653
        ]
      },
      "properties": {
        "NO": 13161,
        "共通ID": "E0720200013121",
        "都道府県名及び市町村名": "福島県会津若松市",
        "施設・場所名": "夢の樹",
        "住所": "福島県会津若松市一箕町大字八幡字滝沢82-3",
        "指定緊急避難場所との住所同一": "",
        "その他市町村長が必要と認める事項": "",
        "受入対象者": "障がい者",
        "備考": ""
      }
    },
    {
      "type": "Feature",
      "geometry": {
        "type": "Point",
        "coordinates": [
          139.943643,
          37.510688
        ]
      },
      "properties": {
        "NO": 13162,
        "共通ID": "E0720200014111",
        "都道府県名及び市町村名": "福島県会津若松市",
        "施設・場所名": "福島県立会津学鳳中学校・高等学校",
        "住所": "福島県会津若松市一箕町大字八幡字八幡1-1",
        "指定緊急避難場所との住所同一": "1",
        "その他市町村長が必要と認める事項": "",
        "受入対象者": "",
        "備考": ""
      }
    },
    {
      "type": "Feature",
      "geometry": {
        "type": "Point",
        "coordinates": [
          139.945795,
          37.51032
        ]
      },
      "properties": {
        "NO": 13163,
        "共通ID": "E0720200015111",
        "都道府県名及び市町村名": "福島県会津若松市",
        "施設・場所名": "ふれあい体育館",
        "住所": "福島県会津若松市一箕町大字八幡字八幡2-1",
        "指定緊急避難場所との住所同一": "1",
        "その他市町村長が必要と認める事項": null,
        "受入対象者": null,
        "備考": ""
      }
    },
    {
      "type": "Feature",
      "geometry": {
        "type": "Point",
        "coordinates": [
          139.946127,
          37.506915
        ]
      },
      "properties": {
        "NO": 13164,
        "共通ID": "E0720200017111",
        "都道府県名及び市町村名": "福島県会津若松市",
        "施設・場所名": "公立学校法人会津大学短期大学部",
        "住所": "福島県会津若松市一箕町大字八幡字門田1-1",
        "指定緊急避難場所との住所同一": "1",
        "その他市町村長が必要と認める事項": "",
        "受入対象者": "",
        "備考": ""
      }
    },
    {
      "type": "Feature",
      "geometry": {
        "type": "Point",
        "coordinates": [
          139.929844,
          37.496695
        ]
      },
      "properties": {
        "NO": 13165,
        "共通ID": "E0720200175111",
        "都道府県名及び市町村名": "福島県会津若松市",
        "施設・場所名": "生涯学習総合センター（會津稽古堂）",
        "住所": "福島県会津若松市栄町3-50",
        "指定緊急避難場所との住所同一": "1",
        "その他市町村長が必要と認める事項": "",
        "受入対象者": "",
        "備考": ""
      }
    },
    {
      "type": "Feature",
      "geometry": {
        "type": "Point",
        "coordinates": [
          139.918027,
          37.563376
        ]
      },
      "properties": {
        "NO": 13166,
        "共通ID": "E0720200021111",
        "都道府県名及び市町村名": "福島県会津若松市",
        "施設・場所名": "河東第三幼稚園",
        "住所": "福島県会津若松市河東町熊野堂字高舘175",
        "指定緊急避難場所との住所同一": "1",
        "その他市町村長が必要と認める事項": "",
        "受入対象者": "",
        "備考": ""
      }
    },
    {
      "type": "Feature",
      "geometry": {
        "type": "Point",
        "coordinates": [
          139.926799,
          37.549902
        ]
      },
      "properties": {
        "NO": 13167,
        "共通ID": "E0720200022111",
        "都道府県名及び市町村名": "福島県会津若松市",
        "施設・場所名": "河東公民館",
        "住所": "福島県会津若松市河東町郡山字中子山32",
        "指定緊急避難場所との住所同一": "1",
        "その他市町村長が必要と認める事項": "",
        "受入対象者": "",
        "備考": ""
      }
    },
    {
      "type": "Feature",
      "geometry": {
        "type": "Point",
        "coordinates": [
          139.926445,
          37.549882
        ]
      },
      "properties": {
        "NO": 13168,
        "共通ID": "E0720200023121",
        "都道府県名及び市町村名": "福島県会津若松市",
        "施設・場所名": "河東保健センター",
        "住所": "福島県会津若松市河東町郡山字中子山44",
        "指定緊急避難場所との住所同一": "",
        "その他市町村長が必要と認める事項": "",
        "受入対象者": "要配慮者",
        "備考": ""
      }
    },
    {
      "type": "Feature",
      "geometry": {
        "type": "Point",
        "coordinates": [
          139.927409,
          37.549078
        ]
      },
      "properties": {
        "NO": 13169,
        "共通ID": "E0720200027111",
        "都道府県名及び市町村名": "福島県会津若松市",
        "施設・場所名": "広田保育所",
        "住所": "福島県会津若松市河東町広田字横堀15",
        "指定緊急避難場所との住所同一": "1",
        "その他市町村長が必要と認める事項": "",
        "受入対象者": "",
        "備考": ""
      }
    },
    {
      "type": "Feature",
      "geometry": {
        "type": "Point",
        "coordinates": [
          139.931541,
          37.549087
        ]
      },
      "properties": {
        "NO": 13170,
        "共通ID": "E0720200029121",
        "都道府県名及び市町村名": "福島県会津若松市",
        "施設・場所名": "ホームはな",
        "住所": "福島県会津若松市河東町広田字広田130",
        "指定緊急避難場所との住所同一": "",
        "その他市町村長が必要と認める事項": "",
        "受入対象者": "障がい者",
        "備考": ""
      }
    },
    {
      "type": "Feature",
      "geometry": {
        "type": "Point",
        "coordinates": [
          139.928976,
          37.547908
        ]
      },
      "properties": {
        "NO": 13171,
        "共通ID": "E0720200030121",
        "都道府県名及び市町村名": "福島県会津若松市",
        "施設・場所名": "グループホームＴＯＭＯ",
        "住所": "福島県会津若松市河東町広田字沢目56",
        "指定緊急避難場所との住所同一": "",
        "その他市町村長が必要と認める事項": "",
        "受入対象者": "障がい者",
        "備考": ""
      }
    },
    {
      "type": "Feature",
      "geometry": {
        "type": "Point",
        "coordinates": [
          139.956485,
          37.546039
        ]
      },
      "properties": {
        "NO": 13172,
        "共通ID": "E0720200032111",
        "都道府県名及び市町村名": "福島県会津若松市",
        "施設・場所名": "河東総合体育館",
        "住所": "福島県会津若松市河東町浅山字石堀山40-1",
        "指定緊急避難場所との住所同一": "1",
        "その他市町村長が必要と認める事項": null,
        "受入対象者": null,
        "備考": ""
      }
    },
    {
      "type": "Feature",
      "geometry": {
        "type": "Point",
        "coordinates": [
          139.929034,
          37.555255
        ]
      },
      "properties": {
        "NO": 13173,
        "共通ID": "E0720200037112",
        "都道府県名及び市町村名": "福島県会津若松市",
        "施設・場所名": "河東学園　後期課程",
        "住所": "福島県会津若松市河東町南高野字金剛田1",
        "指定緊急避難場所との住所同一": "1",
        "その他市町村長が必要と認める事項": "",
        "受入対象者": "",
        "備考": ""
      }
    },
    {
      "type": "Feature",
      "geometry": {
        "type": "Point",
        "coordinates": [
          139.929034,
          37.555255
        ]
      },
      "properties": {
        "NO": 13174,
        "共通ID": "E0720200037111",
        "都道府県名及び市町村名": "福島県会津若松市",
        "施設・場所名": "河東学園　前期課程",
        "住所": "福島県会津若松市河東町南高野字金剛田1",
        "指定緊急避難場所との住所同一": "1",
        "その他市町村長が必要と認める事項": "",
        "受入対象者": "",
        "備考": ""
      }
    },
    {
      "type": "Feature",
      "geometry": {
        "type": "Point",
        "coordinates": [
          139.931223,
          37.552485
        ]
      },
      "properties": {
        "NO": 13175,
        "共通ID": "E0720200038111",
        "都道府県名及び市町村名": "福島県会津若松市",
        "施設・場所名": "河東農村環境改善センター",
        "住所": "福島県会津若松市河東町南高野字向原19",
        "指定緊急避難場所との住所同一": "1",
        "その他市町村長が必要と認める事項": "",
        "受入対象者": "",
        "備考": ""
      }
    },
    {
      "type": "Feature",
      "geometry": {
        "type": "Point",
        "coordinates": [
          139.974952,
          37.542774
        ]
      },
      "properties": {
        "NO": 13176,
        "共通ID": "E0720200048111",
        "都道府県名及び市町村名": "福島県会津若松市",
        "施設・場所名": "八田地区交流センター",
        "住所": "福島県会津若松市河東町八田字八田野539",
        "指定緊急避難場所との住所同一": "1",
        "その他市町村長が必要と認める事項": "",
        "受入対象者": "",
        "備考": ""
      }
    },
    {
      "type": "Feature",
      "geometry": {
        "type": "Point",
        "coordinates": [
          139.939957,
          37.489911
        ]
      },
      "properties": {
        "NO": 13177,
        "共通ID": "E0720200173111",
        "都道府県名及び市町村名": "福島県会津若松市",
        "施設・場所名": "中央保育所",
        "住所": "福島県会津若松市花春町2-1",
        "指定緊急避難場所との住所同一": "1",
        "その他市町村長が必要と認める事項": "",
        "受入対象者": "",
        "備考": ""
      }
    },
    {
      "type": "Feature",
      "geometry": {
        "type": "Point",
        "coordinates": [
          139.945991,
          37.493007
        ]
      },
      "properties": {
        "NO": 13178,
        "共通ID": "E0720200052111",
        "都道府県名及び市町村名": "福島県会津若松市",
        "施設・場所名": "東公民館",
        "住所": "福島県会津若松市慶山1-1-53",
        "指定緊急避難場所との住所同一": "1",
        "その他市町村長が必要と認める事項": "",
        "受入対象者": "",
        "備考": ""
      }
    },
    {
      "type": "Feature",
      "geometry": {
        "type": "Point",
        "coordinates": [
          139.946127,
          37.494139
        ]
      },
      "properties": {
        "NO": 13179,
        "共通ID": "E0720200053111",
        "都道府県名及び市町村名": "福島県会津若松市",
        "施設・場所名": "東山小学校",
        "住所": "福島県会津若松市慶山1-2-1",
        "指定緊急避難場所との住所同一": "1",
        "その他市町村長が必要と認める事項": null,
        "受入対象者": null,
        "備考": ""
      }
    },
    {
      "type": "Feature",
      "geometry": {
        "type": "Point",
        "coordinates": [
          139.937198,
          37.49861
        ]
      },
      "properties": {
        "NO": 13180,
        "共通ID": "E0720200176111",
        "都道府県名及び市町村名": "福島県会津若松市",
        "施設・場所名": "行仁コミュニティセンター",
        "住所": "福島県会津若松市行仁町5-32",
        "指定緊急避難場所との住所同一": "1",
        "その他市町村長が必要と認める事項": "",
        "受入対象者": "",
        "備考": ""
      }
    },
    {
      "type": "Feature",
      "geometry": {
        "type": "Point",
        "coordinates": [
          139.937517,
          37.498027
        ]
      },
      "properties": {
        "NO": 13181,
        "共通ID": "E0720200056111",
        "都道府県名及び市町村名": "福島県会津若松市",
        "施設・場所名": "行仁小学校",
        "住所": "福島県会津若松市行仁町6-1",
        "指定緊急避難場所との住所同一": "1",
        "その他市町村長が必要と認める事項": null,
        "受入対象者": null,
        "備考": ""
      }
    },
    {
      "type": "Feature",
      "geometry": {
        "type": "Point",
        "coordinates": [
          139.911155,
          37.521883
        ]
      },
      "properties": {
        "NO": 13182,
        "共通ID": "E0720200057111",
        "都道府県名及び市町村名": "福島県会津若松市",
        "施設・場所名": "北公民館",
        "住所": "福島県会津若松市高野町大字上高野字村前28",
        "指定緊急避難場所との住所同一": "1",
        "その他市町村長が必要と認める事項": "",
        "受入対象者": "",
        "備考": ""
      }
    },
    {
      "type": "Feature",
      "geometry": {
        "type": "Point",
        "coordinates": [
          139.90923,
          37.525016
        ]
      },
      "properties": {
        "NO": 13183,
        "共通ID": "E0720200058111",
        "都道府県名及び市町村名": "福島県会津若松市",
        "施設・場所名": "永和小学校",
        "住所": "福島県会津若松市高野町大字上高野字村内43-1",
        "指定緊急避難場所との住所同一": "1",
        "その他市町村長が必要と認める事項": null,
        "受入対象者": null,
        "備考": ""
      }
    },
    {
      "type": "Feature",
      "geometry": {
        "type": "Point",
        "coordinates": [
          139.913472,
          37.486539
        ]
      },
      "properties": {
        "NO": 13184,
        "共通ID": "E0720200179111",
        "都道府県名及び市町村名": "福島県会津若松市",
        "施設・場所名": "城西コミュニティセンター",
        "住所": "福島県会津若松市材木町1-3-38",
        "指定緊急避難場所との住所同一": "1",
        "その他市町村長が必要と認める事項": "",
        "受入対象者": "",
        "備考": ""
      }
    },
    {
      "type": "Feature",
      "geometry": {
        "type": "Point",
        "coordinates": [
          139.912798,
          37.481362
        ]
      },
      "properties": {
        "NO": 13185,
        "共通ID": "E0720200062111",
        "都道府県名及び市町村名": "福島県会津若松市",
        "施設・場所名": "第四中学校",
        "住所": "福島県会津若松市桜町110",
        "指定緊急避難場所との住所同一": "1",
        "その他市町村長が必要と認める事項": null,
        "受入対象者": null,
        "備考": ""
      }
    },
    {
      "type": "Feature",
      "geometry": {
        "type": "Point",
        "coordinates": [
          139.940294,
          37.506359
        ]
      },
      "properties": {
        "NO": 13186,
        "共通ID": "E0720200063111",
        "都道府県名及び市町村名": "福島県会津若松市",
        "施設・場所名": "一箕小学校",
        "住所": "福島県会津若松市山見町220",
        "指定緊急避難場所との住所同一": "1",
        "その他市町村長が必要と認める事項": null,
        "受入対象者": null,
        "備考": ""
      }
    },
    {
      "type": "Feature",
      "geometry": {
        "type": "Point",
        "coordinates": [
          139.925112,
          37.490587
        ]
      },
      "properties": {
        "NO": 13187,
        "共通ID": "E0720200184111",
        "都道府県名及び市町村名": "福島県会津若松市",
        "施設・場所名": "謹教コミュニティセンター",
        "住所": "福島県会津若松市山鹿町1-22",
        "指定緊急避難場所との住所同一": "1",
        "その他市町村長が必要と認める事項": "",
        "受入対象者": "",
        "備考": ""
      }
    },
    {
      "type": "Feature",
      "geometry": {
        "type": "Point",
        "coordinates": [
          139.934974,
          37.505394
        ]
      },
      "properties": {
        "NO": 13188,
        "共通ID": "E0720200065111",
        "都道府県名及び市町村名": "福島県会津若松市",
        "施設・場所名": "第一中学校",
        "住所": "福島県会津若松市蚕養町11-1",
        "指定緊急避難場所との住所同一": "1",
        "その他市町村長が必要と認める事項": null,
        "受入対象者": null,
        "備考": ""
      }
    },
    {
      "type": "Feature",
      "geometry": {
        "type": "Point",
        "coordinates": [
          139.933922,
          37.490158
        ]
      },
      "properties": {
        "NO": 13189,
        "共通ID": "E0720200071111",
        "都道府県名及び市町村名": "福島県会津若松市",
        "施設・場所名": "第二中学校",
        "住所": "福島県会津若松市城前1-7",
        "指定緊急避難場所との住所同一": "1",
        "その他市町村長が必要と認める事項": null,
        "受入対象者": null,
        "備考": ""
      }
    },
    {
      "type": "Feature",
      "geometry": {
        "type": "Point",
        "coordinates": [
          139.934538,
          37.489583
        ]
      },
      "properties": {
        "NO": 13190,
        "共通ID": "E0720200182111",
        "都道府県名及び市町村名": "福島県会津若松市",
        "施設・場所名": "鶴城コミュニティセンター",
        "住所": "福島県会津若松市城東町1-47",
        "指定緊急避難場所との住所同一": "1",
        "その他市町村長が必要と認める事項": "",
        "受入対象者": "",
        "備考": ""
      }
    },
    {
      "type": "Feature",
      "geometry": {
        "type": "Point",
        "coordinates": [
          139.935166,
          37.485859
        ]
      },
      "properties": {
        "NO": 13191,
        "共通ID": "E0720200074111",
        "都道府県名及び市町村名": "福島県会津若松市",
        "施設・場所名": "鶴ケ城公園（鶴ケ城体育館）　",
        "住所": "福島県会津若松市城東町14-51",
        "指定緊急避難場所との住所同一": "",
        "その他市町村長が必要と認める事項": "",
        "受入対象者": "",
        "備考": ""
      }
    },
    {
      "type": "Feature",
      "geometry": {
        "type": "Point",
        "coordinates": [
          139.926129,
          37.504137
        ]
      },
      "properties": {
        "NO": 13192,
        "共通ID": "E0720200076111",
        "都道府県名及び市町村名": "福島県会津若松市",
        "施設・場所名": "城北小学校",
        "住所": "福島県会津若松市城北町2-1",
        "指定緊急避難場所との住所同一": "1",
        "その他市町村長が必要と認める事項": null,
        "受入対象者": null,
        "備考": ""
      }
    },
    {
      "type": "Feature",
      "geometry": {
        "type": "Point",
        "coordinates": [
          139.875486,
          37.518159
        ]
      },
      "properties": {
        "NO": 13193,
        "共通ID": "E0720200181111",
        "都道府県名及び市町村名": "福島県会津若松市",
        "施設・場所名": "真宮コミュニティセンター",
        "住所": "福島県会津若松市真宮新町南3-33",
        "指定緊急避難場所との住所同一": "1",
        "その他市町村長が必要と認める事項": "",
        "受入対象者": "",
        "備考": ""
      }
    },
    {
      "type": "Feature",
      "geometry": {
        "type": "Point",
        "coordinates": [
          139.874996,
          37.522129
        ]
      },
      "properties": {
        "NO": 13194,
        "共通ID": "E0720200080121",
        "都道府県名及び市町村名": "福島県会津若松市",
        "施設・場所名": "ピーターパンデイサービスセンター",
        "住所": "福島県会津若松市真宮新町南4-78",
        "指定緊急避難場所との住所同一": "",
        "その他市町村長が必要と認める事項": null,
        "受入対象者": "障がい者",
        "備考": ""
      }
    },
    {
      "type": "Feature",
      "geometry": {
        "type": "Point",
        "coordinates": [
          139.890797,
          37.526418
        ]
      },
      "properties": {
        "NO": 13195,
        "共通ID": "E0720200082121",
        "都道府県名及び市町村名": "福島県会津若松市",
        "施設・場所名": "アガッセ",
        "住所": "福島県会津若松市神指町榎木檀73",
        "指定緊急避難場所との住所同一": "",
        "その他市町村長が必要と認める事項": "",
        "受入対象者": "障がい者",
        "備考": ""
      }
    },
    {
      "type": "Feature",
      "geometry": {
        "type": "Point",
        "coordinates": [
          139.901095,
          37.517525
        ]
      },
      "properties": {
        "NO": 13196,
        "共通ID": "E0720200084111",
        "都道府県名及び市町村名": "福島県会津若松市",
        "施設・場所名": "中央公民館神指分館",
        "住所": "福島県会津若松市神指町大字高瀬字大道東105",
        "指定緊急避難場所との住所同一": "1",
        "その他市町村長が必要と認める事項": "",
        "受入対象者": "",
        "備考": ""
      }
    },
    {
      "type": "Feature",
      "geometry": {
        "type": "Point",
        "coordinates": [
          139.900008,
          37.518856
        ]
      },
      "properties": {
        "NO": 13197,
        "共通ID": "E0720200085111",
        "都道府県名及び市町村名": "福島県会津若松市",
        "施設・場所名": "神指小学校",
        "住所": "福島県会津若松市神指町大字高瀬字大道東108-3",
        "指定緊急避難場所との住所同一": "1",
        "その他市町村長が必要と認める事項": null,
        "受入対象者": null,
        "備考": ""
      }
    },
    {
      "type": "Feature",
      "geometry": {
        "type": "Point",
        "coordinates": [
          139.910852,
          37.511358
        ]
      },
      "properties": {
        "NO": 13198,
        "共通ID": "E0720200086111",
        "都道府県名及び市町村名": "福島県会津若松市",
        "施設・場所名": "第六中学校",
        "住所": "福島県会津若松市神指町大字黒川字湯川東296",
        "指定緊急避難場所との住所同一": "1",
        "その他市町村長が必要と認める事項": null,
        "受入対象者": null,
        "備考": ""
      }
    },
    {
      "type": "Feature",
      "geometry": {
        "type": "Point",
        "coordinates": [
          139.885927,
          37.524291
        ]
      },
      "properties": {
        "NO": 13199,
        "共通ID": "E0720200087121",
        "都道府県名及び市町村名": "福島県会津若松市",
        "施設・場所名": "会津みどりホーム",
        "住所": "福島県会津若松市神指町大字北四合字伊丹堂55-1",
        "指定緊急避難場所との住所同一": "",
        "その他市町村長が必要と認める事項": null,
        "受入対象者": "高齢者",
        "備考": ""
      }
    },
    {
      "type": "Feature",
      "geometry": {
        "type": "Point",
        "coordinates": [
          139.925155,
          37.492268
        ]
      },
      "properties": {
        "NO": 13200,
        "共通ID": "E0720200171111",
        "都道府県名及び市町村名": "福島県会津若松市",
        "施設・場所名": "会津若松ザベリオ学園",
        "住所": "福島県会津若松市西栄町1-18",
        "指定緊急避難場所との住所同一": "1",
        "その他市町村長が必要と認める事項": "",
        "受入対象者": "",
        "備考": ""
      }
    },
    {
      "type": "Feature",
      "geometry": {
        "type": "Point",
        "coordinates": [
          139.926129,
          37.493861
        ]
      },
      "properties": {
        "NO": 13201,
        "共通ID": "E0720200088111",
        "都道府県名及び市町村名": "福島県会津若松市",
        "施設・場所名": "福島県立葵高等学校",
        "住所": "福島県会津若松市西栄町4-61",
        "指定緊急避難場所との住所同一": "1",
        "その他市町村長が必要と認める事項": "",
        "受入対象者": "",
        "備考": ""
      }
    },
    {
      "type": "Feature",
      "geometry": {
        "type": "Point",
        "coordinates": [
          139.91532,
          37.501643
        ]
      },
      "properties": {
        "NO": 13202,
        "共通ID": "E0720200090121",
        "都道府県名及び市町村名": "福島県会津若松市",
        "施設・場所名": "こもれび",
        "住所": "福島県会津若松市西七日町2-29",
        "指定緊急避難場所との住所同一": "",
        "その他市町村長が必要と認める事項": "",
        "受入対象者": "障がい者",
        "備考": ""
      }
    },
    {
      "type": "Feature",
      "geometry": {
        "type": "Point",
        "coordinates": [
          139.915124,
          37.501951
        ]
      },
      "properties": {
        "NO": 13203,
        "共通ID": "E0720200174111",
        "都道府県名及び市町村名": "福島県会津若松市",
        "施設・場所名": "西七日町児童館",
        "住所": "福島県会津若松市西七日町2-33",
        "指定緊急避難場所との住所同一": "1",
        "その他市町村長が必要と認める事項": "",
        "受入対象者": "",
        "備考": ""
      }
    },
    {
      "type": "Feature",
      "geometry": {
        "type": "Point",
        "coordinates": [
          139.925273,
          37.505007
        ]
      },
      "properties": {
        "NO": 13204,
        "共通ID": "E0720200178111",
        "都道府県名及び市町村名": "福島県会津若松市",
        "施設・場所名": "城北コミュニティセンター",
        "住所": "福島県会津若松市石堂町10-65",
        "指定緊急避難場所との住所同一": "1",
        "その他市町村長が必要と認める事項": "",
        "受入対象者": "",
        "備考": ""
      }
    },
    {
      "type": "Feature",
      "geometry": {
        "type": "Point",
        "coordinates": [
          139.916482,
          37.488849
        ]
      },
      "properties": {
        "NO": 13205,
        "共通ID": "E0720200091111",
        "都道府県名及び市町村名": "福島県会津若松市",
        "施設・場所名": "城西小学校",
        "住所": "福島県会津若松市川原町4-1",
        "指定緊急避難場所との住所同一": "1",
        "その他市町村長が必要と認める事項": null,
        "受入対象者": null,
        "備考": ""
      }
    },
    {
      "type": "Feature",
      "geometry": {
        "type": "Point",
        "coordinates": [
          139.927589,
          37.388572
        ]
      },
      "properties": {
        "NO": 13206,
        "共通ID": "E0720200092121",
        "都道府県名及び市町村名": "福島県会津若松市",
        "施設・場所名": "りんどうの家",
        "住所": "福島県会津若松市大戸町小谷川端1",
        "指定緊急避難場所との住所同一": "",
        "その他市町村長が必要と認める事項": "",
        "受入対象者": "障がい者",
        "備考": ""
      }
    },
    {
      "type": "Feature",
      "geometry": {
        "type": "Point",
        "coordinates": [
          139.927472,
          37.387606
        ]
      },
      "properties": {
        "NO": 13207,
        "共通ID": "E0720200169121",
        "都道府県名及び市町村名": "福島県会津若松市",
        "施設・場所名": "会津児童園",
        "住所": "福島県会津若松市大戸町小谷川端79",
        "指定緊急避難場所との住所同一": "",
        "その他市町村長が必要と認める事項": "",
        "受入対象者": "要配慮児童",
        "備考": ""
      }
    },
    {
      "type": "Feature",
      "geometry": {
        "type": "Point",
        "coordinates": [
          139.937078,
          37.395719
        ]
      },
      "properties": {
        "NO": 13208,
        "共通ID": "E0720200093111",
        "都道府県名及び市町村名": "福島県会津若松市",
        "施設・場所名": "大戸中学校",
        "住所": "福島県会津若松市大戸町上三寄香塩211-1",
        "指定緊急避難場所との住所同一": "1",
        "その他市町村長が必要と認める事項": "",
        "受入対象者": "",
        "備考": ""
      }
    },
    {
      "type": "Feature",
      "geometry": {
        "type": "Point",
        "coordinates": [
          139.932419,
          37.398068
        ]
      },
      "properties": {
        "NO": 13209,
        "共通ID": "E0720200094111",
        "都道府県名及び市町村名": "福島県会津若松市",
        "施設・場所名": "大戸公民館",
        "住所": "福島県会津若松市大戸町上三寄香塩479",
        "指定緊急避難場所との住所同一": "1",
        "その他市町村長が必要と認める事項": null,
        "受入対象者": null,
        "備考": ""
      }
    },
    {
      "type": "Feature",
      "geometry": {
        "type": "Point",
        "coordinates": [
          139.934469,
          37.392385
        ]
      },
      "properties": {
        "NO": 13210,
        "共通ID": "E0720200095111",
        "都道府県名及び市町村名": "福島県会津若松市",
        "施設・場所名": "大戸小学校",
        "住所": "福島県会津若松市大戸町上三寄大豆田116",
        "指定緊急避難場所との住所同一": "1",
        "その他市町村長が必要と認める事項": null,
        "受入対象者": null,
        "備考": ""
      }
    },
    {
      "type": "Feature",
      "geometry": {
        "type": "Point",
        "coordinates": [
          139.911138,
          37.365346
        ]
      },
      "properties": {
        "NO": 13211,
        "共通ID": "E0720200096121",
        "都道府県名及び市町村名": "福島県会津若松市",
        "施設・場所名": "芦ノ牧ホーム",
        "住所": "福島県会津若松市大戸町大字芦牧字壇ノ下845",
        "指定緊急避難場所との住所同一": "",
        "その他市町村長が必要と認める事項": "",
        "受入対象者": "高齢者",
        "備考": ""
      }
    },
    {
      "type": "Feature",
      "geometry": {
        "type": "Point",
        "coordinates": [
          139.928089,
          37.501893
        ]
      },
      "properties": {
        "NO": 13212,
        "共通ID": "E0720200097121",
        "都道府県名及び市町村名": "福島県会津若松市",
        "施設・場所名": "とうみょう子ども園",
        "住所": "福島県会津若松市大町2-1-45",
        "指定緊急避難場所との住所同一": "",
        "その他市町村長が必要と認める事項": null,
        "受入対象者": "乳幼児その他",
        "備考": ""
      }
    },
    {
      "type": "Feature",
      "geometry": {
        "type": "Point",
        "coordinates": [
          139.931172,
          37.501104
        ]
      },
      "properties": {
        "NO": 13213,
        "共通ID": "E0720200100121",
        "都道府県名及び市町村名": "福島県会津若松市",
        "施設・場所名": "悠悠いきいき倶楽部あいづ",
        "住所": "福島県会津若松市中央2-1-21",
        "指定緊急避難場所との住所同一": "",
        "その他市町村長が必要と認める事項": "",
        "受入対象者": "高齢者",
        "備考": ""
      }
    },
    {
      "type": "Feature",
      "geometry": {
        "type": "Point",
        "coordinates": [
          139.930424,
          37.51627
        ]
      },
      "properties": {
        "NO": 13214,
        "共通ID": "E0720200102121",
        "都道府県名及び市町村名": "福島県会津若松市",
        "施設・場所名": "ゆめみっこ",
        "住所": "福島県会津若松市町北町大字上荒久田字鈴木7",
        "指定緊急避難場所との住所同一": "",
        "その他市町村長が必要と認める事項": "",
        "受入対象者": "要配慮児童",
        "備考": ""
      }
    },
    {
      "type": "Feature",
      "geometry": {
        "type": "Point",
        "coordinates": [
          139.946143,
          37.521281
        ]
      },
      "properties": {
        "NO": 13215,
        "共通ID": "E0720200231111",
        "都道府県名及び市町村名": "福島県会津若松市",
        "施設・場所名": "仁愛高等学校",
        "住所": "福島県会津若松市鶴賀町1-5-33",
        "指定緊急避難場所との住所同一": "",
        "その他市町村長が必要と認める事項": "",
        "受入対象者": "",
        "備考": ""
      }
    },
    {
      "type": "Feature",
      "geometry": {
        "type": "Point",
        "coordinates": [
          139.93474,
          37.49275
        ]
      },
      "properties": {
        "NO": 13216,
        "共通ID": "E0720200106111",
        "都道府県名及び市町村名": "福島県会津若松市",
        "施設・場所名": "福島県立会津工業高等学校",
        "住所": "福島県会津若松市徒之町1-37",
        "指定緊急避難場所との住所同一": "1",
        "その他市町村長が必要と認める事項": "",
        "受入対象者": "",
        "備考": ""
      }
    },
    {
      "type": "Feature",
      "geometry": {
        "type": "Point",
        "coordinates": [
          139.931407,
          37.493027
        ]
      },
      "properties": {
        "NO": 13217,
        "共通ID": "E0720200108111",
        "都道府県名及び市町村名": "福島県会津若松市",
        "施設・場所名": "鶴城小学校",
        "住所": "福島県会津若松市東栄町7-7",
        "指定緊急避難場所との住所同一": "1",
        "その他市町村長が必要と認める事項": null,
        "受入対象者": null,
        "備考": ""
      }
    },
    {
      "type": "Feature",
      "geometry": {
        "type": "Point",
        "coordinates": [
          139.930836,
          37.475565
        ]
      },
      "properties": {
        "NO": 13218,
        "共通ID": "E0720200183111",
        "都道府県名及び市町村名": "福島県会津若松市",
        "施設・場所名": "城南コミュニティセンター",
        "住所": "福島県会津若松市東年貢1-11-2",
        "指定緊急避難場所との住所同一": "1",
        "その他市町村長が必要と認める事項": "",
        "受入対象者": "",
        "備考": ""
      }
    },
    {
      "type": "Feature",
      "geometry": {
        "type": "Point",
        "coordinates": [
          139.918966,
          37.488217
        ]
      },
      "properties": {
        "NO": 13219,
        "共通ID": "E0720200110111",
        "都道府県名及び市町村名": "福島県会津若松市",
        "施設・場所名": "第三中学校",
        "住所": "福島県会津若松市湯川町4-20",
        "指定緊急避難場所との住所同一": "1",
        "その他市町村長が必要と認める事項": null,
        "受入対象者": null,
        "備考": ""
      }
    },
    {
      "type": "Feature",
      "geometry": {
        "type": "Point",
        "coordinates": [
          139.940251,
          37.514811
        ]
      },
      "properties": {
        "NO": 13220,
        "共通ID": "E0720200170123",
        "都道府県名及び市町村名": "福島県会津若松市",
        "施設・場所名": "菜の花",
        "住所": "福島県会津若松市藤原2-22-2",
        "指定緊急避難場所との住所同一": "",
        "その他市町村長が必要と認める事項": "",
        "受入対象者": "高齢者",
        "備考": ""
      }
    },
    {
      "type": "Feature",
      "geometry": {
        "type": "Point",
        "coordinates": [
          139.940251,
          37.514811
        ]
      },
      "properties": {
        "NO": 13221,
        "共通ID": "E0720200170121",
        "都道府県名及び市町村名": "福島県会津若松市",
        "施設・場所名": "はる",
        "住所": "福島県会津若松市藤原2-22-2",
        "指定緊急避難場所との住所同一": "",
        "その他市町村長が必要と認める事項": "",
        "受入対象者": "要配慮児童",
        "備考": ""
      }
    },
    {
      "type": "Feature",
      "geometry": {
        "type": "Point",
        "coordinates": [
          139.940251,
          37.514811
        ]
      },
      "properties": {
        "NO": 13222,
        "共通ID": "E0720200170122",
        "都道府県名及び市町村名": "福島県会津若松市",
        "施設・場所名": "アクティブ",
        "住所": "福島県会津若松市藤原2-22-2",
        "指定緊急避難場所との住所同一": "",
        "その他市町村長が必要と認める事項": "",
        "受入対象者": "障がい者",
        "備考": ""
      }
    },
    {
      "type": "Feature",
      "geometry": {
        "type": "Point",
        "coordinates": [
          139.922502,
          37.485003
        ]
      },
      "properties": {
        "NO": 13223,
        "共通ID": "E0720200111121",
        "都道府県名及び市町村名": "福島県会津若松市",
        "施設・場所名": "あいづ南花畑デイサービスセンター",
        "住所": "福島県会津若松市南花畑2-58",
        "指定緊急避難場所との住所同一": "",
        "その他市町村長が必要と認める事項": "",
        "受入対象者": "高齢者",
        "備考": ""
      }
    },
    {
      "type": "Feature",
      "geometry": {
        "type": "Point",
        "coordinates": [
          139.921577,
          37.497161
        ]
      },
      "properties": {
        "NO": 13224,
        "共通ID": "E0720200112121",
        "都道府県名及び市町村名": "福島県会津若松市",
        "施設・場所名": "プラセール日新",
        "住所": "福島県会津若松市日新町10-10",
        "指定緊急避難場所との住所同一": "",
        "その他市町村長が必要と認める事項": null,
        "受入対象者": "高齢者",
        "備考": ""
      }
    },
    {
      "type": "Feature",
      "geometry": {
        "type": "Point",
        "coordinates": [
          139.91807,
          37.496399
        ]
      },
      "properties": {
        "NO": 13225,
        "共通ID": "E0720200114111",
        "都道府県名及び市町村名": "福島県会津若松市",
        "施設・場所名": "日新小学校",
        "住所": "福島県会津若松市日新町7-40",
        "指定緊急避難場所との住所同一": "1",
        "その他市町村長が必要と認める事項": null,
        "受入対象者": null,
        "備考": ""
      }
    },
    {
      "type": "Feature",
      "geometry": {
        "type": "Point",
        "coordinates": [
          139.918321,
          37.497572
        ]
      },
      "properties": {
        "NO": 13226,
        "共通ID": "E0720200177111",
        "都道府県名及び市町村名": "福島県会津若松市",
        "施設・場所名": "日新コミュニティセンター",
        "住所": "福島県会津若松市日新町8-28",
        "指定緊急避難場所との住所同一": "1",
        "その他市町村長が必要と認める事項": "",
        "受入対象者": "",
        "備考": ""
      }
    },
    {
      "type": "Feature",
      "geometry": {
        "type": "Point",
        "coordinates": [
          139.907179,
          37.48004
        ]
      },
      "properties": {
        "NO": 13227,
        "共通ID": "E0720200116121",
        "都道府県名及び市町村名": "福島県会津若松市",
        "施設・場所名": "デイサービスセンター陽だまりの家",
        "住所": "福島県会津若松市飯寺北1-9-28",
        "指定緊急避難場所との住所同一": "",
        "その他市町村長が必要と認める事項": "",
        "受入対象者": "高齢者",
        "備考": ""
      }
    },
    {
      "type": "Feature",
      "geometry": {
        "type": "Point",
        "coordinates": [
          139.929463,
          37.480529
        ]
      },
      "properties": {
        "NO": 13228,
        "共通ID": "E0720200120111",
        "都道府県名及び市町村名": "福島県会津若松市",
        "施設・場所名": "福島県立会津高等学校",
        "住所": "福島県会津若松市表町3-1",
        "指定緊急避難場所との住所同一": "1",
        "その他市町村長が必要と認める事項": "",
        "受入対象者": "",
        "備考": ""
      }
    },
    {
      "type": "Feature",
      "geometry": {
        "type": "Point",
        "coordinates": [
          139.924185,
          37.487472
        ]
      },
      "properties": {
        "NO": 13229,
        "共通ID": "E0720200121111",
        "都道府県名及び市町村名": "福島県会津若松市",
        "施設・場所名": "福島県立若松商業高等学校",
        "住所": "福島県会津若松市米代1-3-31",
        "指定緊急避難場所との住所同一": "1",
        "その他市町村長が必要と認める事項": "",
        "受入対象者": "",
        "備考": ""
      }
    },
    {
      "type": "Feature",
      "geometry": {
        "type": "Point",
        "coordinates": [
          139.922663,
          37.489049
        ]
      },
      "properties": {
        "NO": 13230,
        "共通ID": "E0720200122111",
        "都道府県名及び市町村名": "福島県会津若松市",
        "施設・場所名": "謹教小学校",
        "住所": "福島県会津若松市米代1-5-33",
        "指定緊急避難場所との住所同一": "1",
        "その他市町村長が必要と認める事項": null,
        "受入対象者": null,
        "備考": ""
      }
    },
    {
      "type": "Feature",
      "geometry": {
        "type": "Point",
        "coordinates": [
          139.867442,
          37.507408
        ]
      },
      "properties": {
        "NO": 13231,
        "共通ID": "E0720200124111",
        "都道府県名及び市町村名": "福島県会津若松市",
        "施設・場所名": "荒舘小学校",
        "住所": "福島県会津若松市北会津町下荒井字八幡前13",
        "指定緊急避難場所との住所同一": "1",
        "その他市町村長が必要と認める事項": null,
        "受入対象者": null,
        "備考": ""
      }
    },
    {
      "type": "Feature",
      "geometry": {
        "type": "Point",
        "coordinates": [
          139.869574,
          37.498407
        ]
      },
      "properties": {
        "NO": 13232,
        "共通ID": "E0720200125121",
        "都道府県名及び市町村名": "福島県会津若松市",
        "施設・場所名": "北会津デイサービスセンター",
        "住所": "福島県会津若松市北会津町下荒井字矢倉林1",
        "指定緊急避難場所との住所同一": "",
        "その他市町村長が必要と認める事項": null,
        "受入対象者": "高齢者",
        "備考": ""
      }
    },
    {
      "type": "Feature",
      "geometry": {
        "type": "Point",
        "coordinates": [
          139.869096,
          37.498075
        ]
      },
      "properties": {
        "NO": 13233,
        "共通ID": "E0720200125122",
        "都道府県名及び市町村名": "福島県会津若松市",
        "施設・場所名": "北会津保健センター",
        "住所": "福島県会津若松市北会津町下荒井字矢倉林1",
        "指定緊急避難場所との住所同一": "",
        "その他市町村長が必要と認める事項": null,
        "受入対象者": "要配慮者",
        "備考": ""
      }
    },
    {
      "type": "Feature",
      "geometry": {
        "type": "Point",
        "coordinates": [
          139.880734,
          37.465485
        ]
      },
      "properties": {
        "NO": 13234,
        "共通ID": "E0720200131111",
        "都道府県名及び市町村名": "福島県会津若松市",
        "施設・場所名": "川南小学校",
        "住所": "福島県会津若松市北会津町小松490-2",
        "指定緊急避難場所との住所同一": "1",
        "その他市町村長が必要と認める事項": null,
        "受入対象者": null,
        "備考": ""
      }
    },
    {
      "type": "Feature",
      "geometry": {
        "type": "Point",
        "coordinates": [
          139.872862,
          37.496602
        ]
      },
      "properties": {
        "NO": 13235,
        "共通ID": "E0720200136111",
        "都道府県名及び市町村名": "福島県会津若松市",
        "施設・場所名": "北会津中学校",
        "住所": "福島県会津若松市北会津町中荒井2107-1",
        "指定緊急避難場所との住所同一": "1",
        "その他市町村長が必要と認める事項": null,
        "受入対象者": null,
        "備考": ""
      }
    },
    {
      "type": "Feature",
      "geometry": {
        "type": "Point",
        "coordinates": [
          139.874196,
          37.492146
        ]
      },
      "properties": {
        "NO": 13236,
        "共通ID": "E0720200137111",
        "都道府県名及び市町村名": "福島県会津若松市",
        "施設・場所名": "北会津公民館",
        "住所": "福島県会津若松市北会津町中荒井字宮西1-1",
        "指定緊急避難場所との住所同一": "1",
        "その他市町村長が必要と認める事項": "",
        "受入対象者": "",
        "備考": ""
      }
    },
    {
      "type": "Feature",
      "geometry": {
        "type": "Point",
        "coordinates": [
          139.872971,
          37.492024
        ]
      },
      "properties": {
        "NO": 13237,
        "共通ID": "E0720200138111",
        "都道府県名及び市町村名": "福島県会津若松市",
        "施設・場所名": "北会津農村環境改善センター",
        "住所": "福島県会津若松市北会津町中荒井字宮西16",
        "指定緊急避難場所との住所同一": "1",
        "その他市町村長が必要と認める事項": "",
        "受入対象者": "",
        "備考": ""
      }
    },
    {
      "type": "Feature",
      "geometry": {
        "type": "Point",
        "coordinates": [
          139.891857,
          37.472278
        ]
      },
      "properties": {
        "NO": 13238,
        "共通ID": "E0720200139121",
        "都道府県名及び市町村名": "福島県会津若松市",
        "施設・場所名": "会津敬愛苑",
        "住所": "福島県会津若松市北会津町東小松字南古川1",
        "指定緊急避難場所との住所同一": "",
        "その他市町村長が必要と認める事項": "",
        "受入対象者": "高齢者",
        "備考": ""
      }
    },
    {
      "type": "Feature",
      "geometry": {
        "type": "Point",
        "coordinates": [
          139.890642,
          37.472424
        ]
      },
      "properties": {
        "NO": 13239,
        "共通ID": "E0720200140121",
        "都道府県名及び市町村名": "福島県会津若松市",
        "施設・場所名": "介護老人保健施設美野里",
        "住所": "福島県会津若松市北会津町東小松字南古川12",
        "指定緊急避難場所との住所同一": "",
        "その他市町村長が必要と認める事項": null,
        "受入対象者": "高齢者",
        "備考": ""
      }
    },
    {
      "type": "Feature",
      "geometry": {
        "type": "Point",
        "coordinates": [
          139.946805,
          37.51362
        ]
      },
      "properties": {
        "NO": 13240,
        "共通ID": "E0720200143111",
        "都道府県名及び市町村名": "福島県会津若松市",
        "施設・場所名": "一箕公民館",
        "住所": "福島県会津若松市北滝沢2-5-6",
        "指定緊急避難場所との住所同一": "1",
        "その他市町村長が必要と認める事項": "",
        "受入対象者": "",
        "備考": ""
      }
    },
    {
      "type": "Feature",
      "geometry": {
        "type": "Point",
        "coordinates": [
          140.011401,
          37.469419
        ]
      },
      "properties": {
        "NO": 13241,
        "共通ID": "E0720200146111",
        "都道府県名及び市町村名": "福島県会津若松市",
        "施設・場所名": "湊学園　前期課程",
        "住所": "福島県会津若松市湊町大字共和字上馬渡171",
        "指定緊急避難場所との住所同一": "1",
        "その他市町村長が必要と認める事項": "",
        "受入対象者": "",
        "備考": ""
      }
    },
    {
      "type": "Feature",
      "geometry": {
        "type": "Point",
        "coordinates": [
          140.009957,
          37.46919
        ]
      },
      "properties": {
        "NO": 13242,
        "共通ID": "E0720200148111",
        "都道府県名及び市町村名": "福島県会津若松市",
        "施設・場所名": "湊学園　後期課程",
        "住所": "福島県会津若松市湊町大字共和字上馬渡266-1",
        "指定緊急避難場所との住所同一": "",
        "その他市町村長が必要と認める事項": "",
        "受入対象者": "",
        "備考": ""
      }
    },
    {
      "type": "Feature",
      "geometry": {
        "type": "Point",
        "coordinates": [
          140.009363,
          37.467771
        ]
      },
      "properties": {
        "NO": 13243,
        "共通ID": "E0720200149121",
        "都道府県名及び市町村名": "福島県会津若松市",
        "施設・場所名": "絆",
        "住所": "福島県会津若松市湊町大字共和字西田面180",
        "指定緊急避難場所との住所同一": "",
        "その他市町村長が必要と認める事項": null,
        "受入対象者": "高齢者",
        "備考": ""
      }
    },
    {
      "type": "Feature",
      "geometry": {
        "type": "Point",
        "coordinates": [
          140.011834,
          37.466977
        ]
      },
      "properties": {
        "NO": 13244,
        "共通ID": "E0720200185111",
        "都道府県名及び市町村名": "福島県会津若松市",
        "施設・場所名": "基幹集落センター",
        "住所": "福島県会津若松市湊町大字共和字西田面50",
        "指定緊急避難場所との住所同一": "1",
        "その他市町村長が必要と認める事項": "",
        "受入対象者": "",
        "備考": ""
      }
    },
    {
      "type": "Feature",
      "geometry": {
        "type": "Point",
        "coordinates": [
          140.011348,
          37.467423
        ]
      },
      "properties": {
        "NO": 13245,
        "共通ID": "E0720200150111",
        "都道府県名及び市町村名": "福島県会津若松市",
        "施設・場所名": "湊公民館",
        "住所": "福島県会津若松市湊町大字協和字西田面45",
        "指定緊急避難場所との住所同一": "1",
        "その他市町村長が必要と認める事項": "",
        "受入対象者": "",
        "備考": ""
      }
    },
    {
      "type": "Feature",
      "geometry": {
        "type": "Point",
        "coordinates": [
          139.925575,
          37.469974
        ]
      },
      "properties": {
        "NO": 13246,
        "共通ID": "E0720200156111",
        "都道府県名及び市町村名": "福島県会津若松市",
        "施設・場所名": "第五中学校",
        "住所": "福島県会津若松市門田町大字御山字村下314",
        "指定緊急避難場所との住所同一": "1",
        "その他市町村長が必要と認める事項": null,
        "受入対象者": null,
        "備考": ""
      }
    },
    {
      "type": "Feature",
      "geometry": {
        "type": "Point",
        "coordinates": [
          139.925122,
          37.462368
        ]
      },
      "properties": {
        "NO": 13247,
        "共通ID": "E0720200157111",
        "都道府県名及び市町村名": "福島県会津若松市",
        "施設・場所名": "会津総合運動公園（あいづ総合体育館）",
        "住所": "福島県会津若松市門田町大字御山字村上164",
        "指定緊急避難場所との住所同一": "1",
        "その他市町村長が必要と認める事項": "",
        "受入対象者": "",
        "備考": ""
      }
    },
    {
      "type": "Feature",
      "geometry": {
        "type": "Point",
        "coordinates": [
          139.946997,
          37.483408
        ]
      },
      "properties": {
        "NO": 13248,
        "共通ID": "E0720200158121",
        "都道府県名及び市町村名": "福島県会津若松市",
        "施設・場所名": "会津長寿園",
        "住所": "福島県会津若松市門田町大字黒岩字五百山丙459-3",
        "指定緊急避難場所との住所同一": "",
        "その他市町村長が必要と認める事項": null,
        "受入対象者": "自立度が高い要配慮者",
        "備考": ""
      }
    },
    {
      "type": "Feature",
      "geometry": {
        "type": "Point",
        "coordinates": [
          139.933074,
          37.475529
        ]
      },
      "properties": {
        "NO": 13249,
        "共通ID": "E0720200160111",
        "都道府県名及び市町村名": "福島県会津若松市",
        "施設・場所名": "城南小学校",
        "住所": "福島県会津若松市門田町大字黒岩字大坪25-1",
        "指定緊急避難場所との住所同一": "1",
        "その他市町村長が必要と認める事項": null,
        "受入対象者": null,
        "備考": ""
      }
    },
    {
      "type": "Feature",
      "geometry": {
        "type": "Point",
        "coordinates": [
          139.922221,
          37.468921
        ]
      },
      "properties": {
        "NO": 13250,
        "共通ID": "E0720200161111",
        "都道府県名及び市町村名": "福島県会津若松市",
        "施設・場所名": "門田小学校",
        "住所": "福島県会津若松市門田町大字中野字村前1-1",
        "指定緊急避難場所との住所同一": "1",
        "その他市町村長が必要と認める事項": null,
        "受入対象者": null,
        "備考": ""
      }
    },
    {
      "type": "Feature",
      "geometry": {
        "type": "Point",
        "coordinates": [
          139.922114,
          37.467567
        ]
      },
      "properties": {
        "NO": 13251,
        "共通ID": "E0720200162111",
        "都道府県名及び市町村名": "福島県会津若松市",
        "施設・場所名": "南公民館",
        "住所": "福島県会津若松市門田町大字中野字大道西13",
        "指定緊急避難場所との住所同一": "1",
        "その他市町村長が必要と認める事項": "",
        "受入対象者": "",
        "備考": ""
      }
    },
    {
      "type": "Feature",
      "geometry": {
        "type": "Point",
        "coordinates": [
          139.918805,
          37.477248
        ]
      },
      "properties": {
        "NO": 13252,
        "共通ID": "E0720200164111",
        "都道府県名及び市町村名": "福島県会津若松市",
        "施設・場所名": "小金井小学校",
        "住所": "福島県会津若松市門田町大字日吉字小金井48",
        "指定緊急避難場所との住所同一": "1",
        "その他市町村長が必要と認める事項": null,
        "受入対象者": null,
        "備考": ""
      }
    },
    {
      "type": "Feature",
      "geometry": {
        "type": "Point",
        "coordinates": [
          139.915652,
          37.478733
        ]
      },
      "properties": {
        "NO": 13253,
        "共通ID": "E0720200165122",
        "都道府県名及び市町村名": "福島県会津若松市",
        "施設・場所名": "Ｌｉｆｅ希星",
        "住所": "福島県会津若松市門田町大字日吉字笊籬田19",
        "指定緊急避難場所との住所同一": "",
        "その他市町村長が必要と認める事項": "",
        "受入対象者": "障がい者",
        "備考": ""
      }
    },
    {
      "type": "Feature",
      "geometry": {
        "type": "Point",
        "coordinates": [
          139.915652,
          37.478733
        ]
      },
      "properties": {
        "NO": 13254,
        "共通ID": "E0720200165121",
        "都道府県名及び市町村名": "福島県会津若松市",
        "施設・場所名": "Ｗｅｌｆａｒｅ　希星",
        "住所": "福島県会津若松市門田町大字日吉字笊籬田19",
        "指定緊急避難場所との住所同一": "",
        "その他市町村長が必要と認める事項": "",
        "受入対象者": "障がい者",
        "備考": ""
      }
    }
  ]
}