{
  "type": "FeatureCollection",
  "name": "074641",
  "features": [
    {
      "type": "Feature",
      "geometry": {
        "type": "Point",
        "coordinates": [
          140.321521,
          37.136683
        ]
      },
      "properties": {
        "NO": 15002,
        "共通ID": "E0746400001111",
        "都道府県名及び市町村名": "福島県泉崎村",
        "施設・場所名": "関和久宿集会所",
        "住所": "福島県泉崎村大字関和久字下町203",
        "指定緊急避難場所との住所同一": "",
        "その他市町村長が必要と認める事項": "",
        "受入対象者": "",
        "備考": ""
      }
    },
    {
      "type": "Feature",
      "geometry": {
        "type": "Point",
        "coordinates": [
          140.319649,
          37.141531
        ]
      },
      "properties": {
        "NO": 15003,
        "共通ID": "E0746400002111",
        "都道府県名及び市町村名": "福島県泉崎村",
        "施設・場所名": "八雲地区コミュニティセンター",
        "住所": "福島県泉崎村大字関和久字八雲神社41-1",
        "指定緊急避難場所との住所同一": "",
        "その他市町村長が必要と認める事項": "",
        "受入対象者": "",
        "備考": ""
      }
    },
    {
      "type": "Feature",
      "geometry": {
        "type": "Point",
        "coordinates": [
          140.319155,
          37.144699
        ]
      },
      "properties": {
        "NO": 15004,
        "共通ID": "E0746400003111",
        "都道府県名及び市町村名": "福島県泉崎村",
        "施設・場所名": "泉崎村児童館",
        "住所": "福島県泉崎村大字関和久字八雲神社92",
        "指定緊急避難場所との住所同一": "",
        "その他市町村長が必要と認める事項": "",
        "受入対象者": "",
        "備考": ""
      }
    },
    {
      "type": "Feature",
      "geometry": {
        "type": "Point",
        "coordinates": [
          140.29871,
          37.158381
        ]
      },
      "properties": {
        "NO": 15005,
        "共通ID": "E0746400004111",
        "都道府県名及び市町村名": "福島県泉崎村",
        "施設・場所名": "泉崎村資料館",
        "住所": "福島県泉崎村大字泉崎字舘24-9",
        "指定緊急避難場所との住所同一": "",
        "その他市町村長が必要と認める事項": "",
        "受入対象者": "",
        "備考": ""
      }
    },
    {
      "type": "Feature",
      "geometry": {
        "type": "Point",
        "coordinates": [
          140.292145,
          37.163143
        ]
      },
      "properties": {
        "NO": 15006,
        "共通ID": "E0746400005111",
        "都道府県名及び市町村名": "福島県泉崎村",
        "施設・場所名": "泉崎村立泉崎第一小学校",
        "住所": "福島県泉崎村大字泉崎字高屋原71",
        "指定緊急避難場所との住所同一": "1",
        "その他市町村長が必要と認める事項": "",
        "受入対象者": "",
        "備考": ""
      }
    },
    {
      "type": "Feature",
      "geometry": {
        "type": "Point",
        "coordinates": [
          140.313265,
          37.158555
        ]
      },
      "properties": {
        "NO": 15007,
        "共通ID": "E0746400006122",
        "都道府県名及び市町村名": "福島県泉崎村",
        "施設・場所名": "地域密着型特別養護老人ホームさつきの郷",
        "住所": "福島県泉崎村大字泉崎字笹立山7-1",
        "指定緊急避難場所との住所同一": "",
        "その他市町村長が必要と認める事項": "",
        "受入対象者": "要配慮者",
        "備考": ""
      }
    },
    {
      "type": "Feature",
      "geometry": {
        "type": "Point",
        "coordinates": [
          140.291578,
          37.158168
        ]
      },
      "properties": {
        "NO": 15008,
        "共通ID": "E0746400007121",
        "都道府県名及び市町村名": "福島県泉崎村",
        "施設・場所名": "泉崎村保健福祉総合センター",
        "住所": "福島県泉崎村大字泉崎字山ケ入101",
        "指定緊急避難場所との住所同一": "1",
        "その他市町村長が必要と認める事項": "",
        "受入対象者": "要配慮者",
        "備考": ""
      }
    },
    {
      "type": "Feature",
      "geometry": {
        "type": "Point",
        "coordinates": [
          140.315704,
          37.153125
        ]
      },
      "properties": {
        "NO": 15009,
        "共通ID": "E0746400008111",
        "都道府県名及び市町村名": "福島県泉崎村",
        "施設・場所名": "泉崎村立泉崎中学校",
        "住所": "福島県泉崎村大字泉崎字上陣場14",
        "指定緊急避難場所との住所同一": "1",
        "その他市町村長が必要と認める事項": "",
        "受入対象者": "",
        "備考": ""
      }
    },
    {
      "type": "Feature",
      "geometry": {
        "type": "Point",
        "coordinates": [
          140.2953,
          37.156995
        ]
      },
      "properties": {
        "NO": 15010,
        "共通ID": "E0746400017111",
        "都道府県名及び市町村名": "福島県泉崎村",
        "施設・場所名": "泉崎村防災センター",
        "住所": "福島県泉崎村大字泉崎字新宿2",
        "指定緊急避難場所との住所同一": "1",
        "その他市町村長が必要と認める事項": "",
        "受入対象者": "",
        "備考": ""
      }
    },
    {
      "type": "Feature",
      "geometry": {
        "type": "Point",
        "coordinates": [
          140.288642,
          37.163396
        ]
      },
      "properties": {
        "NO": 15011,
        "共通ID": "E0746400010111",
        "都道府県名及び市町村名": "福島県泉崎村",
        "施設・場所名": "泉崎村保育所",
        "住所": "福島県泉崎村大字泉崎字梅木平70",
        "指定緊急避難場所との住所同一": "",
        "その他市町村長が必要と認める事項": "",
        "受入対象者": "",
        "備考": ""
      }
    },
    {
      "type": "Feature",
      "geometry": {
        "type": "Point",
        "coordinates": [
          140.31795,
          37.154676
        ]
      },
      "properties": {
        "NO": 15012,
        "共通ID": "E0746400011111",
        "都道府県名及び市町村名": "福島県泉崎村",
        "施設・場所名": "泉崎村農業者トレーニングセンター",
        "住所": "福島県泉崎村大字泉崎字白石山3-1",
        "指定緊急避難場所との住所同一": "",
        "その他市町村長が必要と認める事項": "",
        "受入対象者": "",
        "備考": ""
      }
    },
    {
      "type": "Feature",
      "geometry": {
        "type": "Point",
        "coordinates": [
          140.302861,
          37.154506
        ]
      },
      "properties": {
        "NO": 15013,
        "共通ID": "E0746400012111",
        "都道府県名及び市町村名": "福島県泉崎村",
        "施設・場所名": "泉崎村立泉崎幼稚園",
        "住所": "福島県泉崎村大字泉崎字八丸100",
        "指定緊急避難場所との住所同一": "1",
        "その他市町村長が必要と認める事項": "",
        "受入対象者": "",
        "備考": ""
      }
    },
    {
      "type": "Feature",
      "geometry": {
        "type": "Point",
        "coordinates": [
          140.303067,
          37.153804
        ]
      },
      "properties": {
        "NO": 15014,
        "共通ID": "E0746400013111",
        "都道府県名及び市町村名": "福島県泉崎村",
        "施設・場所名": "泉崎村役場",
        "住所": "福島県泉崎村大字泉崎字八丸145",
        "指定緊急避難場所との住所同一": "1",
        "その他市町村長が必要と認める事項": "",
        "受入対象者": "",
        "備考": ""
      }
    },
    {
      "type": "Feature",
      "geometry": {
        "type": "Point",
        "coordinates": [
          140.302737,
          37.14856
        ]
      },
      "properties": {
        "NO": 15015,
        "共通ID": "E0746400014111",
        "都道府県名及び市町村名": "福島県泉崎村",
        "施設・場所名": "泉崎村農村環境改善センター",
        "住所": "福島県泉崎村大字北平山字高柳88-1",
        "指定緊急避難場所との住所同一": "1",
        "その他市町村長が必要と認める事項": "",
        "受入対象者": "",
        "備考": ""
      }
    },
    {
      "type": "Feature",
      "geometry": {
        "type": "Point",
        "coordinates": [
          140.315412,
          37.142028
        ]
      },
      "properties": {
        "NO": 15016,
        "共通ID": "E0746400015111",
        "都道府県名及び市町村名": "福島県泉崎村",
        "施設・場所名": "泉崎村立泉崎第二小学校",
        "住所": "福島県泉崎村大字北平山字新田東山48-2",
        "指定緊急避難場所との住所同一": "1",
        "その他市町村長が必要と認める事項": "",
        "受入対象者": "",
        "備考": ""
      }
    }
  ]
}