{
  "type": "FeatureCollection",
  "name": "074829",
  "features": [
    {
      "type": "Feature",
      "geometry": {
        "type": "Point",
        "coordinates": [
          140.446447,
          36.838013
        ]
      },
      "properties": {
        "NO": 15072,
        "共通ID": "E0748200001111",
        "都道府県名及び市町村名": "福島県矢祭町",
        "施設・場所名": "下関河内地区多目的集会施設",
        "住所": "福島県矢祭町大字下関河内字田中前64-4",
        "指定緊急避難場所との住所同一": "",
        "その他市町村長が必要と認める事項": null,
        "受入対象者": null,
        "備考": ""
      }
    },
    {
      "type": "Feature",
      "geometry": {
        "type": "Point",
        "coordinates": [
          140.421813,
          36.895793
        ]
      },
      "properties": {
        "NO": 15073,
        "共通ID": "E0748200002111",
        "都道府県名及び市町村名": "福島県矢祭町",
        "施設・場所名": "農村集落多目的共同利用施設",
        "住所": "福島県矢祭町大字下石井字若宮53-1",
        "指定緊急避難場所との住所同一": "",
        "その他市町村長が必要と認める事項": null,
        "受入対象者": null,
        "備考": ""
      }
    },
    {
      "type": "Feature",
      "geometry": {
        "type": "Point",
        "coordinates": [
          140.411798,
          36.859812
        ]
      },
      "properties": {
        "NO": 15074,
        "共通ID": "E0748200003111",
        "都道府県名及び市町村名": "福島県矢祭町",
        "施設・場所名": "高城構造改善センター",
        "住所": "福島県矢祭町大字関岡字江戸塚16",
        "指定緊急避難場所との住所同一": "",
        "その他市町村長が必要と認める事項": null,
        "受入対象者": null,
        "備考": ""
      }
    },
    {
      "type": "Feature",
      "geometry": {
        "type": "Point",
        "coordinates": [
          140.423907,
          36.884931
        ]
      },
      "properties": {
        "NO": 15075,
        "共通ID": "E0748200004111",
        "都道府県名及び市町村名": "福島県矢祭町",
        "施設・場所名": "矢祭町体育センター",
        "住所": "福島県矢祭町大字金沢字蕨平4-7",
        "指定緊急避難場所との住所同一": "",
        "その他市町村長が必要と認める事項": null,
        "受入対象者": null,
        "備考": ""
      }
    },
    {
      "type": "Feature",
      "geometry": {
        "type": "Point",
        "coordinates": [
          140.424295,
          36.865418
        ]
      },
      "properties": {
        "NO": 15076,
        "共通ID": "E0748200006111",
        "都道府県名及び市町村名": "福島県矢祭町",
        "施設・場所名": "矢祭町山村開発センター",
        "住所": "福島県矢祭町大字小田川字春田16-1",
        "指定緊急避難場所との住所同一": "1",
        "その他市町村長が必要と認める事項": null,
        "受入対象者": null,
        "備考": ""
      }
    },
    {
      "type": "Feature",
      "geometry": {
        "type": "Point",
        "coordinates": [
          140.434628,
          36.852731
        ]
      },
      "properties": {
        "NO": 15077,
        "共通ID": "E0748200007111",
        "都道府県名及び市町村名": "福島県矢祭町",
        "施設・場所名": "ニュータウン中山地区多目的集会施設",
        "住所": "福島県矢祭町大字小田川字中山27-1",
        "指定緊急避難場所との住所同一": "",
        "その他市町村長が必要と認める事項": null,
        "受入対象者": null,
        "備考": ""
      }
    },
    {
      "type": "Feature",
      "geometry": {
        "type": "Point",
        "coordinates": [
          140.451946,
          36.834105
        ]
      },
      "properties": {
        "NO": 15078,
        "共通ID": "E0748200008111",
        "都道府県名及び市町村名": "福島県矢祭町",
        "施設・場所名": "上関河内健康ふれあい館",
        "住所": "福島県矢祭町大字上関河内字越蒔39",
        "指定緊急避難場所との住所同一": "",
        "その他市町村長が必要と認める事項": null,
        "受入対象者": null,
        "備考": ""
      }
    },
    {
      "type": "Feature",
      "geometry": {
        "type": "Point",
        "coordinates": [
          140.49631,
          36.839507
        ]
      },
      "properties": {
        "NO": 15079,
        "共通ID": "E0748200009111",
        "都道府県名及び市町村名": "福島県矢祭町",
        "施設・場所名": "追分多目的集会施設",
        "住所": "福島県矢祭町大字上関河内字馬渡戸41-7",
        "指定緊急避難場所との住所同一": "",
        "その他市町村長が必要と認める事項": null,
        "受入対象者": null,
        "備考": ""
      }
    },
    {
      "type": "Feature",
      "geometry": {
        "type": "Point",
        "coordinates": [
          140.467367,
          36.807505
        ]
      },
      "properties": {
        "NO": 15080,
        "共通ID": "E0748200011111",
        "都道府県名及び市町村名": "福島県矢祭町",
        "施設・場所名": "大垬地区多目的集会施設",
        "住所": "福島県矢祭町大字大垬字町57-5",
        "指定緊急避難場所との住所同一": "",
        "その他市町村長が必要と認める事項": null,
        "受入対象者": null,
        "備考": ""
      }
    },
    {
      "type": "Feature",
      "geometry": {
        "type": "Point",
        "coordinates": [
          140.415829,
          36.907097
        ]
      },
      "properties": {
        "NO": 15081,
        "共通ID": "E0748200012111",
        "都道府県名及び市町村名": "福島県矢祭町",
        "施設・場所名": "矢祭町保健福祉センター（体育館）",
        "住所": "福島県矢祭町大字中石井字御殿川原1",
        "指定緊急避難場所との住所同一": "",
        "その他市町村長が必要と認める事項": null,
        "受入対象者": null,
        "備考": ""
      }
    },
    {
      "type": "Feature",
      "geometry": {
        "type": "Point",
        "coordinates": [
          140.42508,
          36.868165
        ]
      },
      "properties": {
        "NO": 15082,
        "共通ID": "E0748200013111",
        "都道府県名及び市町村名": "福島県矢祭町",
        "施設・場所名": "矢祭小学校（体育館）",
        "住所": "福島県矢祭町大字東舘字下上野内10",
        "指定緊急避難場所との住所同一": "",
        "その他市町村長が必要と認める事項": null,
        "受入対象者": null,
        "備考": ""
      }
    },
    {
      "type": "Feature",
      "geometry": {
        "type": "Point",
        "coordinates": [
          140.427111,
          36.873965
        ]
      },
      "properties": {
        "NO": 15083,
        "共通ID": "E0748200014121",
        "都道府県名及び市町村名": "福島県矢祭町",
        "施設・場所名": "矢祭町老人福祉センターデイサービスセンター舘山荘",
        "住所": "福島県矢祭町大字東舘字舘3-1",
        "指定緊急避難場所との住所同一": "",
        "その他市町村長が必要と認める事項": null,
        "受入対象者": "要配慮者",
        "備考": ""
      }
    },
    {
      "type": "Feature",
      "geometry": {
        "type": "Point",
        "coordinates": [
          140.419961,
          36.8711
        ]
      },
      "properties": {
        "NO": 15084,
        "共通ID": "E0748200015111",
        "都道府県名及び市町村名": "福島県矢祭町",
        "施設・場所名": "ユーパル矢祭",
        "住所": "福島県矢祭町大字東舘字蔵屋敷108-1",
        "指定緊急避難場所との住所同一": "",
        "その他市町村長が必要と認める事項": null,
        "受入対象者": null,
        "備考": ""
      }
    },
    {
      "type": "Feature",
      "geometry": {
        "type": "Point",
        "coordinates": [
          140.424819,
          36.878469
        ]
      },
      "properties": {
        "NO": 15085,
        "共通ID": "E0748200016111",
        "都道府県名及び市町村名": "福島県矢祭町",
        "施設・場所名": "矢祭中学校（体育館）",
        "住所": "福島県矢祭町大字東舘字大寄40",
        "指定緊急避難場所との住所同一": "",
        "その他市町村長が必要と認める事項": null,
        "受入対象者": null,
        "備考": ""
      }
    },
    {
      "type": "Feature",
      "geometry": {
        "type": "Point",
        "coordinates": [
          140.382289,
          36.862718
        ]
      },
      "properties": {
        "NO": 15086,
        "共通ID": "E0748200017111",
        "都道府県名及び市町村名": "福島県矢祭町",
        "施設・場所名": "旧内川小学校（体育館）",
        "住所": "福島県矢祭町大字内川字トキノス25",
        "指定緊急避難場所との住所同一": "",
        "その他市町村長が必要と認める事項": null,
        "受入対象者": null,
        "備考": ""
      }
    },
    {
      "type": "Feature",
      "geometry": {
        "type": "Point",
        "coordinates": [
          140.447692,
          36.871539
        ]
      },
      "properties": {
        "NO": 15087,
        "共通ID": "E0748200018111",
        "都道府県名及び市町村名": "福島県矢祭町",
        "施設・場所名": "宝坂構造改善センター",
        "住所": "福島県矢祭町大字宝坂字中平8-1",
        "指定緊急避難場所との住所同一": "",
        "その他市町村長が必要と認める事項": null,
        "受入対象者": null,
        "備考": ""
      }
    },
    {
      "type": "Feature",
      "geometry": {
        "type": "Point",
        "coordinates": [
          140.47475,
          36.861344
        ]
      },
      "properties": {
        "NO": 15088,
        "共通ID": "E0748200019111",
        "都道府県名及び市町村名": "福島県矢祭町",
        "施設・場所名": "矢祭町多目的集会施設（高野谷地）",
        "住所": "福島県矢祭町大字宝坂字鶴ケ池14",
        "指定緊急避難場所との住所同一": "",
        "その他市町村長が必要と認める事項": null,
        "受入対象者": null,
        "備考": ""
      }
    },
    {
      "type": "Feature",
      "geometry": {
        "type": "Point",
        "coordinates": [
          140.365775,
          36.889818
        ]
      },
      "properties": {
        "NO": 15089,
        "共通ID": "E0748200020111",
        "都道府県名及び市町村名": "福島県矢祭町",
        "施設・場所名": "茗荷地区多目的集会施設",
        "住所": "福島県矢祭町大字茗荷字茗荷3",
        "指定緊急避難場所との住所同一": "",
        "その他市町村長が必要と認める事項": null,
        "受入対象者": null,
        "備考": ""
      }
    }
  ]
}