{
  "type": "FeatureCollection",
  "name": "082074",
  "features": [
    {
      "type": "Feature",
      "geometry": {
        "type": "Point",
        "coordinates": [
          139.863373,
          36.28761
        ]
      },
      "properties": {
        "NO": 15722,
        "共通ID": "E0820700001111",
        "都道府県名及び市町村名": "茨城県結城市",
        "施設・場所名": "城南小学校",
        "住所": "茨城県結城市城南町1-11",
        "指定緊急避難場所との住所同一": "1",
        "その他市町村長が必要と認める事項": "",
        "受入対象者": "",
        "備考": ""
      }
    },
    {
      "type": "Feature",
      "geometry": {
        "type": "Point",
        "coordinates": [
          139.861234,
          36.301497
        ]
      },
      "properties": {
        "NO": 15723,
        "共通ID": "E0820700003111",
        "都道府県名及び市町村名": "茨城県結城市",
        "施設・場所名": "結城西小学校",
        "住所": "茨城県結城市大字結城10290-1",
        "指定緊急避難場所との住所同一": "1",
        "その他市町村長が必要と認める事項": null,
        "受入対象者": null,
        "備考": ""
      }
    },
    {
      "type": "Feature",
      "geometry": {
        "type": "Point",
        "coordinates": [
          139.882149,
          36.304219
        ]
      },
      "properties": {
        "NO": 15724,
        "共通ID": "E0820700004111",
        "都道府県名及び市町村名": "茨城県結城市",
        "施設・場所名": "結城第一高等学校",
        "住所": "茨城県結城市大字結城1076",
        "指定緊急避難場所との住所同一": "1",
        "その他市町村長が必要と認める事項": null,
        "受入対象者": null,
        "備考": ""
      }
    },
    {
      "type": "Feature",
      "geometry": {
        "type": "Point",
        "coordinates": [
          139.850075,
          36.305684
        ]
      },
      "properties": {
        "NO": 15725,
        "共通ID": "E0820700005121",
        "都道府県名及び市町村名": "茨城県結城市",
        "施設・場所名": "特別養護老人ホームヒューマンハウス",
        "住所": "茨城県結城市大字結城10767-19",
        "指定緊急避難場所との住所同一": "",
        "その他市町村長が必要と認める事項": null,
        "受入対象者": "要配慮者（高齢者）",
        "備考": ""
      }
    },
    {
      "type": "Feature",
      "geometry": {
        "type": "Point",
        "coordinates": [
          139.849415,
          36.306014
        ]
      },
      "properties": {
        "NO": 15726,
        "共通ID": "E0820700006121",
        "都道府県名及び市町村名": "茨城県結城市",
        "施設・場所名": "介護老人保健施設すばる",
        "住所": "茨城県結城市大字結城10780",
        "指定緊急避難場所との住所同一": "",
        "その他市町村長が必要と認める事項": "",
        "受入対象者": "要配慮者（高齢者）",
        "備考": ""
      }
    },
    {
      "type": "Feature",
      "geometry": {
        "type": "Point",
        "coordinates": [
          139.85678,
          36.309065
        ]
      },
      "properties": {
        "NO": 15727,
        "共通ID": "E0820700007121",
        "都道府県名及び市町村名": "茨城県結城市",
        "施設・場所名": "通所リハビリテーションセンター天然温泉茶釜の湯",
        "住所": "茨城県結城市大字結城11299-1",
        "指定緊急避難場所との住所同一": "",
        "その他市町村長が必要と認める事項": "",
        "受入対象者": "要配慮者（高齢者）",
        "備考": ""
      }
    },
    {
      "type": "Feature",
      "geometry": {
        "type": "Point",
        "coordinates": [
          139.879693,
          36.303828
        ]
      },
      "properties": {
        "NO": 15728,
        "共通ID": "E0820700009121",
        "都道府県名及び市町村名": "茨城県結城市",
        "施設・場所名": "結城市健康増進センター",
        "住所": "茨城県結城市大字結城1194",
        "指定緊急避難場所との住所同一": "",
        "その他市町村長が必要と認める事項": null,
        "受入対象者": "要配慮者（高齢者）",
        "備考": ""
      }
    },
    {
      "type": "Feature",
      "geometry": {
        "type": "Point",
        "coordinates": [
          139.872297,
          36.313463
        ]
      },
      "properties": {
        "NO": 15729,
        "共通ID": "E0820700010111",
        "都道府県名及び市町村名": "茨城県結城市",
        "施設・場所名": "玉岡尭舜認定こども園",
        "住所": "茨城県結城市大字結城12018-1",
        "指定緊急避難場所との住所同一": "1",
        "その他市町村長が必要と認める事項": null,
        "受入対象者": null,
        "備考": ""
      }
    },
    {
      "type": "Feature",
      "geometry": {
        "type": "Point",
        "coordinates": [
          139.88026,
          36.304069
        ]
      },
      "properties": {
        "NO": 15730,
        "共通ID": "E0820700011111",
        "都道府県名及び市町村名": "茨城県結城市",
        "施設・場所名": "茨城県結城看護専門学校",
        "住所": "茨城県結城市大字結城1211-7",
        "指定緊急避難場所との住所同一": "1",
        "その他市町村長が必要と認める事項": null,
        "受入対象者": null,
        "備考": ""
      }
    },
    {
      "type": "Feature",
      "geometry": {
        "type": "Point",
        "coordinates": [
          139.877541,
          36.305023
        ]
      },
      "properties": {
        "NO": 15731,
        "共通ID": "E0820700012111",
        "都道府県名及び市町村名": "茨城県結城市",
        "施設・場所名": "結城市立公民館",
        "住所": "茨城県結城市大字結城1446-10",
        "指定緊急避難場所との住所同一": "1",
        "その他市町村長が必要と認める事項": null,
        "受入対象者": null,
        "備考": ""
      }
    },
    {
      "type": "Feature",
      "geometry": {
        "type": "Point",
        "coordinates": [
          139.879955,
          36.306414
        ]
      },
      "properties": {
        "NO": 15732,
        "共通ID": "E0820700013111",
        "都道府県名及び市町村名": "茨城県結城市",
        "施設・場所名": "結城小学校",
        "住所": "茨城県結城市大字結城1927",
        "指定緊急避難場所との住所同一": "1",
        "その他市町村長が必要と認める事項": null,
        "受入対象者": null,
        "備考": ""
      }
    },
    {
      "type": "Feature",
      "geometry": {
        "type": "Point",
        "coordinates": [
          139.88576,
          36.298609
        ]
      },
      "properties": {
        "NO": 15733,
        "共通ID": "E0820700015111",
        "都道府県名及び市町村名": "茨城県結城市",
        "施設・場所名": "結城東中学校",
        "住所": "茨城県結城市大字結城3381",
        "指定緊急避難場所との住所同一": "1",
        "その他市町村長が必要と認める事項": null,
        "受入対象者": null,
        "備考": ""
      }
    },
    {
      "type": "Feature",
      "geometry": {
        "type": "Point",
        "coordinates": [
          139.875761,
          36.295053
        ]
      },
      "properties": {
        "NO": 15734,
        "共通ID": "E0820700016111",
        "都道府県名及び市町村名": "茨城県結城市",
        "施設・場所名": "結城第二高等学校",
        "住所": "茨城県結城市大字結城7355",
        "指定緊急避難場所との住所同一": "1",
        "その他市町村長が必要と認める事項": null,
        "受入対象者": null,
        "備考": ""
      }
    },
    {
      "type": "Feature",
      "geometry": {
        "type": "Point",
        "coordinates": [
          139.852707,
          36.288387
        ]
      },
      "properties": {
        "NO": 15735,
        "共通ID": "E0820700017111",
        "都道府県名及び市町村名": "茨城県結城市",
        "施設・場所名": "城西小学校",
        "住所": "茨城県結城市大字結城9633-1",
        "指定緊急避難場所との住所同一": "1",
        "その他市町村長が必要と認める事項": null,
        "受入対象者": null,
        "備考": ""
      }
    },
    {
      "type": "Feature",
      "geometry": {
        "type": "Point",
        "coordinates": [
          139.851124,
          36.286221
        ]
      },
      "properties": {
        "NO": 15736,
        "共通ID": "E0820700018111",
        "都道府県名及び市町村名": "茨城県結城市",
        "施設・場所名": "城西保育所",
        "住所": "茨城県結城市大字結城9648",
        "指定緊急避難場所との住所同一": "1",
        "その他市町村長が必要と認める事項": null,
        "受入対象者": null,
        "備考": ""
      }
    },
    {
      "type": "Feature",
      "geometry": {
        "type": "Point",
        "coordinates": [
          139.83162,
          36.237874
        ]
      },
      "properties": {
        "NO": 15737,
        "共通ID": "E0820700019111",
        "都道府県名及び市町村名": "茨城県結城市",
        "施設・場所名": "江川地区多目的集会施設",
        "住所": "茨城県結城市大字江川新宿1973-20",
        "指定緊急避難場所との住所同一": "1",
        "その他市町村長が必要と認める事項": null,
        "受入対象者": null,
        "備考": ""
      }
    },
    {
      "type": "Feature",
      "geometry": {
        "type": "Point",
        "coordinates": [
          139.87568,
          36.233617
        ]
      },
      "properties": {
        "NO": 15738,
        "共通ID": "E0820700020111",
        "都道府県名及び市町村名": "茨城県結城市",
        "施設・場所名": "山川小学校",
        "住所": "茨城県結城市大字今宿1164-1",
        "指定緊急避難場所との住所同一": "1",
        "その他市町村長が必要と認める事項": null,
        "受入対象者": null,
        "備考": ""
      }
    },
    {
      "type": "Feature",
      "geometry": {
        "type": "Point",
        "coordinates": [
          139.875387,
          36.23252
        ]
      },
      "properties": {
        "NO": 15739,
        "共通ID": "E0820700021111",
        "都道府県名及び市町村名": "茨城県結城市",
        "施設・場所名": "山川保育所",
        "住所": "茨城県結城市大字今宿1167",
        "指定緊急避難場所との住所同一": "1",
        "その他市町村長が必要と認める事項": null,
        "受入対象者": null,
        "備考": ""
      }
    },
    {
      "type": "Feature",
      "geometry": {
        "type": "Point",
        "coordinates": [
          139.877767,
          36.282452
        ]
      },
      "properties": {
        "NO": 15740,
        "共通ID": "E0820700022111",
        "都道府県名及び市町村名": "茨城県結城市",
        "施設・場所名": "鹿窪運動公園",
        "住所": "茨城県結城市大字鹿窪1",
        "指定緊急避難場所との住所同一": "1",
        "その他市町村長が必要と認める事項": null,
        "受入対象者": null,
        "備考": ""
      }
    },
    {
      "type": "Feature",
      "geometry": {
        "type": "Point",
        "coordinates": [
          139.879543,
          36.270645
        ]
      },
      "properties": {
        "NO": 15741,
        "共通ID": "E0820700023111",
        "都道府県名及び市町村名": "茨城県結城市",
        "施設・場所名": "結城特別支援学校",
        "住所": "茨城県結城市大字鹿窪1357-10",
        "指定緊急避難場所との住所同一": "1",
        "その他市町村長が必要と認める事項": null,
        "受入対象者": null,
        "備考": ""
      }
    },
    {
      "type": "Feature",
      "geometry": {
        "type": "Point",
        "coordinates": [
          139.879487,
          36.27066
        ]
      },
      "properties": {
        "NO": 15742,
        "共通ID": "E0820700023121",
        "都道府県名及び市町村名": "茨城県結城市",
        "施設・場所名": "結城特別支援学校",
        "住所": "茨城県結城市大字鹿窪1357-10",
        "指定緊急避難場所との住所同一": "1",
        "その他市町村長が必要と認める事項": null,
        "受入対象者": "要配慮者（知的障害者）",
        "備考": ""
      }
    },
    {
      "type": "Feature",
      "geometry": {
        "type": "Point",
        "coordinates": [
          139.886116,
          36.276253
        ]
      },
      "properties": {
        "NO": 15743,
        "共通ID": "E0820700024111",
        "都道府県名及び市町村名": "茨城県結城市",
        "施設・場所名": "生きがいふれあいセンター",
        "住所": "茨城県結城市大字鹿窪514-9",
        "指定緊急避難場所との住所同一": "1",
        "その他市町村長が必要と認める事項": null,
        "受入対象者": null,
        "備考": ""
      }
    },
    {
      "type": "Feature",
      "geometry": {
        "type": "Point",
        "coordinates": [
          139.900148,
          36.290471
        ]
      },
      "properties": {
        "NO": 15744,
        "共通ID": "E0820700025111",
        "都道府県名及び市町村名": "茨城県結城市",
        "施設・場所名": "鬼怒商業高等学校",
        "住所": "茨城県結城市大字小森1513-2",
        "指定緊急避難場所との住所同一": "1",
        "その他市町村長が必要と認める事項": null,
        "受入対象者": null,
        "備考": ""
      }
    },
    {
      "type": "Feature",
      "geometry": {
        "type": "Point",
        "coordinates": [
          139.89576,
          36.281083
        ]
      },
      "properties": {
        "NO": 15745,
        "共通ID": "E0820700026111",
        "都道府県名及び市町村名": "茨城県結城市",
        "施設・場所名": "絹川小学校",
        "住所": "茨城県結城市大字小森2227",
        "指定緊急避難場所との住所同一": "1",
        "その他市町村長が必要と認める事項": null,
        "受入対象者": null,
        "備考": ""
      }
    },
    {
      "type": "Feature",
      "geometry": {
        "type": "Point",
        "coordinates": [
          139.849685,
          36.292722
        ]
      },
      "properties": {
        "NO": 15746,
        "共通ID": "E0820700027121",
        "都道府県名及び市町村名": "茨城県結城市",
        "施設・場所名": "結城市障害者福祉センター",
        "住所": "茨城県結城市大字小田林1166-1",
        "指定緊急避難場所との住所同一": "",
        "その他市町村長が必要と認める事項": null,
        "受入対象者": "要配慮者（知的障害者）",
        "備考": ""
      }
    },
    {
      "type": "Feature",
      "geometry": {
        "type": "Point",
        "coordinates": [
          139.854485,
          36.299358
        ]
      },
      "properties": {
        "NO": 15747,
        "共通ID": "E0820700028111",
        "都道府県名及び市町村名": "茨城県結城市",
        "施設・場所名": "結城中学校",
        "住所": "茨城県結城市大字小田林2600",
        "指定緊急避難場所との住所同一": "1",
        "その他市町村長が必要と認める事項": null,
        "受入対象者": null,
        "備考": ""
      }
    },
    {
      "type": "Feature",
      "geometry": {
        "type": "Point",
        "coordinates": [
          139.884178,
          36.253975
        ]
      },
      "properties": {
        "NO": 15748,
        "共通ID": "E0820700029111",
        "都道府県名及び市町村名": "茨城県結城市",
        "施設・場所名": "上山川小学校",
        "住所": "茨城県結城市大字上山川3388",
        "指定緊急避難場所との住所同一": "1",
        "その他市町村長が必要と認める事項": null,
        "受入対象者": null,
        "備考": ""
      }
    },
    {
      "type": "Feature",
      "geometry": {
        "type": "Point",
        "coordinates": [
          139.886514,
          36.263966
        ]
      },
      "properties": {
        "NO": 15749,
        "共通ID": "E0820700030111",
        "都道府県名及び市町村名": "茨城県結城市",
        "施設・場所名": "才光寺会館",
        "住所": "茨城県結城市大字上山川4135-7",
        "指定緊急避難場所との住所同一": "1",
        "その他市町村長が必要と認める事項": null,
        "受入対象者": null,
        "備考": ""
      }
    },
    {
      "type": "Feature",
      "geometry": {
        "type": "Point",
        "coordinates": [
          139.865096,
          36.255252
        ]
      },
      "properties": {
        "NO": 15750,
        "共通ID": "E0820700031111",
        "都道府県名及び市町村名": "茨城県結城市",
        "施設・場所名": "結城南中学校",
        "住所": "茨城県結城市大字大木1123",
        "指定緊急避難場所との住所同一": "1",
        "その他市町村長が必要と認める事項": null,
        "受入対象者": null,
        "備考": ""
      }
    },
    {
      "type": "Feature",
      "geometry": {
        "type": "Point",
        "coordinates": [
          139.838098,
          36.25389
        ]
      },
      "properties": {
        "NO": 15751,
        "共通ID": "E0820700032111",
        "都道府県名及び市町村名": "茨城県結城市",
        "施設・場所名": "江川北小学校",
        "住所": "茨城県結城市大字田間1421",
        "指定緊急避難場所との住所同一": "1",
        "その他市町村長が必要と認める事項": null,
        "受入対象者": null,
        "備考": ""
      }
    },
    {
      "type": "Feature",
      "geometry": {
        "type": "Point",
        "coordinates": [
          139.82574,
          36.216312
        ]
      },
      "properties": {
        "NO": 15752,
        "共通ID": "E0820700033111",
        "都道府県名及び市町村名": "茨城県結城市",
        "施設・場所名": "江川南小学校",
        "住所": "茨城県結城市大字北南茂呂81",
        "指定緊急避難場所との住所同一": "1",
        "その他市町村長が必要と認める事項": null,
        "受入対象者": null,
        "備考": ""
      }
    },
    {
      "type": "Feature",
      "geometry": {
        "type": "Point",
        "coordinates": [
          139.871873,
          36.290922
        ]
      },
      "properties": {
        "NO": 15753,
        "共通ID": "E0820700034111",
        "都道府県名及び市町村名": "茨城県結城市",
        "施設・場所名": "市民文化センターアクロス",
        "住所": "茨城県結城市中央町2-2",
        "指定緊急避難場所との住所同一": "1",
        "その他市町村長が必要と認める事項": null,
        "受入対象者": null,
        "備考": ""
      }
    }
  ]
}