{
  "type": "FeatureCollection",
  "name": "082171",
  "features": [
    {
      "type": "Feature",
      "geometry": {
        "type": "Point",
        "coordinates": [
          140.043309,
          35.925072
        ]
      },
      "properties": {
        "NO": 16037,
        "共通ID": "E0821700001111",
        "都道府県名及び市町村名": "茨城県取手市",
        "施設・場所名": "高井小学校",
        "住所": "茨城県取手市ゆめみ野3-22-1",
        "指定緊急避難場所との住所同一": "1",
        "その他市町村長が必要と認める事項": null,
        "受入対象者": null,
        "備考": ""
      }
    },
    {
      "type": "Feature",
      "geometry": {
        "type": "Point",
        "coordinates": [
          140.076535,
          35.895736
        ]
      },
      "properties": {
        "NO": 16038,
        "共通ID": "E0821700002111",
        "都道府県名及び市町村名": "茨城県取手市",
        "施設・場所名": "旧取手第一中学校",
        "住所": "茨城県取手市井野3-15-1",
        "指定緊急避難場所との住所同一": "1",
        "その他市町村長が必要と認める事項": null,
        "受入対象者": null,
        "備考": ""
      }
    },
    {
      "type": "Feature",
      "geometry": {
        "type": "Point",
        "coordinates": [
          140.063145,
          35.910894
        ]
      },
      "properties": {
        "NO": 16039,
        "共通ID": "E0821700003111",
        "都道府県名及び市町村名": "茨城県取手市",
        "施設・場所名": "寺原小学校",
        "住所": "茨城県取手市井野台5-14-1",
        "指定緊急避難場所との住所同一": "1",
        "その他市町村長が必要と認める事項": null,
        "受入対象者": null,
        "備考": ""
      }
    },
    {
      "type": "Feature",
      "geometry": {
        "type": "Point",
        "coordinates": [
          140.076136,
          35.896861
        ]
      },
      "properties": {
        "NO": 16040,
        "共通ID": "E0821700004111",
        "都道府県名及び市町村名": "茨城県取手市",
        "施設・場所名": "旧井野小学校",
        "住所": "茨城県取手市井野団地1-1",
        "指定緊急避難場所との住所同一": "1",
        "その他市町村長が必要と認める事項": null,
        "受入対象者": null,
        "備考": ""
      }
    },
    {
      "type": "Feature",
      "geometry": {
        "type": "Point",
        "coordinates": [
          140.044457,
          35.909448
        ]
      },
      "properties": {
        "NO": 16041,
        "共通ID": "E0821700046121",
        "都道府県名及び市町村名": "茨城県取手市",
        "施設・場所名": "めぐみの杜",
        "住所": "茨城県取手市稲29-1",
        "指定緊急避難場所との住所同一": "1",
        "その他市町村長が必要と認める事項": "",
        "受入対象者": "要配慮者",
        "備考": ""
      }
    },
    {
      "type": "Feature",
      "geometry": {
        "type": "Point",
        "coordinates": [
          140.046072,
          35.90977
        ]
      },
      "properties": {
        "NO": 16042,
        "共通ID": "E0821700005111",
        "都道府県名及び市町村名": "茨城県取手市",
        "施設・場所名": "取手西小学校",
        "住所": "茨城県取手市稲70",
        "指定緊急避難場所との住所同一": "1",
        "その他市町村長が必要と認める事項": null,
        "受入対象者": null,
        "備考": ""
      }
    },
    {
      "type": "Feature",
      "geometry": {
        "type": "Point",
        "coordinates": [
          140.046051,
          35.928631
        ]
      },
      "properties": {
        "NO": 16043,
        "共通ID": "E0821700006121",
        "都道府県名及び市町村名": "茨城県取手市",
        "施設・場所名": "さくら荘",
        "住所": "茨城県取手市岡1025",
        "指定緊急避難場所との住所同一": "1",
        "その他市町村長が必要と認める事項": "",
        "受入対象者": "要配慮者",
        "備考": ""
      }
    },
    {
      "type": "Feature",
      "geometry": {
        "type": "Point",
        "coordinates": [
          140.02985,
          35.925355
        ]
      },
      "properties": {
        "NO": 16044,
        "共通ID": "E0821700007111",
        "都道府県名及び市町村名": "茨城県取手市",
        "施設・場所名": "永山中学校",
        "住所": "茨城県取手市下高井2311",
        "指定緊急避難場所との住所同一": "1",
        "その他市町村長が必要と認める事項": null,
        "受入対象者": null,
        "備考": ""
      }
    },
    {
      "type": "Feature",
      "geometry": {
        "type": "Point",
        "coordinates": [
          140.028569,
          35.926851
        ]
      },
      "properties": {
        "NO": 16045,
        "共通ID": "E0821700008111",
        "都道府県名及び市町村名": "茨城県取手市",
        "施設・場所名": "永山小学校",
        "住所": "茨城県取手市下高井2340",
        "指定緊急避難場所との住所同一": "1",
        "その他市町村長が必要と認める事項": null,
        "受入対象者": null,
        "備考": ""
      }
    },
    {
      "type": "Feature",
      "geometry": {
        "type": "Point",
        "coordinates": [
          140.112666,
          35.930431
        ]
      },
      "properties": {
        "NO": 16046,
        "共通ID": "E0821700009111",
        "都道府県名及び市町村名": "茨城県取手市",
        "施設・場所名": "久賀小学校",
        "住所": "茨城県取手市萱場60",
        "指定緊急避難場所との住所同一": "1",
        "その他市町村長が必要と認める事項": null,
        "受入対象者": null,
        "備考": ""
      }
    },
    {
      "type": "Feature",
      "geometry": {
        "type": "Point",
        "coordinates": [
          140.083089,
          35.891476
        ]
      },
      "properties": {
        "NO": 16047,
        "共通ID": "E0821700010111",
        "都道府県名及び市町村名": "茨城県取手市",
        "施設・場所名": "取手東小学校",
        "住所": "茨城県取手市吉田400",
        "指定緊急避難場所との住所同一": "1",
        "その他市町村長が必要と認める事項": null,
        "受入対象者": null,
        "備考": ""
      }
    },
    {
      "type": "Feature",
      "geometry": {
        "type": "Point",
        "coordinates": [
          140.086108,
          35.89323
        ]
      },
      "properties": {
        "NO": 16048,
        "共通ID": "E0821700011111",
        "都道府県名及び市町村名": "茨城県取手市",
        "施設・場所名": "取手第一中学校",
        "住所": "茨城県取手市吉田470",
        "指定緊急避難場所との住所同一": "1",
        "その他市町村長が必要と認める事項": null,
        "受入対象者": null,
        "備考": ""
      }
    },
    {
      "type": "Feature",
      "geometry": {
        "type": "Point",
        "coordinates": [
          140.005816,
          35.919961
        ]
      },
      "properties": {
        "NO": 16049,
        "共通ID": "E0821700012121",
        "都道府県名及び市町村名": "茨城県取手市",
        "施設・場所名": "つつじ園",
        "住所": "茨城県取手市戸頭1299-1",
        "指定緊急避難場所との住所同一": "1",
        "その他市町村長が必要と認める事項": "",
        "受入対象者": "要配慮者",
        "備考": ""
      }
    },
    {
      "type": "Feature",
      "geometry": {
        "type": "Point",
        "coordinates": [
          140.015591,
          35.921979
        ]
      },
      "properties": {
        "NO": 16050,
        "共通ID": "E0821700013111",
        "都道府県名及び市町村名": "茨城県取手市",
        "施設・場所名": "戸頭小学校",
        "住所": "茨城県取手市戸頭3-21-1",
        "指定緊急避難場所との住所同一": "1",
        "その他市町村長が必要と認める事項": null,
        "受入対象者": null,
        "備考": ""
      }
    },
    {
      "type": "Feature",
      "geometry": {
        "type": "Point",
        "coordinates": [
          140.011638,
          35.920768
        ]
      },
      "properties": {
        "NO": 16051,
        "共通ID": "E0821700014111",
        "都道府県名及び市町村名": "茨城県取手市",
        "施設・場所名": "戸頭中学校",
        "住所": "茨城県取手市戸頭7-1-1",
        "指定緊急避難場所との住所同一": "1",
        "その他市町村長が必要と認める事項": null,
        "受入対象者": null,
        "備考": ""
      }
    },
    {
      "type": "Feature",
      "geometry": {
        "type": "Point",
        "coordinates": [
          140.008126,
          35.925891
        ]
      },
      "properties": {
        "NO": 16052,
        "共通ID": "E0821700015111",
        "都道府県名及び市町村名": "茨城県取手市",
        "施設・場所名": "旧戸頭西小学校",
        "住所": "茨城県取手市戸頭8-10-1",
        "指定緊急避難場所との住所同一": "1",
        "その他市町村長が必要と認める事項": null,
        "受入対象者": null,
        "備考": ""
      }
    },
    {
      "type": "Feature",
      "geometry": {
        "type": "Point",
        "coordinates": [
          140.142248,
          35.903288
        ]
      },
      "properties": {
        "NO": 16053,
        "共通ID": "E0821700048121",
        "都道府県名及び市町村名": "茨城県取手市",
        "施設・場所名": "身障者ポニーの会",
        "住所": "茨城県取手市高須2148",
        "指定緊急避難場所との住所同一": "1",
        "その他市町村長が必要と認める事項": "",
        "受入対象者": "要配慮者",
        "備考": ""
      }
    },
    {
      "type": "Feature",
      "geometry": {
        "type": "Point",
        "coordinates": [
          140.143639,
          35.904535
        ]
      },
      "properties": {
        "NO": 16054,
        "共通ID": "E0821700016111",
        "都道府県名及び市町村名": "茨城県取手市",
        "施設・場所名": "高須公民館",
        "住所": "茨城県取手市高須2157",
        "指定緊急避難場所との住所同一": "1",
        "その他市町村長が必要と認める事項": null,
        "受入対象者": null,
        "備考": ""
      }
    },
    {
      "type": "Feature",
      "geometry": {
        "type": "Point",
        "coordinates": [
          140.12698,
          35.902771
        ]
      },
      "properties": {
        "NO": 16055,
        "共通ID": "E0821700017111",
        "都道府県名及び市町村名": "茨城県取手市",
        "施設・場所名": "桜が丘小学校",
        "住所": "茨城県取手市桜が丘2-17-1",
        "指定緊急避難場所との住所同一": "1",
        "その他市町村長が必要と認める事項": null,
        "受入対象者": null,
        "備考": ""
      }
    },
    {
      "type": "Feature",
      "geometry": {
        "type": "Point",
        "coordinates": [
          140.066799,
          35.933484
        ]
      },
      "properties": {
        "NO": 16056,
        "共通ID": "E0821700018111",
        "都道府県名及び市町村名": "茨城県取手市",
        "施設・場所名": "山王小学校",
        "住所": "茨城県取手市山王380",
        "指定緊急避難場所との住所同一": "1",
        "その他市町村長が必要と認める事項": null,
        "受入対象者": null,
        "備考": ""
      }
    },
    {
      "type": "Feature",
      "geometry": {
        "type": "Point",
        "coordinates": [
          140.093365,
          35.938058
        ]
      },
      "properties": {
        "NO": 16057,
        "共通ID": "E0821700020111",
        "都道府県名及び市町村名": "茨城県取手市",
        "施設・場所名": "藤代紫水高等学校",
        "住所": "茨城県取手市紫水1-660",
        "指定緊急避難場所との住所同一": "1",
        "その他市町村長が必要と認める事項": "",
        "受入対象者": "",
        "備考": ""
      }
    },
    {
      "type": "Feature",
      "geometry": {
        "type": "Point",
        "coordinates": [
          140.040966,
          35.916582
        ]
      },
      "properties": {
        "NO": 16058,
        "共通ID": "E0821700021121",
        "都道府県名及び市町村名": "茨城県取手市",
        "施設・場所名": "あけぼの",
        "住所": "茨城県取手市寺田4723",
        "指定緊急避難場所との住所同一": "1",
        "その他市町村長が必要と認める事項": "",
        "受入対象者": "要配慮者",
        "備考": ""
      }
    },
    {
      "type": "Feature",
      "geometry": {
        "type": "Point",
        "coordinates": [
          140.051906,
          35.910991
        ]
      },
      "properties": {
        "NO": 16059,
        "共通ID": "E0821700022111",
        "都道府県名及び市町村名": "茨城県取手市",
        "施設・場所名": "取手第二中学校",
        "住所": "茨城県取手市寺田5147",
        "指定緊急避難場所との住所同一": "1",
        "その他市町村長が必要と認める事項": "",
        "受入対象者": "",
        "備考": ""
      }
    },
    {
      "type": "Feature",
      "geometry": {
        "type": "Point",
        "coordinates": [
          140.071923,
          35.880183
        ]
      },
      "properties": {
        "NO": 16060,
        "共通ID": "E0821700023111",
        "都道府県名及び市町村名": "茨城県取手市",
        "施設・場所名": "成田国際航空専門学校",
        "住所": "茨城県取手市取手西野1842",
        "指定緊急避難場所との住所同一": "1",
        "その他市町村長が必要と認める事項": "",
        "受入対象者": "",
        "備考": ""
      }
    },
    {
      "type": "Feature",
      "geometry": {
        "type": "Point",
        "coordinates": [
          140.110471,
          35.885322
        ]
      },
      "properties": {
        "NO": 16061,
        "共通ID": "E0821700024111",
        "都道府県名及び市町村名": "茨城県取手市",
        "施設・場所名": "旧小文間小学校",
        "住所": "茨城県取手市小文間4359",
        "指定緊急避難場所との住所同一": "1",
        "その他市町村長が必要と認める事項": null,
        "受入対象者": null,
        "備考": ""
      }
    },
    {
      "type": "Feature",
      "geometry": {
        "type": "Point",
        "coordinates": [
          140.12239,
          35.879403
        ]
      },
      "properties": {
        "NO": 16062,
        "共通ID": "E0821700025111",
        "都道府県名及び市町村名": "茨城県取手市",
        "施設・場所名": "取手松陽高等学校",
        "住所": "茨城県取手市小文間4770",
        "指定緊急避難場所との住所同一": "1",
        "その他市町村長が必要と認める事項": null,
        "受入対象者": null,
        "備考": ""
      }
    },
    {
      "type": "Feature",
      "geometry": {
        "type": "Point",
        "coordinates": [
          140.095365,
          35.891944
        ]
      },
      "properties": {
        "NO": 16063,
        "共通ID": "E0821700045121",
        "都道府県名及び市町村名": "茨城県取手市",
        "施設・場所名": "水彩館",
        "住所": "茨城県取手市小文間5720-1",
        "指定緊急避難場所との住所同一": "1",
        "その他市町村長が必要と認める事項": "",
        "受入対象者": "要配慮者",
        "備考": ""
      }
    },
    {
      "type": "Feature",
      "geometry": {
        "type": "Point",
        "coordinates": [
          140.074207,
          35.879856
        ]
      },
      "properties": {
        "NO": 16064,
        "共通ID": "E0821700026111",
        "都道府県名及び市町村名": "茨城県取手市",
        "施設・場所名": "小堀集会所",
        "住所": "茨城県取手市小堀3894-1",
        "指定緊急避難場所との住所同一": "1",
        "その他市町村長が必要と認める事項": null,
        "受入対象者": null,
        "備考": ""
      }
    },
    {
      "type": "Feature",
      "geometry": {
        "type": "Point",
        "coordinates": [
          140.062738,
          35.898275
        ]
      },
      "properties": {
        "NO": 16065,
        "共通ID": "E0821700027121",
        "都道府県名及び市町村名": "茨城県取手市",
        "施設・場所名": "取手ウェルネスプラザ",
        "住所": "茨城県取手市新町2-5-25",
        "指定緊急避難場所との住所同一": "1",
        "その他市町村長が必要と認める事項": "",
        "受入対象者": "要配慮者",
        "備考": ""
      }
    },
    {
      "type": "Feature",
      "geometry": {
        "type": "Point",
        "coordinates": [
          140.09353,
          35.912575
        ]
      },
      "properties": {
        "NO": 16066,
        "共通ID": "E0821700028111",
        "都道府県名及び市町村名": "茨城県取手市",
        "施設・場所名": "六郷小学校",
        "住所": "茨城県取手市清水373-1",
        "指定緊急避難場所との住所同一": "1",
        "その他市町村長が必要と認める事項": null,
        "受入対象者": null,
        "備考": ""
      }
    },
    {
      "type": "Feature",
      "geometry": {
        "type": "Point",
        "coordinates": [
          140.041235,
          35.903207
        ]
      },
      "properties": {
        "NO": 16067,
        "共通ID": "E0821700029111",
        "都道府県名及び市町村名": "茨城県取手市",
        "施設・場所名": "江戸川学園取手中・高等学校",
        "住所": "茨城県取手市西1-37-1",
        "指定緊急避難場所との住所同一": "1",
        "その他市町村長が必要と認める事項": null,
        "受入対象者": null,
        "備考": ""
      }
    },
    {
      "type": "Feature",
      "geometry": {
        "type": "Point",
        "coordinates": [
          140.065669,
          35.897533
        ]
      },
      "properties": {
        "NO": 16068,
        "共通ID": "E0821700030111",
        "都道府県名及び市町村名": "茨城県取手市",
        "施設・場所名": "取手第一高等学校",
        "住所": "茨城県取手市台宿2-4-1",
        "指定緊急避難場所との住所同一": "1",
        "その他市町村長が必要と認める事項": null,
        "受入対象者": null,
        "備考": ""
      }
    },
    {
      "type": "Feature",
      "geometry": {
        "type": "Point",
        "coordinates": [
          140.117723,
          35.906476
        ]
      },
      "properties": {
        "NO": 16069,
        "共通ID": "E0821700031111",
        "都道府県名及び市町村名": "茨城県取手市",
        "施設・場所名": "藤代南中学校",
        "住所": "茨城県取手市中田880",
        "指定緊急避難場所との住所同一": "1",
        "その他市町村長が必要と認める事項": null,
        "受入対象者": null,
        "備考": ""
      }
    },
    {
      "type": "Feature",
      "geometry": {
        "type": "Point",
        "coordinates": [
          140.090797,
          35.889822
        ]
      },
      "properties": {
        "NO": 16070,
        "共通ID": "E0821700032121",
        "都道府県名及び市町村名": "茨城県取手市",
        "施設・場所名": "かたらいの郷",
        "住所": "茨城県取手市長兵衛新田193-2",
        "指定緊急避難場所との住所同一": "1",
        "その他市町村長が必要と認める事項": "",
        "受入対象者": "要配慮者",
        "備考": ""
      }
    },
    {
      "type": "Feature",
      "geometry": {
        "type": "Point",
        "coordinates": [
          140.068646,
          35.891464
        ]
      },
      "properties": {
        "NO": 16071,
        "共通ID": "E0821700033111",
        "都道府県名及び市町村名": "茨城県取手市",
        "施設・場所名": "取手第二高等学校",
        "住所": "茨城県取手市東2-5-1",
        "指定緊急避難場所との住所同一": "1",
        "その他市町村長が必要と認める事項": null,
        "受入対象者": null,
        "備考": ""
      }
    },
    {
      "type": "Feature",
      "geometry": {
        "type": "Point",
        "coordinates": [
          140.070623,
          35.89076
        ]
      },
      "properties": {
        "NO": 16072,
        "共通ID": "E0821700034111",
        "都道府県名及び市町村名": "茨城県取手市",
        "施設・場所名": "取手小学校",
        "住所": "茨城県取手市東5-3-1",
        "指定緊急避難場所との住所同一": "1",
        "その他市町村長が必要と認める事項": null,
        "受入対象者": null,
        "備考": ""
      }
    },
    {
      "type": "Feature",
      "geometry": {
        "type": "Point",
        "coordinates": [
          140.109207,
          35.927654
        ]
      },
      "properties": {
        "NO": 16073,
        "共通ID": "E0821700035111",
        "都道府県名及び市町村名": "茨城県取手市",
        "施設・場所名": "藤代小学校",
        "住所": "茨城県取手市藤代53",
        "指定緊急避難場所との住所同一": "1",
        "その他市町村長が必要と認める事項": null,
        "受入対象者": null,
        "備考": ""
      }
    },
    {
      "type": "Feature",
      "geometry": {
        "type": "Point",
        "coordinates": [
          140.110371,
          35.921452
        ]
      },
      "properties": {
        "NO": 16074,
        "共通ID": "E0821700036121",
        "都道府県名及び市町村名": "茨城県取手市",
        "施設・場所名": "障害者福祉センターふじしろ",
        "住所": "茨城県取手市藤代730-1",
        "指定緊急避難場所との住所同一": "1",
        "その他市町村長が必要と認める事項": "",
        "受入対象者": "要配慮者",
        "備考": ""
      }
    },
    {
      "type": "Feature",
      "geometry": {
        "type": "Point",
        "coordinates": [
          140.121734,
          35.914639
        ]
      },
      "properties": {
        "NO": 16075,
        "共通ID": "E0821700037111",
        "都道府県名及び市町村名": "茨城県取手市",
        "施設・場所名": "宮和田小学校",
        "住所": "茨城県取手市藤代南3-11-1",
        "指定緊急避難場所との住所同一": "1",
        "その他市町村長が必要と認める事項": null,
        "受入対象者": null,
        "備考": ""
      }
    },
    {
      "type": "Feature",
      "geometry": {
        "type": "Point",
        "coordinates": [
          140.061163,
          35.900745
        ]
      },
      "properties": {
        "NO": 16076,
        "共通ID": "E0821700038111",
        "都道府県名及び市町村名": "茨城県取手市",
        "施設・場所名": "白山小学校",
        "住所": "茨城県取手市白山2-3-18",
        "指定緊急避難場所との住所同一": "1",
        "その他市町村長が必要と認める事項": null,
        "受入対象者": null,
        "備考": ""
      }
    },
    {
      "type": "Feature",
      "geometry": {
        "type": "Point",
        "coordinates": [
          140.055232,
          35.908716
        ]
      },
      "properties": {
        "NO": 16077,
        "共通ID": "E0821700039111",
        "都道府県名及び市町村名": "茨城県取手市",
        "施設・場所名": "旧白山西小学校（前田建設工業株式会社）",
        "住所": "茨城県取手市白山8-11-6",
        "指定緊急避難場所との住所同一": "1",
        "その他市町村長が必要と認める事項": null,
        "受入対象者": null,
        "備考": ""
      }
    },
    {
      "type": "Feature",
      "geometry": {
        "type": "Point",
        "coordinates": [
          140.085738,
          35.910687
        ]
      },
      "properties": {
        "NO": 16078,
        "共通ID": "E0821700040111",
        "都道府県名及び市町村名": "茨城県取手市",
        "施設・場所名": "藤代高等学校",
        "住所": "茨城県取手市毛有640",
        "指定緊急避難場所との住所同一": "1",
        "その他市町村長が必要と認める事項": null,
        "受入対象者": null,
        "備考": ""
      }
    },
    {
      "type": "Feature",
      "geometry": {
        "type": "Point",
        "coordinates": [
          140.02658,
          35.91907
        ]
      },
      "properties": {
        "NO": 16079,
        "共通ID": "E0821700041111",
        "都道府県名及び市町村名": "茨城県取手市",
        "施設・場所名": "取手グリーンスポーツセンター",
        "住所": "茨城県取手市野々井1299",
        "指定緊急避難場所との住所同一": "1",
        "その他市町村長が必要と認める事項": null,
        "受入対象者": null,
        "備考": ""
      }
    },
    {
      "type": "Feature",
      "geometry": {
        "type": "Point",
        "coordinates": [
          140.034582,
          35.912786
        ]
      },
      "properties": {
        "NO": 16080,
        "共通ID": "E0821700042111",
        "都道府県名及び市町村名": "茨城県取手市",
        "施設・場所名": "江戸川学園取手小学校",
        "住所": "茨城県取手市野々井1567-3",
        "指定緊急避難場所との住所同一": "1",
        "その他市町村長が必要と認める事項": null,
        "受入対象者": null,
        "備考": ""
      }
    },
    {
      "type": "Feature",
      "geometry": {
        "type": "Point",
        "coordinates": [
          140.092491,
          35.92506
        ]
      },
      "properties": {
        "NO": 16081,
        "共通ID": "E0821700043111",
        "都道府県名及び市町村名": "茨城県取手市",
        "施設・場所名": "藤代中学校",
        "住所": "茨城県取手市椚木1343",
        "指定緊急避難場所との住所同一": "1",
        "その他市町村長が必要と認める事項": null,
        "受入対象者": null,
        "備考": ""
      }
    }
  ]
}