{
  "type": "FeatureCollection",
  "name": "082244",
  "features": [
    {
      "type": "Feature",
      "geometry": {
        "type": "Point",
        "coordinates": [
          139.986639,
          35.966692
        ]
      },
      "properties": {
        "NO": 16359,
        "共通ID": "E0822400001111",
        "都道府県名及び市町村名": "茨城県守谷市",
        "施設・場所名": "開智望小学校・開智望中等教育学校",
        "住所": "茨城県つくばみらい市筒戸3400",
        "指定緊急避難場所との住所同一": "1",
        "その他市町村長が必要と認める事項": "",
        "受入対象者": "",
        "備考": ""
      }
    },
    {
      "type": "Feature",
      "geometry": {
        "type": "Point",
        "coordinates": [
          139.992404,
          35.939458
        ]
      },
      "properties": {
        "NO": 16360,
        "共通ID": "E0822400002111",
        "都道府県名及び市町村名": "茨城県守谷市",
        "施設・場所名": "けやき台中学校",
        "住所": "茨城県守谷市けやき台5-21-1",
        "指定緊急避難場所との住所同一": "1",
        "その他市町村長が必要と認める事項": null,
        "受入対象者": null,
        "備考": ""
      }
    },
    {
      "type": "Feature",
      "geometry": {
        "type": "Point",
        "coordinates": [
          140.011263,
          35.936654
        ]
      },
      "properties": {
        "NO": 16361,
        "共通ID": "E0822400003111",
        "都道府県名及び市町村名": "茨城県守谷市",
        "施設・場所名": "郷州小学校",
        "住所": "茨城県守谷市みずき野5-4-1",
        "指定緊急避難場所との住所同一": "1",
        "その他市町村長が必要と認める事項": null,
        "受入対象者": null,
        "備考": ""
      }
    },
    {
      "type": "Feature",
      "geometry": {
        "type": "Point",
        "coordinates": [
          139.974404,
          35.963038
        ]
      },
      "properties": {
        "NO": 16362,
        "共通ID": "E0822400004111",
        "都道府県名及び市町村名": "茨城県守谷市",
        "施設・場所名": "御所ケ丘中学校",
        "住所": "茨城県守谷市御所ケ丘4-16",
        "指定緊急避難場所との住所同一": "1",
        "その他市町村長が必要と認める事項": null,
        "受入対象者": null,
        "備考": ""
      }
    },
    {
      "type": "Feature",
      "geometry": {
        "type": "Point",
        "coordinates": [
          139.973515,
          35.964316
        ]
      },
      "properties": {
        "NO": 16363,
        "共通ID": "E0822400005111",
        "都道府県名及び市町村名": "茨城県守谷市",
        "施設・場所名": "御所ケ丘小学校",
        "住所": "茨城県守谷市御所ケ丘5-15",
        "指定緊急避難場所との住所同一": "1",
        "その他市町村長が必要と認める事項": null,
        "受入対象者": null,
        "備考": ""
      }
    },
    {
      "type": "Feature",
      "geometry": {
        "type": "Point",
        "coordinates": [
          139.987162,
          35.928876
        ]
      },
      "properties": {
        "NO": 16364,
        "共通ID": "E0822400006111",
        "都道府県名及び市町村名": "茨城県守谷市",
        "施設・場所名": "高野小学校",
        "住所": "茨城県守谷市高野1342",
        "指定緊急避難場所との住所同一": "1",
        "その他市町村長が必要と認める事項": null,
        "受入対象者": null,
        "備考": ""
      }
    },
    {
      "type": "Feature",
      "geometry": {
        "type": "Point",
        "coordinates": [
          139.982571,
          35.942513
        ]
      },
      "properties": {
        "NO": 16365,
        "共通ID": "E0822400007111",
        "都道府県名及び市町村名": "茨城県守谷市",
        "施設・場所名": "松ケ丘小学校",
        "住所": "茨城県守谷市松ケ丘4-12",
        "指定緊急避難場所との住所同一": "1",
        "その他市町村長が必要と認める事項": null,
        "受入対象者": null,
        "備考": ""
      }
    },
    {
      "type": "Feature",
      "geometry": {
        "type": "Point",
        "coordinates": [
          139.966793,
          35.970093
        ]
      },
      "properties": {
        "NO": 16366,
        "共通ID": "E0822400008111",
        "都道府県名及び市町村名": "茨城県守谷市",
        "施設・場所名": "松前台小学校",
        "住所": "茨城県守谷市松前台2-16",
        "指定緊急避難場所との住所同一": "1",
        "その他市町村長が必要と認める事項": null,
        "受入対象者": null,
        "備考": ""
      }
    },
    {
      "type": "Feature",
      "geometry": {
        "type": "Point",
        "coordinates": [
          139.996374,
          35.95529
        ]
      },
      "properties": {
        "NO": 16367,
        "共通ID": "E0822400009111",
        "都道府県名及び市町村名": "茨城県守谷市",
        "施設・場所名": "北園保育所",
        "住所": "茨城県守谷市松並1577-1",
        "指定緊急避難場所との住所同一": "1",
        "その他市町村長が必要と認める事項": null,
        "受入対象者": null,
        "備考": ""
      }
    },
    {
      "type": "Feature",
      "geometry": {
        "type": "Point",
        "coordinates": [
          139.956628,
          35.963649
        ]
      },
      "properties": {
        "NO": 16368,
        "共通ID": "E0822400010111",
        "都道府県名及び市町村名": "茨城県守谷市",
        "施設・場所名": "茨城県立守谷高等学校",
        "住所": "茨城県守谷市大木70",
        "指定緊急避難場所との住所同一": "1",
        "その他市町村長が必要と認める事項": null,
        "受入対象者": null,
        "備考": ""
      }
    },
    {
      "type": "Feature",
      "geometry": {
        "type": "Point",
        "coordinates": [
          139.946705,
          35.973725
        ]
      },
      "properties": {
        "NO": 16369,
        "共通ID": "E0822400011111",
        "都道府県名及び市町村名": "茨城県守谷市",
        "施設・場所名": "西板戸井田園都市センター",
        "住所": "茨城県守谷市板戸井1599-1",
        "指定緊急避難場所との住所同一": "1",
        "その他市町村長が必要と認める事項": null,
        "受入対象者": null,
        "備考": ""
      }
    },
    {
      "type": "Feature",
      "geometry": {
        "type": "Point",
        "coordinates": [
          139.955584,
          35.973568
        ]
      },
      "properties": {
        "NO": 16370,
        "共通ID": "E0822400012111",
        "都道府県名及び市町村名": "茨城県守谷市",
        "施設・場所名": "北守谷公民館",
        "住所": "茨城県守谷市板戸井1977-2",
        "指定緊急避難場所との住所同一": "1",
        "その他市町村長が必要と認める事項": null,
        "受入対象者": null,
        "備考": ""
      }
    },
    {
      "type": "Feature",
      "geometry": {
        "type": "Point",
        "coordinates": [
          139.986336,
          35.953511
        ]
      },
      "properties": {
        "NO": 16371,
        "共通ID": "E0822400013111",
        "都道府県名及び市町村名": "茨城県守谷市",
        "施設・場所名": "黒内小学校",
        "住所": "茨城県守谷市百合ケ丘2-2349",
        "指定緊急避難場所との住所同一": "1",
        "その他市町村長が必要と認める事項": null,
        "受入対象者": null,
        "備考": ""
      }
    },
    {
      "type": "Feature",
      "geometry": {
        "type": "Point",
        "coordinates": [
          139.985412,
          35.949034
        ]
      },
      "properties": {
        "NO": 16372,
        "共通ID": "E0822400014111",
        "都道府県名及び市町村名": "茨城県守谷市",
        "施設・場所名": "守谷中学校",
        "住所": "茨城県守谷市百合ケ丘2-2675",
        "指定緊急避難場所との住所同一": "1",
        "その他市町村長が必要と認める事項": null,
        "受入対象者": null,
        "備考": ""
      }
    },
    {
      "type": "Feature",
      "geometry": {
        "type": "Point",
        "coordinates": [
          140.001967,
          35.939338
        ]
      },
      "properties": {
        "NO": 16373,
        "共通ID": "E0822400015111",
        "都道府県名及び市町村名": "茨城県守谷市",
        "施設・場所名": "愛宕中学校",
        "住所": "茨城県守谷市本町4325-2",
        "指定緊急避難場所との住所同一": "1",
        "その他市町村長が必要と認める事項": null,
        "受入対象者": null,
        "備考": ""
      }
    },
    {
      "type": "Feature",
      "geometry": {
        "type": "Point",
        "coordinates": [
          140.001101,
          35.946984
        ]
      },
      "properties": {
        "NO": 16374,
        "共通ID": "E0822400016111",
        "都道府県名及び市町村名": "茨城県守谷市",
        "施設・場所名": "守谷小学校",
        "住所": "茨城県守谷市本町858",
        "指定緊急避難場所との住所同一": "1",
        "その他市町村長が必要と認める事項": null,
        "受入対象者": null,
        "備考": ""
      }
    },
    {
      "type": "Feature",
      "geometry": {
        "type": "Point",
        "coordinates": [
          139.965239,
          35.946068
        ]
      },
      "properties": {
        "NO": 16375,
        "共通ID": "E0822400017111",
        "都道府県名及び市町村名": "茨城県守谷市",
        "施設・場所名": "大野小学校",
        "住所": "茨城県守谷市野木崎492",
        "指定緊急避難場所との住所同一": "1",
        "その他市町村長が必要と認める事項": null,
        "受入対象者": null,
        "備考": ""
      }
    },
    {
      "type": "Feature",
      "geometry": {
        "type": "Point",
        "coordinates": [
          139.964933,
          35.961733
        ]
      },
      "properties": {
        "NO": 16376,
        "共通ID": "E0822400018111",
        "都道府県名及び市町村名": "茨城県守谷市",
        "施設・場所名": "大井沢小学校",
        "住所": "茨城県守谷市薬師台4-12",
        "指定緊急避難場所との住所同一": "1",
        "その他市町村長が必要と認める事項": null,
        "受入対象者": null,
        "備考": ""
      }
    }
  ]
}