{
  "type": "FeatureCollection",
  "name": "082210",
  "features": [
    {
      "type": "Feature",
      "geometry": {
        "type": "Point",
        "coordinates": [
          140.607082,
          36.387425
        ]
      },
      "properties": {
        "NO": 16222,
        "共通ID": "E0822100001111",
        "都道府県名及び市町村名": "茨城県ひたちなか市",
        "施設・場所名": "阿字ヶ浦ふれあい交流館",
        "住所": "茨城県ひたちなか市阿字ケ浦町610",
        "指定緊急避難場所との住所同一": "1",
        "その他市町村長が必要と認める事項": null,
        "受入対象者": null,
        "備考": ""
      }
    },
    {
      "type": "Feature",
      "geometry": {
        "type": "Point",
        "coordinates": [
          140.624212,
          36.380429
        ]
      },
      "properties": {
        "NO": 16223,
        "共通ID": "E0822100002111",
        "都道府県名及び市町村名": "茨城県ひたちなか市",
        "施設・場所名": "旧磯崎小学校",
        "住所": "茨城県ひたちなか市磯崎町4598",
        "指定緊急避難場所との住所同一": "1",
        "その他市町村長が必要と認める事項": null,
        "受入対象者": null,
        "備考": ""
      }
    },
    {
      "type": "Feature",
      "geometry": {
        "type": "Point",
        "coordinates": [
          140.619749,
          36.371395
        ]
      },
      "properties": {
        "NO": 16224,
        "共通ID": "E0822100003111",
        "都道府県名及び市町村名": "茨城県ひたちなか市",
        "施設・場所名": "美乃浜学園",
        "住所": "茨城県ひたちなか市磯崎町5135",
        "指定緊急避難場所との住所同一": "1",
        "その他市町村長が必要と認める事項": null,
        "受入対象者": null,
        "備考": ""
      }
    },
    {
      "type": "Feature",
      "geometry": {
        "type": "Point",
        "coordinates": [
          140.536286,
          36.441021
        ]
      },
      "properties": {
        "NO": 16225,
        "共通ID": "E0822100004111",
        "都道府県名及び市町村名": "茨城県ひたちなか市",
        "施設・場所名": "佐和高等学校",
        "住所": "茨城県ひたちなか市稲田636-1",
        "指定緊急避難場所との住所同一": "1",
        "その他市町村長が必要と認める事項": null,
        "受入対象者": null,
        "備考": ""
      }
    },
    {
      "type": "Feature",
      "geometry": {
        "type": "Point",
        "coordinates": [
          140.532598,
          36.435318
        ]
      },
      "properties": {
        "NO": 16226,
        "共通ID": "E0822100005111",
        "都道府県名及び市町村名": "茨城県ひたちなか市",
        "施設・場所名": "佐野小学校",
        "住所": "茨城県ひたちなか市稲田76",
        "指定緊急避難場所との住所同一": "1",
        "その他市町村長が必要と認める事項": null,
        "受入対象者": null,
        "備考": ""
      }
    },
    {
      "type": "Feature",
      "geometry": {
        "type": "Point",
        "coordinates": [
          140.596069,
          36.350044
        ]
      },
      "properties": {
        "NO": 16227,
        "共通ID": "E0822100006111",
        "都道府県名及び市町村名": "茨城県ひたちなか市",
        "施設・場所名": "那珂湊中学校",
        "住所": "茨城県ひたちなか市廻り目2896",
        "指定緊急避難場所との住所同一": "1",
        "その他市町村長が必要と認める事項": null,
        "受入対象者": null,
        "備考": ""
      }
    },
    {
      "type": "Feature",
      "geometry": {
        "type": "Point",
        "coordinates": [
          140.535369,
          36.403834
        ]
      },
      "properties": {
        "NO": 16228,
        "共通ID": "E0822100007111",
        "都道府県名及び市町村名": "茨城県ひたちなか市",
        "施設・場所名": "大島コミュニティセンター",
        "住所": "茨城県ひたちなか市外野1-1-1",
        "指定緊急避難場所との住所同一": "1",
        "その他市町村長が必要と認める事項": null,
        "受入対象者": null,
        "備考": ""
      }
    },
    {
      "type": "Feature",
      "geometry": {
        "type": "Point",
        "coordinates": [
          140.53739,
          36.406232
        ]
      },
      "properties": {
        "NO": 16229,
        "共通ID": "E0822100008111",
        "都道府県名及び市町村名": "茨城県ひたちなか市",
        "施設・場所名": "外野小学校",
        "住所": "茨城県ひたちなか市外野1-30-1",
        "指定緊急避難場所との住所同一": "1",
        "その他市町村長が必要と認める事項": null,
        "受入対象者": null,
        "備考": ""
      }
    },
    {
      "type": "Feature",
      "geometry": {
        "type": "Point",
        "coordinates": [
          140.539979,
          36.371283
        ]
      },
      "properties": {
        "NO": 16230,
        "共通ID": "E0822100009111",
        "都道府県名及び市町村名": "茨城県ひたちなか市",
        "施設・場所名": "金上ふれあいセンター",
        "住所": "茨城県ひたちなか市金上562-1",
        "指定緊急避難場所との住所同一": "1",
        "その他市町村長が必要と認める事項": null,
        "受入対象者": null,
        "備考": ""
      }
    },
    {
      "type": "Feature",
      "geometry": {
        "type": "Point",
        "coordinates": [
          140.539979,
          36.371283
        ]
      },
      "properties": {
        "NO": 16231,
        "共通ID": "E0822100009121",
        "都道府県名及び市町村名": "茨城県ひたちなか市",
        "施設・場所名": "金上ふれあいセンター",
        "住所": "茨城県ひたちなか市金上562-1",
        "指定緊急避難場所との住所同一": "1",
        "その他市町村長が必要と認める事項": null,
        "受入対象者": "要配慮者",
        "備考": ""
      }
    },
    {
      "type": "Feature",
      "geometry": {
        "type": "Point",
        "coordinates": [
          140.527407,
          36.396479
        ]
      },
      "properties": {
        "NO": 16232,
        "共通ID": "E0822100010111",
        "都道府県名及び市町村名": "茨城県ひたちなか市",
        "施設・場所名": "中央図書館",
        "住所": "茨城県ひたちなか市元町5-3",
        "指定緊急避難場所との住所同一": "1",
        "その他市町村長が必要と認める事項": null,
        "受入対象者": null,
        "備考": ""
      }
    },
    {
      "type": "Feature",
      "geometry": {
        "type": "Point",
        "coordinates": [
          140.533575,
          36.4347
        ]
      },
      "properties": {
        "NO": 16233,
        "共通ID": "E0822100011111",
        "都道府県名及び市町村名": "茨城県ひたちなか市",
        "施設・場所名": "佐野コミュニティセンター",
        "住所": "茨城県ひたちなか市高場190",
        "指定緊急避難場所との住所同一": "1",
        "その他市町村長が必要と認める事項": null,
        "受入対象者": null,
        "備考": ""
      }
    },
    {
      "type": "Feature",
      "geometry": {
        "type": "Point",
        "coordinates": [
          140.528675,
          36.433042
        ]
      },
      "properties": {
        "NO": 16234,
        "共通ID": "E0822100012111",
        "都道府県名及び市町村名": "茨城県ひたちなか市",
        "施設・場所名": "茨城県立勝田特別支援学校",
        "住所": "茨城県ひたちなか市高場2452",
        "指定緊急避難場所との住所同一": "1",
        "その他市町村長が必要と認める事項": null,
        "受入対象者": null,
        "備考": ""
      }
    },
    {
      "type": "Feature",
      "geometry": {
        "type": "Point",
        "coordinates": [
          140.53982,
          36.427953
        ]
      },
      "properties": {
        "NO": 16235,
        "共通ID": "E0822100013111",
        "都道府県名及び市町村名": "茨城県ひたちなか市",
        "施設・場所名": "老人福祉センター高場荘",
        "住所": "茨城県ひたちなか市高場594-2",
        "指定緊急避難場所との住所同一": "1",
        "その他市町村長が必要と認める事項": null,
        "受入対象者": null,
        "備考": ""
      }
    },
    {
      "type": "Feature",
      "geometry": {
        "type": "Point",
        "coordinates": [
          140.53982,
          36.427953
        ]
      },
      "properties": {
        "NO": 16236,
        "共通ID": "E0822100013121",
        "都道府県名及び市町村名": "茨城県ひたちなか市",
        "施設・場所名": "老人福祉センター高場荘",
        "住所": "茨城県ひたちなか市高場594-2",
        "指定緊急避難場所との住所同一": "1",
        "その他市町村長が必要と認める事項": null,
        "受入対象者": "要配慮者",
        "備考": ""
      }
    },
    {
      "type": "Feature",
      "geometry": {
        "type": "Point",
        "coordinates": [
          140.546999,
          36.424781
        ]
      },
      "properties": {
        "NO": 16237,
        "共通ID": "E0822100014111",
        "都道府県名及び市町村名": "茨城県ひたちなか市",
        "施設・場所名": "高野小学校",
        "住所": "茨城県ひたちなか市高野474",
        "指定緊急避難場所との住所同一": "1",
        "その他市町村長が必要と認める事項": null,
        "受入対象者": null,
        "備考": ""
      }
    },
    {
      "type": "Feature",
      "geometry": {
        "type": "Point",
        "coordinates": [
          140.530001,
          36.440872
        ]
      },
      "properties": {
        "NO": 16238,
        "共通ID": "E0822100015111",
        "都道府県名及び市町村名": "茨城県ひたちなか市",
        "施設・場所名": "佐野中学校",
        "住所": "茨城県ひたちなか市佐和1504",
        "指定緊急避難場所との住所同一": "1",
        "その他市町村長が必要と認める事項": null,
        "受入対象者": null,
        "備考": ""
      }
    },
    {
      "type": "Feature",
      "geometry": {
        "type": "Point",
        "coordinates": [
          140.539059,
          36.453768
        ]
      },
      "properties": {
        "NO": 16239,
        "共通ID": "E0822100016111",
        "都道府県名及び市町村名": "茨城県ひたちなか市",
        "施設・場所名": "笠松運動公園",
        "住所": "茨城県ひたちなか市佐和2197-28",
        "指定緊急避難場所との住所同一": "1",
        "その他市町村長が必要と認める事項": null,
        "受入対象者": null,
        "備考": ""
      }
    },
    {
      "type": "Feature",
      "geometry": {
        "type": "Point",
        "coordinates": [
          140.555226,
          36.365106
        ]
      },
      "properties": {
        "NO": 16240,
        "共通ID": "E0822100017111",
        "都道府県名及び市町村名": "茨城県ひたちなか市",
        "施設・場所名": "三反田小学校",
        "住所": "茨城県ひたちなか市三反田3065",
        "指定緊急避難場所との住所同一": "1",
        "その他市町村長が必要と認める事項": null,
        "受入対象者": null,
        "備考": ""
      }
    },
    {
      "type": "Feature",
      "geometry": {
        "type": "Point",
        "coordinates": [
          140.585347,
          36.340805
        ]
      },
      "properties": {
        "NO": 16241,
        "共通ID": "E0822100018111",
        "都道府県名及び市町村名": "茨城県ひたちなか市",
        "施設・場所名": "那珂湊第一小学校",
        "住所": "茨城県ひたちなか市山ノ上町1-1",
        "指定緊急避難場所との住所同一": "1",
        "その他市町村長が必要と認める事項": null,
        "受入対象者": null,
        "備考": ""
      }
    },
    {
      "type": "Feature",
      "geometry": {
        "type": "Point",
        "coordinates": [
          140.584574,
          36.342934
        ]
      },
      "properties": {
        "NO": 16242,
        "共通ID": "E0822100019111",
        "都道府県名及び市町村名": "茨城県ひたちなか市",
        "施設・場所名": "那珂湊高等学校",
        "住所": "茨城県ひたちなか市山ノ上町4-6",
        "指定緊急避難場所との住所同一": "1",
        "その他市町村長が必要と認める事項": null,
        "受入対象者": null,
        "備考": ""
      }
    },
    {
      "type": "Feature",
      "geometry": {
        "type": "Point",
        "coordinates": [
          140.502737,
          36.401651
        ]
      },
      "properties": {
        "NO": 16243,
        "共通ID": "E0822100020111",
        "都道府県名及び市町村名": "茨城県ひたちなか市",
        "施設・場所名": "市毛小学校",
        "住所": "茨城県ひたちなか市市毛825",
        "指定緊急避難場所との住所同一": "1",
        "その他市町村長が必要と認める事項": null,
        "受入対象者": null,
        "備考": ""
      }
    },
    {
      "type": "Feature",
      "geometry": {
        "type": "Point",
        "coordinates": [
          140.509809,
          36.397252
        ]
      },
      "properties": {
        "NO": 16244,
        "共通ID": "E0822100021111",
        "都道府県名及び市町村名": "茨城県ひたちなか市",
        "施設・場所名": "勝田第二中学校",
        "住所": "茨城県ひたちなか市市毛979",
        "指定緊急避難場所との住所同一": "1",
        "その他市町村長が必要と認める事項": null,
        "受入対象者": null,
        "備考": ""
      }
    },
    {
      "type": "Feature",
      "geometry": {
        "type": "Point",
        "coordinates": [
          140.511631,
          36.395703
        ]
      },
      "properties": {
        "NO": 16245,
        "共通ID": "E0822100022111",
        "都道府県名及び市町村名": "茨城県ひたちなか市",
        "施設・場所名": "市毛コミュニティセンター",
        "住所": "茨城県ひたちなか市市毛980",
        "指定緊急避難場所との住所同一": "1",
        "その他市町村長が必要と認める事項": null,
        "受入対象者": null,
        "備考": ""
      }
    },
    {
      "type": "Feature",
      "geometry": {
        "type": "Point",
        "coordinates": [
          140.493155,
          36.381538
        ]
      },
      "properties": {
        "NO": 16246,
        "共通ID": "E0822100023111",
        "都道府県名及び市町村名": "茨城県ひたちなか市",
        "施設・場所名": "枝川小学校",
        "住所": "茨城県ひたちなか市枝川160",
        "指定緊急避難場所との住所同一": "1",
        "その他市町村長が必要と認める事項": "",
        "受入対象者": "",
        "備考": ""
      }
    },
    {
      "type": "Feature",
      "geometry": {
        "type": "Point",
        "coordinates": [
          140.525359,
          36.376924
        ]
      },
      "properties": {
        "NO": 16247,
        "共通ID": "E0822100024111",
        "都道府県名及び市町村名": "茨城県ひたちなか市",
        "施設・場所名": "勝倉小学校",
        "住所": "茨城県ひたちなか市勝倉3010",
        "指定緊急避難場所との住所同一": "1",
        "その他市町村長が必要と認める事項": null,
        "受入対象者": null,
        "備考": ""
      }
    },
    {
      "type": "Feature",
      "geometry": {
        "type": "Point",
        "coordinates": [
          140.547044,
          36.394518
        ]
      },
      "properties": {
        "NO": 16248,
        "共通ID": "E0822100026111",
        "都道府県名及び市町村名": "茨城県ひたちなか市",
        "施設・場所名": "松戸体育館",
        "住所": "茨城県ひたちなか市松戸町2-6-1",
        "指定緊急避難場所との住所同一": "1",
        "その他市町村長が必要と認める事項": null,
        "受入対象者": null,
        "備考": ""
      }
    },
    {
      "type": "Feature",
      "geometry": {
        "type": "Point",
        "coordinates": [
          140.546624,
          36.390485
        ]
      },
      "properties": {
        "NO": 16249,
        "共通ID": "E0822100027111",
        "都道府県名及び市町村名": "茨城県ひたちなか市",
        "施設・場所名": "勝田工業高等学校",
        "住所": "茨城県ひたちなか市松戸町3-10-1",
        "指定緊急避難場所との住所同一": "1",
        "その他市町村長が必要と認める事項": null,
        "受入対象者": null,
        "備考": ""
      }
    },
    {
      "type": "Feature",
      "geometry": {
        "type": "Point",
        "coordinates": [
          140.584656,
          36.393441
        ]
      },
      "properties": {
        "NO": 16250,
        "共通ID": "E0822100028111",
        "都道府県名及び市町村名": "茨城県ひたちなか市",
        "施設・場所名": "総合体育館",
        "住所": "茨城県ひたちなか市新光町49",
        "指定緊急避難場所との住所同一": "1",
        "その他市町村長が必要と認める事項": null,
        "受入対象者": null,
        "備考": ""
      }
    },
    {
      "type": "Feature",
      "geometry": {
        "type": "Point",
        "coordinates": [
          140.593157,
          36.359982
        ]
      },
      "properties": {
        "NO": 16251,
        "共通ID": "E0822100029111",
        "都道府県名及び市町村名": "茨城県ひたちなか市",
        "施設・場所名": "那珂湊第三小学校",
        "住所": "茨城県ひたちなか市西十三奉行13251-1",
        "指定緊急避難場所との住所同一": "1",
        "その他市町村長が必要と認める事項": "",
        "受入対象者": "",
        "備考": ""
      }
    },
    {
      "type": "Feature",
      "geometry": {
        "type": "Point",
        "coordinates": [
          140.523285,
          36.408668
        ]
      },
      "properties": {
        "NO": 16252,
        "共通ID": "E0822100030111",
        "都道府県名及び市町村名": "茨城県ひたちなか市",
        "施設・場所名": "総合福祉センター",
        "住所": "茨城県ひたちなか市西大島3-16-1",
        "指定緊急避難場所との住所同一": "1",
        "その他市町村長が必要と認める事項": null,
        "受入対象者": null,
        "備考": ""
      }
    },
    {
      "type": "Feature",
      "geometry": {
        "type": "Point",
        "coordinates": [
          140.523285,
          36.408668
        ]
      },
      "properties": {
        "NO": 16253,
        "共通ID": "E0822100030121",
        "都道府県名及び市町村名": "茨城県ひたちなか市",
        "施設・場所名": "総合福祉センター",
        "住所": "茨城県ひたちなか市西大島3-16-1",
        "指定緊急避難場所との住所同一": "1",
        "その他市町村長が必要と認める事項": null,
        "受入対象者": "要配慮者",
        "備考": ""
      }
    },
    {
      "type": "Feature",
      "geometry": {
        "type": "Point",
        "coordinates": [
          140.528243,
          36.387433
        ]
      },
      "properties": {
        "NO": 16254,
        "共通ID": "E0822100031111",
        "都道府県名及び市町村名": "茨城県ひたちなか市",
        "施設・場所名": "文化会館",
        "住所": "茨城県ひたちなか市青葉町1-1",
        "指定緊急避難場所との住所同一": "1",
        "その他市町村長が必要と認める事項": null,
        "受入対象者": null,
        "備考": ""
      }
    },
    {
      "type": "Feature",
      "geometry": {
        "type": "Point",
        "coordinates": [
          140.528078,
          36.390212
        ]
      },
      "properties": {
        "NO": 16255,
        "共通ID": "E0822100032111",
        "都道府県名及び市町村名": "茨城県ひたちなか市",
        "施設・場所名": "子育て支援・多世代交流施設（ふぁみりこらぼ）",
        "住所": "茨城県ひたちなか市石川町11-1",
        "指定緊急避難場所との住所同一": "1",
        "その他市町村長が必要と認める事項": null,
        "受入対象者": null,
        "備考": ""
      }
    },
    {
      "type": "Feature",
      "geometry": {
        "type": "Point",
        "coordinates": [
          140.554615,
          36.405816
        ]
      },
      "properties": {
        "NO": 16256,
        "共通ID": "E0822100033111",
        "都道府県名及び市町村名": "茨城県ひたちなか市",
        "施設・場所名": "勝田中等教育学校",
        "住所": "茨城県ひたちなか市足崎1458",
        "指定緊急避難場所との住所同一": "1",
        "その他市町村長が必要と認める事項": null,
        "受入対象者": null,
        "備考": ""
      }
    },
    {
      "type": "Feature",
      "geometry": {
        "type": "Point",
        "coordinates": [
          140.537059,
          36.386506
        ]
      },
      "properties": {
        "NO": 16257,
        "共通ID": "E0822100034111",
        "都道府県名及び市町村名": "茨城県ひたちなか市",
        "施設・場所名": "勝田第一中学校",
        "住所": "茨城県ひたちなか市大成町38-1",
        "指定緊急避難場所との住所同一": "1",
        "その他市町村長が必要と認める事項": null,
        "受入対象者": null,
        "備考": ""
      }
    },
    {
      "type": "Feature",
      "geometry": {
        "type": "Point",
        "coordinates": [
          140.592293,
          36.352754
        ]
      },
      "properties": {
        "NO": 16258,
        "共通ID": "E0822100035111",
        "都道府県名及び市町村名": "茨城県ひたちなか市",
        "施設・場所名": "那珂湊コミュニティセンター",
        "住所": "茨城県ひたちなか市鍛治屋窪3566",
        "指定緊急避難場所との住所同一": "1",
        "その他市町村長が必要と認める事項": null,
        "受入対象者": null,
        "備考": ""
      }
    },
    {
      "type": "Feature",
      "geometry": {
        "type": "Point",
        "coordinates": [
          140.560561,
          36.381843
        ]
      },
      "properties": {
        "NO": 16259,
        "共通ID": "E0822100036111",
        "都道府県名及び市町村名": "茨城県ひたちなか市",
        "施設・場所名": "中根小学校",
        "住所": "茨城県ひたちなか市中根1863",
        "指定緊急避難場所との住所同一": "1",
        "その他市町村長が必要と認める事項": null,
        "受入対象者": null,
        "備考": ""
      }
    },
    {
      "type": "Feature",
      "geometry": {
        "type": "Point",
        "coordinates": [
          140.551085,
          36.400003
        ]
      },
      "properties": {
        "NO": 16260,
        "共通ID": "E0822100037111",
        "都道府県名及び市町村名": "茨城県ひたちなか市",
        "施設・場所名": "茨城工業高等専門学校",
        "住所": "茨城県ひたちなか市中根866",
        "指定緊急避難場所との住所同一": "1",
        "その他市町村長が必要と認める事項": null,
        "受入対象者": null,
        "備考": ""
      }
    },
    {
      "type": "Feature",
      "geometry": {
        "type": "Point",
        "coordinates": [
          140.542401,
          36.388094
        ]
      },
      "properties": {
        "NO": 16261,
        "共通ID": "E0822100038111",
        "都道府県名及び市町村名": "茨城県ひたちなか市",
        "施設・場所名": "１中地区コミュニティセンター",
        "住所": "茨城県ひたちなか市長堀町3-4-1",
        "指定緊急避難場所との住所同一": "1",
        "その他市町村長が必要と認める事項": null,
        "受入対象者": null,
        "備考": ""
      }
    },
    {
      "type": "Feature",
      "geometry": {
        "type": "Point",
        "coordinates": [
          140.542507,
          36.389171
        ]
      },
      "properties": {
        "NO": 16262,
        "共通ID": "E0822100039111",
        "都道府県名及び市町村名": "茨城県ひたちなか市",
        "施設・場所名": "長堀小学校",
        "住所": "茨城県ひたちなか市長堀町3-5-1",
        "指定緊急避難場所との住所同一": "1",
        "その他市町村長が必要と認める事項": null,
        "受入対象者": null,
        "備考": ""
      }
    },
    {
      "type": "Feature",
      "geometry": {
        "type": "Point",
        "coordinates": [
          140.507582,
          36.413395
        ]
      },
      "properties": {
        "NO": 16263,
        "共通ID": "E0822100040111",
        "都道府県名及び市町村名": "茨城県ひたちなか市",
        "施設・場所名": "茨城大学附属特別支援学校",
        "住所": "茨城県ひたちなか市津田1955",
        "指定緊急避難場所との住所同一": "1",
        "その他市町村長が必要と認める事項": null,
        "受入対象者": null,
        "備考": ""
      }
    },
    {
      "type": "Feature",
      "geometry": {
        "type": "Point",
        "coordinates": [
          140.495783,
          36.406398
        ]
      },
      "properties": {
        "NO": 16264,
        "共通ID": "E0822100041111",
        "都道府県名及び市町村名": "茨城県ひたちなか市",
        "施設・場所名": "津田コミュニティセンター",
        "住所": "茨城県ひたちなか市津田2732",
        "指定緊急避難場所との住所同一": "1",
        "その他市町村長が必要と認める事項": null,
        "受入対象者": null,
        "備考": ""
      }
    },
    {
      "type": "Feature",
      "geometry": {
        "type": "Point",
        "coordinates": [
          140.505768,
          36.413111
        ]
      },
      "properties": {
        "NO": 16265,
        "共通ID": "E0822100042111",
        "都道府県名及び市町村名": "茨城県ひたちなか市",
        "施設・場所名": "津田小学校",
        "住所": "茨城県ひたちなか市津田東1-1-1",
        "指定緊急避難場所との住所同一": "1",
        "その他市町村長が必要と認める事項": null,
        "受入対象者": null,
        "備考": ""
      }
    },
    {
      "type": "Feature",
      "geometry": {
        "type": "Point",
        "coordinates": [
          140.517735,
          36.411956
        ]
      },
      "properties": {
        "NO": 16266,
        "共通ID": "E0822100043111",
        "都道府県名及び市町村名": "茨城県ひたちなか市",
        "施設・場所名": "田彦中学校",
        "住所": "茨城県ひたちなか市田彦1442-1",
        "指定緊急避難場所との住所同一": "1",
        "その他市町村長が必要と認める事項": null,
        "受入対象者": null,
        "備考": ""
      }
    },
    {
      "type": "Feature",
      "geometry": {
        "type": "Point",
        "coordinates": [
          140.520575,
          36.41109
        ]
      },
      "properties": {
        "NO": 16267,
        "共通ID": "E0822100044111",
        "都道府県名及び市町村名": "茨城県ひたちなか市",
        "施設・場所名": "田彦小学校",
        "住所": "茨城県ひたちなか市田彦1457",
        "指定緊急避難場所との住所同一": "1",
        "その他市町村長が必要と認める事項": null,
        "受入対象者": null,
        "備考": ""
      }
    },
    {
      "type": "Feature",
      "geometry": {
        "type": "Point",
        "coordinates": [
          140.517469,
          36.419662
        ]
      },
      "properties": {
        "NO": 16268,
        "共通ID": "E0822100045111",
        "都道府県名及び市町村名": "茨城県ひたちなか市",
        "施設・場所名": "田彦コミュニティセンター",
        "住所": "茨城県ひたちなか市田彦950-128",
        "指定緊急避難場所との住所同一": "1",
        "その他市町村長が必要と認める事項": null,
        "受入対象者": null,
        "備考": ""
      }
    },
    {
      "type": "Feature",
      "geometry": {
        "type": "Point",
        "coordinates": [
          140.528274,
          36.396347
        ]
      },
      "properties": {
        "NO": 16269,
        "共通ID": "E0822100046111",
        "都道府県名及び市町村名": "茨城県ひたちなか市",
        "施設・場所名": "東石川小学校",
        "住所": "茨城県ひたちなか市東石川1-1-1",
        "指定緊急避難場所との住所同一": "1",
        "その他市町村長が必要と認める事項": null,
        "受入対象者": null,
        "備考": ""
      }
    },
    {
      "type": "Feature",
      "geometry": {
        "type": "Point",
        "coordinates": [
          140.53776,
          36.398574
        ]
      },
      "properties": {
        "NO": 16270,
        "共通ID": "E0822100047111",
        "都道府県名及び市町村名": "茨城県ひたちなか市",
        "施設・場所名": "ワークプラザ勝田",
        "住所": "茨城県ひたちなか市東石川1279",
        "指定緊急避難場所との住所同一": "1",
        "その他市町村長が必要と認める事項": null,
        "受入対象者": null,
        "備考": ""
      }
    },
    {
      "type": "Feature",
      "geometry": {
        "type": "Point",
        "coordinates": [
          140.533487,
          36.404483
        ]
      },
      "properties": {
        "NO": 16271,
        "共通ID": "E0822100048111",
        "都道府県名及び市町村名": "茨城県ひたちなか市",
        "施設・場所名": "大島中学校",
        "住所": "茨城県ひたちなか市東大島4-6-1",
        "指定緊急避難場所との住所同一": "1",
        "その他市町村長が必要と認める事項": null,
        "受入対象者": null,
        "備考": ""
      }
    },
    {
      "type": "Feature",
      "geometry": {
        "type": "Point",
        "coordinates": [
          140.592953,
          36.353998
        ]
      },
      "properties": {
        "NO": 16272,
        "共通ID": "E0822100049111",
        "都道府県名及び市町村名": "茨城県ひたちなか市",
        "施設・場所名": "那珂湊総合福祉センター（しあわせプラザ）",
        "住所": "茨城県ひたちなか市南神敷台17-6",
        "指定緊急避難場所との住所同一": "1",
        "その他市町村長が必要と認める事項": null,
        "受入対象者": null,
        "備考": ""
      }
    },
    {
      "type": "Feature",
      "geometry": {
        "type": "Point",
        "coordinates": [
          140.592953,
          36.353998
        ]
      },
      "properties": {
        "NO": 16273,
        "共通ID": "E0822100049121",
        "都道府県名及び市町村名": "茨城県ひたちなか市",
        "施設・場所名": "那珂湊総合福祉センター（しあわせプラザ）",
        "住所": "茨城県ひたちなか市南神敷台17-6",
        "指定緊急避難場所との住所同一": "1",
        "その他市町村長が必要と認める事項": null,
        "受入対象者": "要配慮者",
        "備考": ""
      }
    },
    {
      "type": "Feature",
      "geometry": {
        "type": "Point",
        "coordinates": [
          140.571163,
          36.411661
        ]
      },
      "properties": {
        "NO": 16274,
        "共通ID": "E0822100050111",
        "都道府県名及び市町村名": "茨城県ひたちなか市",
        "施設・場所名": "前渡コミュニティセンター",
        "住所": "茨城県ひたちなか市馬渡2980-1",
        "指定緊急避難場所との住所同一": "1",
        "その他市町村長が必要と認める事項": null,
        "受入対象者": null,
        "備考": ""
      }
    },
    {
      "type": "Feature",
      "geometry": {
        "type": "Point",
        "coordinates": [
          140.571457,
          36.411218
        ]
      },
      "properties": {
        "NO": 16275,
        "共通ID": "E0822100051111",
        "都道府県名及び市町村名": "茨城県ひたちなか市",
        "施設・場所名": "勝田第三中学校",
        "住所": "茨城県ひたちなか市馬渡2982",
        "指定緊急避難場所との住所同一": "1",
        "その他市町村長が必要と認める事項": null,
        "受入対象者": null,
        "備考": ""
      }
    },
    {
      "type": "Feature",
      "geometry": {
        "type": "Point",
        "coordinates": [
          140.574592,
          36.403805
        ]
      },
      "properties": {
        "NO": 16276,
        "共通ID": "E0822100052111",
        "都道府県名及び市町村名": "茨城県ひたちなか市",
        "施設・場所名": "前渡小学校",
        "住所": "茨城県ひたちなか市馬渡309",
        "指定緊急避難場所との住所同一": "1",
        "その他市町村長が必要と認める事項": null,
        "受入対象者": null,
        "備考": ""
      }
    },
    {
      "type": "Feature",
      "geometry": {
        "type": "Point",
        "coordinates": [
          140.598952,
          36.34704
        ]
      },
      "properties": {
        "NO": 16277,
        "共通ID": "E0822100053111",
        "都道府県名及び市町村名": "茨城県ひたちなか市",
        "施設・場所名": "那珂湊第二小学校",
        "住所": "茨城県ひたちなか市富士ノ上10-1",
        "指定緊急避難場所との住所同一": "1",
        "その他市町村長が必要と認める事項": null,
        "受入対象者": null,
        "備考": ""
      }
    },
    {
      "type": "Feature",
      "geometry": {
        "type": "Point",
        "coordinates": [
          140.609002,
          36.357111
        ]
      },
      "properties": {
        "NO": 16278,
        "共通ID": "E0822100055111",
        "都道府県名及び市町村名": "茨城県ひたちなか市",
        "施設・場所名": "旧平磯小学校",
        "住所": "茨城県ひたちなか市平磯町250",
        "指定緊急避難場所との住所同一": "1",
        "その他市町村長が必要と認める事項": null,
        "受入対象者": null,
        "備考": ""
      }
    },
    {
      "type": "Feature",
      "geometry": {
        "type": "Point",
        "coordinates": [
          140.515118,
          36.387803
        ]
      },
      "properties": {
        "NO": 16279,
        "共通ID": "E0822100056111",
        "都道府県名及び市町村名": "茨城県ひたちなか市",
        "施設・場所名": "堀口小学校",
        "住所": "茨城県ひたちなか市堀口588",
        "指定緊急避難場所との住所同一": "1",
        "その他市町村長が必要と認める事項": null,
        "受入対象者": null,
        "備考": ""
      }
    },
    {
      "type": "Feature",
      "geometry": {
        "type": "Point",
        "coordinates": [
          140.588854,
          36.340523
        ]
      },
      "properties": {
        "NO": 16280,
        "共通ID": "E0822100057111",
        "都道府県名及び市町村名": "茨城県ひたちなか市",
        "施設・場所名": "湊公園ふれあい館",
        "住所": "茨城県ひたちなか市湊中央1-1-1",
        "指定緊急避難場所との住所同一": "1",
        "その他市町村長が必要と認める事項": null,
        "受入対象者": null,
        "備考": ""
      }
    },
    {
      "type": "Feature",
      "geometry": {
        "type": "Point",
        "coordinates": [
          140.570096,
          36.357501
        ]
      },
      "properties": {
        "NO": 16281,
        "共通ID": "E0822100058111",
        "都道府県名及び市町村名": "茨城県ひたちなか市",
        "施設・場所名": "那珂湊コミュニティセンター柳沢館",
        "住所": "茨城県ひたちなか市柳沢472",
        "指定緊急避難場所との住所同一": "1",
        "その他市町村長が必要と認める事項": null,
        "受入対象者": null,
        "備考": ""
      }
    },
    {
      "type": "Feature",
      "geometry": {
        "type": "Point",
        "coordinates": [
          140.600632,
          36.343938
        ]
      },
      "properties": {
        "NO": 16282,
        "共通ID": "E0822100059111",
        "都道府県名及び市町村名": "茨城県ひたちなか市",
        "施設・場所名": "那珂湊保健相談センター",
        "住所": "茨城県ひたちなか市和田町2-11-21",
        "指定緊急避難場所との住所同一": "1",
        "その他市町村長が必要と認める事項": null,
        "受入対象者": null,
        "備考": ""
      }
    },
    {
      "type": "Feature",
      "geometry": {
        "type": "Point",
        "coordinates": [
          140.600632,
          36.343938
        ]
      },
      "properties": {
        "NO": 16283,
        "共通ID": "E0822100059121",
        "都道府県名及び市町村名": "茨城県ひたちなか市",
        "施設・場所名": "那珂湊保健相談センター",
        "住所": "茨城県ひたちなか市和田町2-11-21",
        "指定緊急避難場所との住所同一": "1",
        "その他市町村長が必要と認める事項": null,
        "受入対象者": "要配慮者",
        "備考": ""
      }
    }
  ]
}