{
  "type": "FeatureCollection",
  "name": "082325",
  "features": [
    {
      "type": "Feature",
      "geometry": {
        "type": "Point",
        "coordinates": [
          140.711965,
          35.890647
        ]
      },
      "properties": {
        "NO": 16625,
        "共通ID": "E0823200001111",
        "都道府県名及び市町村名": "茨城県神栖市",
        "施設・場所名": "軽野東小学校",
        "住所": "茨城県神栖市奥野谷5746-2",
        "指定緊急避難場所との住所同一": "1",
        "その他市町村長が必要と認める事項": null,
        "受入対象者": null,
        "備考": ""
      }
    },
    {
      "type": "Feature",
      "geometry": {
        "type": "Point",
        "coordinates": [
          140.696651,
          35.869364
        ]
      },
      "properties": {
        "NO": 16626,
        "共通ID": "E0823200003111",
        "都道府県名及び市町村名": "茨城県神栖市",
        "施設・場所名": "横瀬小学校",
        "住所": "茨城県神栖市横瀬1276-15",
        "指定緊急避難場所との住所同一": "1",
        "その他市町村長が必要と認める事項": null,
        "受入対象者": null,
        "備考": ""
      }
    },
    {
      "type": "Feature",
      "geometry": {
        "type": "Point",
        "coordinates": [
          140.663231,
          35.888964
        ]
      },
      "properties": {
        "NO": 16627,
        "共通ID": "E0823200004121",
        "都道府県名及び市町村名": "茨城県神栖市",
        "施設・場所名": "神栖市保健・福祉会館",
        "住所": "茨城県神栖市溝口1746-1",
        "指定緊急避難場所との住所同一": "1",
        "その他市町村長が必要と認める事項": "",
        "受入対象者": "要配慮者",
        "備考": ""
      }
    },
    {
      "type": "Feature",
      "geometry": {
        "type": "Point",
        "coordinates": [
          140.66981,
          35.887488
        ]
      },
      "properties": {
        "NO": 16628,
        "共通ID": "E0823200005111",
        "都道府県名及び市町村名": "茨城県神栖市",
        "施設・場所名": "神栖市武道館",
        "住所": "茨城県神栖市溝口4991-10",
        "指定緊急避難場所との住所同一": "1",
        "その他市町村長が必要と認める事項": null,
        "受入対象者": null,
        "備考": ""
      }
    },
    {
      "type": "Feature",
      "geometry": {
        "type": "Point",
        "coordinates": [
          140.668807,
          35.888788
        ]
      },
      "properties": {
        "NO": 16629,
        "共通ID": "E0823200006111",
        "都道府県名及び市町村名": "茨城県神栖市",
        "施設・場所名": "神栖市中央公民館及び文化センター",
        "住所": "茨城県神栖市溝口4991-4",
        "指定緊急避難場所との住所同一": "1",
        "その他市町村長が必要と認める事項": null,
        "受入対象者": null,
        "備考": ""
      }
    },
    {
      "type": "Feature",
      "geometry": {
        "type": "Point",
        "coordinates": [
          140.643816,
          35.874509
        ]
      },
      "properties": {
        "NO": 16630,
        "共通ID": "E0823200007111",
        "都道府県名及び市町村名": "茨城県神栖市",
        "施設・場所名": "神栖高校",
        "住所": "茨城県神栖市高浜1468",
        "指定緊急避難場所との住所同一": "1",
        "その他市町村長が必要と認める事項": null,
        "受入対象者": null,
        "備考": ""
      }
    },
    {
      "type": "Feature",
      "geometry": {
        "type": "Point",
        "coordinates": [
          140.73898,
          35.839236
        ]
      },
      "properties": {
        "NO": 16631,
        "共通ID": "E0823200008111",
        "都道府県名及び市町村名": "茨城県神栖市",
        "施設・場所名": "若松公民館",
        "住所": "茨城県神栖市砂山15",
        "指定緊急避難場所との住所同一": "1",
        "その他市町村長が必要と認める事項": null,
        "受入対象者": null,
        "備考": ""
      }
    },
    {
      "type": "Feature",
      "geometry": {
        "type": "Point",
        "coordinates": [
          140.652127,
          35.912468
        ]
      },
      "properties": {
        "NO": 16632,
        "共通ID": "E0823200011111",
        "都道府県名及び市町村名": "茨城県神栖市",
        "施設・場所名": "深芝小学校",
        "住所": "茨城県神栖市深芝南3-8",
        "指定緊急避難場所との住所同一": "1",
        "その他市町村長が必要と認める事項": null,
        "受入対象者": null,
        "備考": ""
      }
    },
    {
      "type": "Feature",
      "geometry": {
        "type": "Point",
        "coordinates": [
          140.749424,
          35.828576
        ]
      },
      "properties": {
        "NO": 16633,
        "共通ID": "E0823200012111",
        "都道府県名及び市町村名": "茨城県神栖市",
        "施設・場所名": "須田小学校",
        "住所": "茨城県神栖市須田1177-13",
        "指定緊急避難場所との住所同一": "1",
        "その他市町村長が必要と認める事項": null,
        "受入対象者": null,
        "備考": ""
      }
    },
    {
      "type": "Feature",
      "geometry": {
        "type": "Point",
        "coordinates": [
          140.741708,
          35.838337
        ]
      },
      "properties": {
        "NO": 16634,
        "共通ID": "E0823200014111",
        "都道府県名及び市町村名": "茨城県神栖市",
        "施設・場所名": "波崎第三中学校",
        "住所": "茨城県神栖市須田2340-1",
        "指定緊急避難場所との住所同一": "1",
        "その他市町村長が必要と認める事項": null,
        "受入対象者": null,
        "備考": ""
      }
    },
    {
      "type": "Feature",
      "geometry": {
        "type": "Point",
        "coordinates": [
          140.719438,
          35.836743
        ]
      },
      "properties": {
        "NO": 16635,
        "共通ID": "E0823200018111",
        "都道府県名及び市町村名": "茨城県神栖市",
        "施設・場所名": "太田小学校",
        "住所": "茨城県神栖市太田598-2",
        "指定緊急避難場所との住所同一": "1",
        "その他市町村長が必要と認める事項": null,
        "受入対象者": null,
        "備考": ""
      }
    },
    {
      "type": "Feature",
      "geometry": {
        "type": "Point",
        "coordinates": [
          140.6367,
          35.8907
        ]
      },
      "properties": {
        "NO": 16636,
        "共通ID": "E0823200022111",
        "都道府県名及び市町村名": "茨城県神栖市",
        "施設・場所名": "大野原西小学校",
        "住所": "茨城県神栖市大野原5-1-45",
        "指定緊急避難場所との住所同一": "1",
        "その他市町村長が必要と認める事項": null,
        "受入対象者": null,
        "備考": ""
      }
    },
    {
      "type": "Feature",
      "geometry": {
        "type": "Point",
        "coordinates": [
          140.644665,
          35.889749
        ]
      },
      "properties": {
        "NO": 16637,
        "共通ID": "E0823200023111",
        "都道府県名及び市町村名": "茨城県神栖市",
        "施設・場所名": "大野原コミュニティセンター",
        "住所": "茨城県神栖市大野原7-5-59",
        "指定緊急避難場所との住所同一": "1",
        "その他市町村長が必要と認める事項": null,
        "受入対象者": null,
        "備考": ""
      }
    },
    {
      "type": "Feature",
      "geometry": {
        "type": "Point",
        "coordinates": [
          140.643935,
          35.8858
        ]
      },
      "properties": {
        "NO": 16638,
        "共通ID": "E0823200025111",
        "都道府県名及び市町村名": "茨城県神栖市",
        "施設・場所名": "大野原小学校",
        "住所": "茨城県神栖市大野原中央2-1-8",
        "指定緊急避難場所との住所同一": "1",
        "その他市町村長が必要と認める事項": null,
        "受入対象者": null,
        "備考": ""
      }
    },
    {
      "type": "Feature",
      "geometry": {
        "type": "Point",
        "coordinates": [
          140.638468,
          35.886481
        ]
      },
      "properties": {
        "NO": 16639,
        "共通ID": "E0823200026111",
        "都道府県名及び市町村名": "茨城県神栖市",
        "施設・場所名": "神栖第四中学校",
        "住所": "茨城県神栖市大野原中央2-8-46",
        "指定緊急避難場所との住所同一": "1",
        "その他市町村長が必要と認める事項": null,
        "受入対象者": null,
        "備考": ""
      }
    },
    {
      "type": "Feature",
      "geometry": {
        "type": "Point",
        "coordinates": [
          140.670874,
          35.871304
        ]
      },
      "properties": {
        "NO": 16640,
        "共通ID": "E0823200027111",
        "都道府県名及び市町村名": "茨城県神栖市",
        "施設・場所名": "神栖第一中学校",
        "住所": "茨城県神栖市知手100-3",
        "指定緊急避難場所との住所同一": "1",
        "その他市町村長が必要と認める事項": null,
        "受入対象者": null,
        "備考": ""
      }
    },
    {
      "type": "Feature",
      "geometry": {
        "type": "Point",
        "coordinates": [
          140.667394,
          35.871977
        ]
      },
      "properties": {
        "NO": 16641,
        "共通ID": "E0823200028111",
        "都道府県名及び市町村名": "茨城県神栖市",
        "施設・場所名": "軽野小学校",
        "住所": "茨城県神栖市知手2-2",
        "指定緊急避難場所との住所同一": "1",
        "その他市町村長が必要と認める事項": null,
        "受入対象者": null,
        "備考": ""
      }
    },
    {
      "type": "Feature",
      "geometry": {
        "type": "Point",
        "coordinates": [
          140.707271,
          35.874938
        ]
      },
      "properties": {
        "NO": 16642,
        "共通ID": "E0823200031111",
        "都道府県名及び市町村名": "茨城県神栖市",
        "施設・場所名": "神栖第三中学校",
        "住所": "茨城県神栖市知手中央7-1-17",
        "指定緊急避難場所との住所同一": "1",
        "その他市町村長が必要と認める事項": null,
        "受入対象者": null,
        "備考": ""
      }
    },
    {
      "type": "Feature",
      "geometry": {
        "type": "Point",
        "coordinates": [
          140.705171,
          35.873731
        ]
      },
      "properties": {
        "NO": 16643,
        "共通ID": "E0823200032111",
        "都道府県名及び市町村名": "茨城県神栖市",
        "施設・場所名": "うずもコミュニティセンター",
        "住所": "茨城県神栖市知手中央7-1-6",
        "指定緊急避難場所との住所同一": "1",
        "その他市町村長が必要と認める事項": null,
        "受入対象者": null,
        "備考": ""
      }
    },
    {
      "type": "Feature",
      "geometry": {
        "type": "Point",
        "coordinates": [
          140.769489,
          35.790434
        ]
      },
      "properties": {
        "NO": 16644,
        "共通ID": "E0823200034111",
        "都道府県名及び市町村名": "茨城県神栖市",
        "施設・場所名": "やたべ土合小学校",
        "住所": "茨城県神栖市土合南3-16-36",
        "指定緊急避難場所との住所同一": "1",
        "その他市町村長が必要と認める事項": null,
        "受入対象者": null,
        "備考": ""
      }
    },
    {
      "type": "Feature",
      "geometry": {
        "type": "Point",
        "coordinates": [
          140.785857,
          35.792461
        ]
      },
      "properties": {
        "NO": 16645,
        "共通ID": "E0823200035111",
        "都道府県名及び市町村名": "茨城県神栖市",
        "施設・場所名": "土合体育館",
        "住所": "茨城県神栖市土合北1-7-60",
        "指定緊急避難場所との住所同一": "1",
        "その他市町村長が必要と認める事項": null,
        "受入対象者": null,
        "備考": ""
      }
    },
    {
      "type": "Feature",
      "geometry": {
        "type": "Point",
        "coordinates": [
          140.785306,
          35.791032
        ]
      },
      "properties": {
        "NO": 16646,
        "共通ID": "E0823200036111",
        "都道府県名及び市町村名": "茨城県神栖市",
        "施設・場所名": "波崎第四中学校",
        "住所": "茨城県神栖市土合北1-8-10",
        "指定緊急避難場所との住所同一": "1",
        "その他市町村長が必要と認める事項": null,
        "受入対象者": null,
        "備考": ""
      }
    },
    {
      "type": "Feature",
      "geometry": {
        "type": "Point",
        "coordinates": [
          140.780334,
          35.788036
        ]
      },
      "properties": {
        "NO": 16647,
        "共通ID": "E0823200069121",
        "都道府県名及び市町村名": "茨城県神栖市",
        "施設・場所名": "神栖市はさき保健・交流センター",
        "住所": "茨城県神栖市土合本町1-8762-11",
        "指定緊急避難場所との住所同一": "1",
        "その他市町村長が必要と認める事項": "",
        "受入対象者": "要配慮者",
        "備考": ""
      }
    },
    {
      "type": "Feature",
      "geometry": {
        "type": "Point",
        "coordinates": [
          140.780334,
          35.788036
        ]
      },
      "properties": {
        "NO": 16648,
        "共通ID": "E0823200069111",
        "都道府県名及び市町村名": "茨城県神栖市",
        "施設・場所名": "神栖市はさき保健・交流センター",
        "住所": "茨城県神栖市土合本町1-8762-11",
        "指定緊急避難場所との住所同一": "1",
        "その他市町村長が必要と認める事項": "",
        "受入対象者": "",
        "備考": ""
      }
    },
    {
      "type": "Feature",
      "geometry": {
        "type": "Point",
        "coordinates": [
          140.779841,
          35.790144
        ]
      },
      "properties": {
        "NO": 16649,
        "共通ID": "E0823200038111",
        "都道府県名及び市町村名": "茨城県神栖市",
        "施設・場所名": "波崎高校",
        "住所": "茨城県神栖市土合本町2-9928-1",
        "指定緊急避難場所との住所同一": "1",
        "その他市町村長が必要と認める事項": "",
        "受入対象者": "",
        "備考": ""
      }
    },
    {
      "type": "Feature",
      "geometry": {
        "type": "Point",
        "coordinates": [
          140.776641,
          35.793933
        ]
      },
      "properties": {
        "NO": 16650,
        "共通ID": "E0823200039111",
        "都道府県名及び市町村名": "茨城県神栖市",
        "施設・場所名": "矢田部公民館",
        "住所": "茨城県神栖市土合本町3-9809-15",
        "指定緊急避難場所との住所同一": "1",
        "その他市町村長が必要と認める事項": "",
        "受入対象者": "",
        "備考": ""
      }
    },
    {
      "type": "Feature",
      "geometry": {
        "type": "Point",
        "coordinates": [
          140.777322,
          35.793324
        ]
      },
      "properties": {
        "NO": 16651,
        "共通ID": "E0823200040121",
        "都道府県名及び市町村名": "茨城県神栖市",
        "施設・場所名": "神栖市はさき福祉センター",
        "住所": "茨城県神栖市土合本町3-9809-158",
        "指定緊急避難場所との住所同一": "1",
        "その他市町村長が必要と認める事項": "",
        "受入対象者": "要配慮者",
        "備考": ""
      }
    },
    {
      "type": "Feature",
      "geometry": {
        "type": "Point",
        "coordinates": [
          140.777763,
          35.797032
        ]
      },
      "properties": {
        "NO": 16652,
        "共通ID": "E0823200042111",
        "都道府県名及び市町村名": "茨城県神栖市",
        "施設・場所名": "植松小学校",
        "住所": "茨城県神栖市土合本町4-9809-2",
        "指定緊急避難場所との住所同一": "1",
        "その他市町村長が必要と認める事項": null,
        "受入対象者": null,
        "備考": ""
      }
    },
    {
      "type": "Feature",
      "geometry": {
        "type": "Point",
        "coordinates": [
          140.803363,
          35.761295
        ]
      },
      "properties": {
        "NO": 16653,
        "共通ID": "E0823200045111",
        "都道府県名及び市町村名": "茨城県神栖市",
        "施設・場所名": "波崎西小学校",
        "住所": "茨城県神栖市波崎5011",
        "指定緊急避難場所との住所同一": "1",
        "その他市町村長が必要と認める事項": null,
        "受入対象者": null,
        "備考": ""
      }
    },
    {
      "type": "Feature",
      "geometry": {
        "type": "Point",
        "coordinates": [
          140.813727,
          35.756823
        ]
      },
      "properties": {
        "NO": 16654,
        "共通ID": "E0823200046111",
        "都道府県名及び市町村名": "茨城県神栖市",
        "施設・場所名": "波崎総合支所・防災センター",
        "住所": "茨城県神栖市波崎6530",
        "指定緊急避難場所との住所同一": "1",
        "その他市町村長が必要と認める事項": null,
        "受入対象者": null,
        "備考": ""
      }
    },
    {
      "type": "Feature",
      "geometry": {
        "type": "Point",
        "coordinates": [
          140.817619,
          35.757398
        ]
      },
      "properties": {
        "NO": 16655,
        "共通ID": "E0823200047111",
        "都道府県名及び市町村名": "茨城県神栖市",
        "施設・場所名": "波崎第一中学校",
        "住所": "茨城県神栖市波崎7070",
        "指定緊急避難場所との住所同一": "1",
        "その他市町村長が必要と認める事項": null,
        "受入対象者": null,
        "備考": ""
      }
    },
    {
      "type": "Feature",
      "geometry": {
        "type": "Point",
        "coordinates": [
          140.827431,
          35.748427
        ]
      },
      "properties": {
        "NO": 16656,
        "共通ID": "E0823200050111",
        "都道府県名及び市町村名": "茨城県神栖市",
        "施設・場所名": "波崎小学校",
        "住所": "茨城県神栖市波崎8759",
        "指定緊急避難場所との住所同一": "1",
        "その他市町村長が必要と認める事項": null,
        "受入対象者": null,
        "備考": ""
      }
    },
    {
      "type": "Feature",
      "geometry": {
        "type": "Point",
        "coordinates": [
          140.834715,
          35.747664
        ]
      },
      "properties": {
        "NO": 16657,
        "共通ID": "E0823200054111",
        "都道府県名及び市町村名": "茨城県神栖市",
        "施設・場所名": "波崎東ふれあいセンター",
        "住所": "茨城県神栖市波崎9572-1",
        "指定緊急避難場所との住所同一": "1",
        "その他市町村長が必要と認める事項": "",
        "受入対象者": "",
        "備考": ""
      }
    },
    {
      "type": "Feature",
      "geometry": {
        "type": "Point",
        "coordinates": [
          140.634647,
          35.906136
        ]
      },
      "properties": {
        "NO": 16658,
        "共通ID": "E0823200057111",
        "都道府県名及び市町村名": "茨城県神栖市",
        "施設・場所名": "平泉コミュニティセンター",
        "住所": "茨城県神栖市平泉2751-2",
        "指定緊急避難場所との住所同一": "1",
        "その他市町村長が必要と認める事項": null,
        "受入対象者": null,
        "備考": ""
      }
    },
    {
      "type": "Feature",
      "geometry": {
        "type": "Point",
        "coordinates": [
          140.63763,
          35.90396
        ]
      },
      "properties": {
        "NO": 16659,
        "共通ID": "E0823200058111",
        "都道府県名及び市町村名": "茨城県神栖市",
        "施設・場所名": "息栖小学校",
        "住所": "茨城県神栖市平泉2780",
        "指定緊急避難場所との住所同一": "1",
        "その他市町村長が必要と認める事項": null,
        "受入対象者": null,
        "備考": ""
      }
    },
    {
      "type": "Feature",
      "geometry": {
        "type": "Point",
        "coordinates": [
          140.640195,
          35.90302
        ]
      },
      "properties": {
        "NO": 16660,
        "共通ID": "E0823200060111",
        "都道府県名及び市町村名": "茨城県神栖市",
        "施設・場所名": "神栖第二中学校",
        "住所": "茨城県神栖市平泉東1-60-1",
        "指定緊急避難場所との住所同一": "1",
        "その他市町村長が必要と認める事項": null,
        "受入対象者": null,
        "備考": ""
      }
    },
    {
      "type": "Feature",
      "geometry": {
        "type": "Point",
        "coordinates": [
          140.650043,
          35.898864
        ]
      },
      "properties": {
        "NO": 16661,
        "共通ID": "E0823200062111",
        "都道府県名及び市町村名": "茨城県神栖市",
        "施設・場所名": "かみす防災アリーナ",
        "住所": "茨城県神栖市木崎1219-7",
        "指定緊急避難場所との住所同一": "1",
        "その他市町村長が必要と認める事項": "",
        "受入対象者": "",
        "備考": ""
      }
    },
    {
      "type": "Feature",
      "geometry": {
        "type": "Point",
        "coordinates": [
          140.753545,
          35.788174
        ]
      },
      "properties": {
        "NO": 16662,
        "共通ID": "E0823200064111",
        "都道府県名及び市町村名": "茨城県神栖市",
        "施設・場所名": "神栖市教育センター",
        "住所": "茨城県神栖市矢田部3024",
        "指定緊急避難場所との住所同一": "1",
        "その他市町村長が必要と認める事項": "",
        "受入対象者": "",
        "備考": ""
      }
    },
    {
      "type": "Feature",
      "geometry": {
        "type": "Point",
        "coordinates": [
          140.752986,
          35.789139
        ]
      },
      "properties": {
        "NO": 16663,
        "共通ID": "E0823200065111",
        "都道府県名及び市町村名": "茨城県神栖市",
        "施設・場所名": "波崎第二中学校",
        "住所": "茨城県神栖市矢田部3120",
        "指定緊急避難場所との住所同一": "1",
        "その他市町村長が必要と認める事項": null,
        "受入対象者": null,
        "備考": ""
      }
    },
    {
      "type": "Feature",
      "geometry": {
        "type": "Point",
        "coordinates": [
          140.736629,
          35.864417
        ]
      },
      "properties": {
        "NO": 16664,
        "共通ID": "E0823200066111",
        "都道府県名及び市町村名": "茨城県神栖市",
        "施設・場所名": "波崎柳川高校",
        "住所": "茨城県神栖市柳川1603-1",
        "指定緊急避難場所との住所同一": "1",
        "その他市町村長が必要と認める事項": null,
        "受入対象者": null,
        "備考": ""
      }
    },
    {
      "type": "Feature",
      "geometry": {
        "type": "Point",
        "coordinates": [
          140.738924,
          35.859895
        ]
      },
      "properties": {
        "NO": 16665,
        "共通ID": "E0823200067111",
        "都道府県名及び市町村名": "茨城県神栖市",
        "施設・場所名": "柳川小学校",
        "住所": "茨城県神栖市柳川中央1-9-10",
        "指定緊急避難場所との住所同一": "1",
        "その他市町村長が必要と認める事項": null,
        "受入対象者": null,
        "備考": ""
      }
    }
  ]
}