{
  "type": "FeatureCollection",
  "name": "083411",
  "features": [
    {
      "type": "Feature",
      "geometry": {
        "type": "Point",
        "coordinates": [
          140.552558,
          36.468946
        ]
      },
      "properties": {
        "NO": 16856,
        "共通ID": "E0834100001111",
        "都道府県名及び市町村名": "茨城県東海村",
        "施設・場所名": "舟石川コミュニティセンター",
        "住所": "茨城県東海村舟石川158-1",
        "指定緊急避難場所との住所同一": "1",
        "その他市町村長が必要と認める事項": "",
        "受入対象者": "",
        "備考": ""
      }
    },
    {
      "type": "Feature",
      "geometry": {
        "type": "Point",
        "coordinates": [
          140.556773,
          36.460598
        ]
      },
      "properties": {
        "NO": 16857,
        "共通ID": "E0834100002111",
        "都道府県名及び市町村名": "茨城県東海村",
        "施設・場所名": "東海村立舟石川小学校",
        "住所": "茨城県東海村舟石川690-1",
        "指定緊急避難場所との住所同一": "1",
        "その他市町村長が必要と認める事項": "",
        "受入対象者": "",
        "備考": ""
      }
    },
    {
      "type": "Feature",
      "geometry": {
        "type": "Point",
        "coordinates": [
          140.574388,
          36.466505
        ]
      },
      "properties": {
        "NO": 16858,
        "共通ID": "E0834100003111",
        "都道府県名及び市町村名": "茨城県東海村",
        "施設・場所名": "東海村立東海中学校",
        "住所": "茨城県東海村舟石川825-12",
        "指定緊急避難場所との住所同一": "1",
        "その他市町村長が必要と認める事項": "",
        "受入対象者": "",
        "備考": ""
      }
    },
    {
      "type": "Feature",
      "geometry": {
        "type": "Point",
        "coordinates": [
          140.570621,
          36.465248
        ]
      },
      "properties": {
        "NO": 16859,
        "共通ID": "E0834100004111",
        "都道府県名及び市町村名": "茨城県東海村",
        "施設・場所名": "なごみ東海村総合支援センター",
        "住所": "茨城県東海村舟石川駅東3-9-33",
        "指定緊急避難場所との住所同一": "1",
        "その他市町村長が必要と認める事項": "新型コロナウイルス感染症の発生及び対策の実施な​ど，状況に応じて，体調不良者又は濃厚接触者の受入施設とすることがある。",
        "受入対象者": "",
        "備考": ""
      }
    },
    {
      "type": "Feature",
      "geometry": {
        "type": "Point",
        "coordinates": [
          140.570621,
          36.465248
        ]
      },
      "properties": {
        "NO": 16860,
        "共通ID": "E0834100004121",
        "都道府県名及び市町村名": "茨城県東海村",
        "施設・場所名": "なごみ東海村総合支援センター",
        "住所": "茨城県東海村舟石川駅東3-9-33",
        "指定緊急避難場所との住所同一": "1",
        "その他市町村長が必要と認める事項": "新型コロナウイルス感染症の発生及び対策の実施な​ど，状況に応じて，体調不良者又は濃厚接触者の受入施設とすることがある。",
        "受入対象者": "要配慮者及び付添人",
        "備考": ""
      }
    },
    {
      "type": "Feature",
      "geometry": {
        "type": "Point",
        "coordinates": [
          140.590058,
          36.437152
        ]
      },
      "properties": {
        "NO": 16861,
        "共通ID": "E0834100005111",
        "都道府県名及び市町村名": "茨城県東海村",
        "施設・場所名": "東海村立照沼小学校",
        "住所": "茨城県東海村照沼905-2",
        "指定緊急避難場所との住所同一": "1",
        "その他市町村長が必要と認める事項": "",
        "受入対象者": "",
        "備考": ""
      }
    },
    {
      "type": "Feature",
      "geometry": {
        "type": "Point",
        "coordinates": [
          140.565922,
          36.448945
        ]
      },
      "properties": {
        "NO": 16862,
        "共通ID": "E0834100006111",
        "都道府県名及び市町村名": "茨城県東海村",
        "施設・場所名": "中丸コミュニティセンター",
        "住所": "茨城県東海村須和間345-1",
        "指定緊急避難場所との住所同一": "1",
        "その他市町村長が必要と認める事項": "",
        "受入対象者": "",
        "備考": ""
      }
    },
    {
      "type": "Feature",
      "geometry": {
        "type": "Point",
        "coordinates": [
          140.572527,
          36.488337
        ]
      },
      "properties": {
        "NO": 16863,
        "共通ID": "E0834100007111",
        "都道府県名及び市町村名": "茨城県東海村",
        "施設・場所名": "東海村立石神小学校",
        "住所": "茨城県東海村石神外宿1055",
        "指定緊急避難場所との住所同一": "1",
        "その他市町村長が必要と認める事項": "",
        "受入対象者": "",
        "備考": ""
      }
    },
    {
      "type": "Feature",
      "geometry": {
        "type": "Point",
        "coordinates": [
          140.573111,
          36.480948
        ]
      },
      "properties": {
        "NO": 16864,
        "共通ID": "E0834100008111",
        "都道府県名及び市町村名": "茨城県東海村",
        "施設・場所名": "石神コミュニティセンター",
        "住所": "茨城県東海村石神内宿1609",
        "指定緊急避難場所との住所同一": "1",
        "その他市町村長が必要と認める事項": "",
        "受入対象者": "",
        "備考": ""
      }
    },
    {
      "type": "Feature",
      "geometry": {
        "type": "Point",
        "coordinates": [
          140.560382,
          36.460267
        ]
      },
      "properties": {
        "NO": 16865,
        "共通ID": "E0834100009111",
        "都道府県名及び市町村名": "茨城県東海村",
        "施設・場所名": "東海村総合体育館",
        "住所": "茨城県東海村船場749-3",
        "指定緊急避難場所との住所同一": "1",
        "その他市町村長が必要と認める事項": "",
        "受入対象者": "",
        "備考": ""
      }
    },
    {
      "type": "Feature",
      "geometry": {
        "type": "Point",
        "coordinates": [
          140.562153,
          36.459843
        ]
      },
      "properties": {
        "NO": 16866,
        "共通ID": "E0834100010111",
        "都道府県名及び市町村名": "茨城県東海村",
        "施設・場所名": "東海文化センター",
        "住所": "茨城県東海村船場768-15",
        "指定緊急避難場所との住所同一": "1",
        "その他市町村長が必要と認める事項": "",
        "受入対象者": "",
        "備考": ""
      }
    },
    {
      "type": "Feature",
      "geometry": {
        "type": "Point",
        "coordinates": [
          140.560644,
          36.457831
        ]
      },
      "properties": {
        "NO": 16867,
        "共通ID": "E0834100011111",
        "都道府県名及び市町村名": "茨城県東海村",
        "施設・場所名": "東海村立東海南中学校",
        "住所": "茨城県東海村船場784-7",
        "指定緊急避難場所との住所同一": "1",
        "その他市町村長が必要と認める事項": "",
        "受入対象者": "",
        "備考": ""
      }
    },
    {
      "type": "Feature",
      "geometry": {
        "type": "Point",
        "coordinates": [
          140.579171,
          36.459421
        ]
      },
      "properties": {
        "NO": 16868,
        "共通ID": "E0834100012111",
        "都道府県名及び市町村名": "茨城県東海村",
        "施設・場所名": "東海村立村松小学校",
        "住所": "茨城県東海村村松1443-2",
        "指定緊急避難場所との住所同一": "1",
        "その他市町村長が必要と認める事項": "",
        "受入対象者": "",
        "備考": ""
      }
    },
    {
      "type": "Feature",
      "geometry": {
        "type": "Point",
        "coordinates": [
          140.57346,
          36.455191
        ]
      },
      "properties": {
        "NO": 16869,
        "共通ID": "E0834100013111",
        "都道府県名及び市町村名": "茨城県東海村",
        "施設・場所名": "東海村総合福祉センター「絆」",
        "住所": "茨城県東海村村松2005",
        "指定緊急避難場所との住所同一": "1",
        "その他市町村長が必要と認める事項": "",
        "受入対象者": "",
        "備考": ""
      }
    },
    {
      "type": "Feature",
      "geometry": {
        "type": "Point",
        "coordinates": [
          140.57346,
          36.455191
        ]
      },
      "properties": {
        "NO": 16870,
        "共通ID": "E0834100013121",
        "都道府県名及び市町村名": "茨城県東海村",
        "施設・場所名": "東海村総合福祉センター「絆」",
        "住所": "茨城県東海村村松2005",
        "指定緊急避難場所との住所同一": "1",
        "その他市町村長が必要と認める事項": "",
        "受入対象者": "要配慮者及びその付添人",
        "備考": ""
      }
    },
    {
      "type": "Feature",
      "geometry": {
        "type": "Point",
        "coordinates": [
          140.564663,
          36.456979
        ]
      },
      "properties": {
        "NO": 16871,
        "共通ID": "E0834100014111",
        "都道府県名及び市町村名": "茨城県東海村",
        "施設・場所名": "東海村立中丸小学校",
        "住所": "茨城県東海村村松2124-8",
        "指定緊急避難場所との住所同一": "1",
        "その他市町村長が必要と認める事項": "",
        "受入対象者": "",
        "備考": ""
      }
    },
    {
      "type": "Feature",
      "geometry": {
        "type": "Point",
        "coordinates": [
          140.594333,
          36.444658
        ]
      },
      "properties": {
        "NO": 16872,
        "共通ID": "E0834100015111",
        "都道府県名及び市町村名": "茨城県東海村",
        "施設・場所名": "村松コミュニティセンター",
        "住所": "茨城県東海村村松3370-24",
        "指定緊急避難場所との住所同一": "",
        "その他市町村長が必要と認める事項": "",
        "受入対象者": "",
        "備考": ""
      }
    },
    {
      "type": "Feature",
      "geometry": {
        "type": "Point",
        "coordinates": [
          140.562844,
          36.458179
        ]
      },
      "properties": {
        "NO": 16873,
        "共通ID": "E0834100016111",
        "都道府県名及び市町村名": "茨城県東海村",
        "施設・場所名": "茨城県立東海高等学校",
        "住所": "茨城県東海村村松771-1",
        "指定緊急避難場所との住所同一": "1",
        "その他市町村長が必要と認める事項": "",
        "受入対象者": "",
        "備考": ""
      }
    },
    {
      "type": "Feature",
      "geometry": {
        "type": "Point",
        "coordinates": [
          140.587285,
          36.459198
        ]
      },
      "properties": {
        "NO": 16874,
        "共通ID": "E0834100017111",
        "都道府県名及び市町村名": "茨城県東海村",
        "施設・場所名": "真崎コミュニティセンター　",
        "住所": "茨城県東海村村松835-1",
        "指定緊急避難場所との住所同一": "1",
        "その他市町村長が必要と認める事項": "",
        "受入対象者": "",
        "備考": ""
      }
    },
    {
      "type": "Feature",
      "geometry": {
        "type": "Point",
        "coordinates": [
          140.564125,
          36.473671
        ]
      },
      "properties": {
        "NO": 16875,
        "共通ID": "E0834100018111",
        "都道府県名及び市町村名": "茨城県東海村",
        "施設・場所名": "東海村姉妹都市交流会館",
        "住所": "茨城県東海村東海3-6-7",
        "指定緊急避難場所との住所同一": "1",
        "その他市町村長が必要と認める事項": "",
        "受入対象者": "",
        "備考": ""
      }
    },
    {
      "type": "Feature",
      "geometry": {
        "type": "Point",
        "coordinates": [
          140.590475,
          36.472364
        ]
      },
      "properties": {
        "NO": 16876,
        "共通ID": "E0834100019111",
        "都道府県名及び市町村名": "茨城県東海村",
        "施設・場所名": "東海村立白方小学校",
        "住所": "茨城県東海村白方2009",
        "指定緊急避難場所との住所同一": "1",
        "その他市町村長が必要と認める事項": "",
        "受入対象者": "",
        "備考": ""
      }
    },
    {
      "type": "Feature",
      "geometry": {
        "type": "Point",
        "coordinates": [
          140.591712,
          36.470905
        ]
      },
      "properties": {
        "NO": 16877,
        "共通ID": "E0834100020111",
        "都道府県名及び市町村名": "茨城県東海村",
        "施設・場所名": "白方コミュニティセンター",
        "住所": "茨城県東海村白方2077",
        "指定緊急避難場所との住所同一": "1",
        "その他市町村長が必要と認める事項": "",
        "受入対象者": "",
        "備考": ""
      }
    }
  ]
}