{
  "type": "FeatureCollection",
  "name": "092088",
  "features": [
    {
      "type": "Feature",
      "geometry": {
        "type": "Point",
        "coordinates": [
          139.827951,
          36.354187
        ]
      },
      "properties": {
        "NO": 17733,
        "共通ID": "E0920800001111",
        "都道府県名及び市町村名": "栃木県小山市",
        "施設・場所名": "羽川小学校",
        "住所": "栃木県小山市羽川125",
        "指定緊急避難場所との住所同一": "1",
        "その他市町村長が必要と認める事項": "",
        "受入対象者": "",
        "備考": ""
      }
    },
    {
      "type": "Feature",
      "geometry": {
        "type": "Point",
        "coordinates": [
          139.835667,
          36.350452
        ]
      },
      "properties": {
        "NO": 17734,
        "共通ID": "E0920800002111",
        "都道府県名及び市町村名": "栃木県小山市",
        "施設・場所名": "桑市民交流センター",
        "住所": "栃木県小山市羽川858-1",
        "指定緊急避難場所との住所同一": "1",
        "その他市町村長が必要と認める事項": "",
        "受入対象者": "",
        "備考": ""
      }
    },
    {
      "type": "Feature",
      "geometry": {
        "type": "Point",
        "coordinates": [
          139.807364,
          36.311815
        ]
      },
      "properties": {
        "NO": 17735,
        "共通ID": "E0920800003111",
        "都道府県名及び市町村名": "栃木県小山市",
        "施設・場所名": "白鷗大学本キャンパス",
        "住所": "栃木県小山市駅東通り2-2-2",
        "指定緊急避難場所との住所同一": "1",
        "その他市町村長が必要と認める事項": "",
        "受入対象者": "",
        "備考": ""
      }
    },
    {
      "type": "Feature",
      "geometry": {
        "type": "Point",
        "coordinates": [
          139.814545,
          36.304752
        ]
      },
      "properties": {
        "NO": 17736,
        "共通ID": "E0920800006111",
        "都道府県名及び市町村名": "栃木県小山市",
        "施設・場所名": "旭小学校",
        "住所": "栃木県小山市駅南町5-6-69",
        "指定緊急避難場所との住所同一": "1",
        "その他市町村長が必要と認める事項": "",
        "受入対象者": "",
        "備考": ""
      }
    },
    {
      "type": "Feature",
      "geometry": {
        "type": "Point",
        "coordinates": [
          139.89794,
          36.349087
        ]
      },
      "properties": {
        "NO": 17737,
        "共通ID": "E0920800007111",
        "都道府県名及び市町村名": "栃木県小山市",
        "施設・場所名": "アグリの森（旧延島小学校）",
        "住所": "栃木県小山市延島1019",
        "指定緊急避難場所との住所同一": "1",
        "その他市町村長が必要と認める事項": "",
        "受入対象者": "",
        "備考": ""
      }
    },
    {
      "type": "Feature",
      "geometry": {
        "type": "Point",
        "coordinates": [
          139.832016,
          36.277415
        ]
      },
      "properties": {
        "NO": 17738,
        "共通ID": "E0920800102111",
        "都道府県名及び市町村名": "栃木県小山市",
        "施設・場所名": "大谷市民交流センター",
        "住所": "栃木県小山市横倉499-6",
        "指定緊急避難場所との住所同一": "1",
        "その他市町村長が必要と認める事項": "",
        "受入対象者": "",
        "備考": ""
      }
    },
    {
      "type": "Feature",
      "geometry": {
        "type": "Point",
        "coordinates": [
          139.829835,
          36.28228
        ]
      },
      "properties": {
        "NO": 17739,
        "共通ID": "E0920800008111",
        "都道府県名及び市町村名": "栃木県小山市",
        "施設・場所名": "関東職業能力開発大学校",
        "住所": "栃木県小山市横倉612-1",
        "指定緊急避難場所との住所同一": "1",
        "その他市町村長が必要と認める事項": "",
        "受入対象者": "",
        "備考": ""
      }
    },
    {
      "type": "Feature",
      "geometry": {
        "type": "Point",
        "coordinates": [
          139.822169,
          36.279251
        ]
      },
      "properties": {
        "NO": 17740,
        "共通ID": "E0920800009111",
        "都道府県名及び市町村名": "栃木県小山市",
        "施設・場所名": "大谷東小学校",
        "住所": "栃木県小山市横倉新田271",
        "指定緊急避難場所との住所同一": "1",
        "その他市町村長が必要と認める事項": "",
        "受入対象者": "",
        "備考": ""
      }
    },
    {
      "type": "Feature",
      "geometry": {
        "type": "Point",
        "coordinates": [
          139.821877,
          36.275372
        ]
      },
      "properties": {
        "NO": 17741,
        "共通ID": "E0920800011111",
        "都道府県名及び市町村名": "栃木県小山市",
        "施設・場所名": "大谷中学校",
        "住所": "栃木県小山市横倉新田97",
        "指定緊急避難場所との住所同一": "1",
        "その他市町村長が必要と認める事項": "",
        "受入対象者": "",
        "備考": ""
      }
    },
    {
      "type": "Feature",
      "geometry": {
        "type": "Point",
        "coordinates": [
          139.755058,
          36.262857
        ]
      },
      "properties": {
        "NO": 17742,
        "共通ID": "E0920800012111",
        "都道府県名及び市町村名": "栃木県小山市",
        "施設・場所名": "乙女中学校",
        "住所": "栃木県小山市乙女1731",
        "指定緊急避難場所との住所同一": "1",
        "その他市町村長が必要と認める事項": "",
        "受入対象者": "",
        "備考": ""
      }
    },
    {
      "type": "Feature",
      "geometry": {
        "type": "Point",
        "coordinates": [
          139.749485,
          36.262637
        ]
      },
      "properties": {
        "NO": 17743,
        "共通ID": "E0920800013111",
        "都道府県名及び市町村名": "栃木県小山市",
        "施設・場所名": "乙女小学校",
        "住所": "栃木県小山市乙女1954",
        "指定緊急避難場所との住所同一": "1",
        "その他市町村長が必要と認める事項": "",
        "受入対象者": "",
        "備考": ""
      }
    },
    {
      "type": "Feature",
      "geometry": {
        "type": "Point",
        "coordinates": [
          139.747824,
          36.252204
        ]
      },
      "properties": {
        "NO": 17744,
        "共通ID": "E0920800014121",
        "都道府県名及び市町村名": "栃木県小山市",
        "施設・場所名": "（福）パステルＣＳＷおとめ",
        "住所": "栃木県小山市乙女625-2",
        "指定緊急避難場所との住所同一": "",
        "その他市町村長が必要と認める事項": null,
        "受入対象者": "要配慮者",
        "備考": ""
      }
    },
    {
      "type": "Feature",
      "geometry": {
        "type": "Point",
        "coordinates": [
          139.745671,
          36.252092
        ]
      },
      "properties": {
        "NO": 17745,
        "共通ID": "E0920800015122",
        "都道府県名及び市町村名": "栃木県小山市",
        "施設・場所名": "（医）光風会晃南",
        "住所": "栃木県小山市乙女795",
        "指定緊急避難場所との住所同一": "",
        "その他市町村長が必要と認める事項": null,
        "受入対象者": "要配慮者",
        "備考": ""
      }
    },
    {
      "type": "Feature",
      "geometry": {
        "type": "Point",
        "coordinates": [
          139.74601,
          36.252334
        ]
      },
      "properties": {
        "NO": 17746,
        "共通ID": "E0920800015121",
        "都道府県名及び市町村名": "栃木県小山市",
        "施設・場所名": "（医）光風会通所リハビリテーション晃南",
        "住所": "栃木県小山市乙女795",
        "指定緊急避難場所との住所同一": "",
        "その他市町村長が必要と認める事項": null,
        "受入対象者": "要配慮者",
        "備考": ""
      }
    },
    {
      "type": "Feature",
      "geometry": {
        "type": "Point",
        "coordinates": [
          139.760408,
          36.308192
        ]
      },
      "properties": {
        "NO": 17747,
        "共通ID": "E0920800016111",
        "都道府県名及び市町村名": "栃木県小山市",
        "施設・場所名": "道の駅思川",
        "住所": "栃木県小山市下国府塚25-1",
        "指定緊急避難場所との住所同一": "1",
        "その他市町村長が必要と認める事項": "",
        "受入対象者": "",
        "備考": ""
      }
    },
    {
      "type": "Feature",
      "geometry": {
        "type": "Point",
        "coordinates": [
          139.761419,
          36.31731
        ]
      },
      "properties": {
        "NO": 17748,
        "共通ID": "E0920800017111",
        "都道府県名及び市町村名": "栃木県小山市",
        "施設・場所名": "美田中学校",
        "住所": "栃木県小山市下国府塚287",
        "指定緊急避難場所との住所同一": "1",
        "その他市町村長が必要と認める事項": "",
        "受入対象者": "",
        "備考": ""
      }
    },
    {
      "type": "Feature",
      "geometry": {
        "type": "Point",
        "coordinates": [
          139.74899,
          36.328262
        ]
      },
      "properties": {
        "NO": 17749,
        "共通ID": "E0920800018121",
        "都道府県名及び市町村名": "栃木県小山市",
        "施設・場所名": "（福）薫風会初田郷富士見荘",
        "住所": "栃木県小山市下初田537-2",
        "指定緊急避難場所との住所同一": "",
        "その他市町村長が必要と認める事項": null,
        "受入対象者": "要配慮者",
        "備考": ""
      }
    },
    {
      "type": "Feature",
      "geometry": {
        "type": "Point",
        "coordinates": [
          139.708833,
          36.247388
        ]
      },
      "properties": {
        "NO": 17750,
        "共通ID": "E0920800019111",
        "都道府県名及び市町村名": "栃木県小山市",
        "施設・場所名": "下生井小学校",
        "住所": "栃木県小山市下生井1546",
        "指定緊急避難場所との住所同一": "1",
        "その他市町村長が必要と認める事項": null,
        "受入対象者": null,
        "備考": ""
      }
    },
    {
      "type": "Feature",
      "geometry": {
        "type": "Point",
        "coordinates": [
          139.782804,
          36.300821
        ]
      },
      "properties": {
        "NO": 17751,
        "共通ID": "E0920800020112",
        "都道府県名及び市町村名": "栃木県小山市",
        "施設・場所名": "県立県南体育館",
        "住所": "栃木県小山市外城371-1",
        "指定緊急避難場所との住所同一": "1",
        "その他市町村長が必要と認める事項": "",
        "受入対象者": "",
        "備考": ""
      }
    },
    {
      "type": "Feature",
      "geometry": {
        "type": "Point",
        "coordinates": [
          139.781463,
          36.300294
        ]
      },
      "properties": {
        "NO": 17752,
        "共通ID": "E0920800020111",
        "都道府県名及び市町村名": "栃木県小山市",
        "施設・場所名": "県立温水プール館",
        "住所": "栃木県小山市外城371-1",
        "指定緊急避難場所との住所同一": "1",
        "その他市町村長が必要と認める事項": "",
        "受入対象者": "",
        "備考": ""
      }
    },
    {
      "type": "Feature",
      "geometry": {
        "type": "Point",
        "coordinates": [
          139.868241,
          36.329477
        ]
      },
      "properties": {
        "NO": 17753,
        "共通ID": "E0920800021111",
        "都道府県名及び市町村名": "栃木県小山市",
        "施設・場所名": "萱橋小学校",
        "住所": "栃木県小山市萱橋1169-1",
        "指定緊急避難場所との住所同一": "1",
        "その他市町村長が必要と認める事項": "",
        "受入対象者": "",
        "備考": ""
      }
    },
    {
      "type": "Feature",
      "geometry": {
        "type": "Point",
        "coordinates": [
          139.762844,
          36.267941
        ]
      },
      "properties": {
        "NO": 17754,
        "共通ID": "E0920800022121",
        "都道府県名及び市町村名": "栃木県小山市",
        "施設・場所名": "（福）厚生会穂の香苑",
        "住所": "栃木県小山市間々田1442",
        "指定緊急避難場所との住所同一": "",
        "その他市町村長が必要と認める事項": null,
        "受入対象者": "要配慮者",
        "備考": ""
      }
    },
    {
      "type": "Feature",
      "geometry": {
        "type": "Point",
        "coordinates": [
          139.764018,
          36.269167
        ]
      },
      "properties": {
        "NO": 17755,
        "共通ID": "E0920800023111",
        "都道府県名及び市町村名": "栃木県小山市",
        "施設・場所名": "間々田小学校",
        "住所": "栃木県小山市間々田1512",
        "指定緊急避難場所との住所同一": "1",
        "その他市町村長が必要と認める事項": "",
        "受入対象者": "",
        "備考": ""
      }
    },
    {
      "type": "Feature",
      "geometry": {
        "type": "Point",
        "coordinates": [
          139.761323,
          36.270862
        ]
      },
      "properties": {
        "NO": 17756,
        "共通ID": "E0920800024111",
        "都道府県名及び市町村名": "栃木県小山市",
        "施設・場所名": "間々田市民交流センター",
        "住所": "栃木県小山市間々田1960-1",
        "指定緊急避難場所との住所同一": "1",
        "その他市町村長が必要と認める事項": "",
        "受入対象者": "",
        "備考": ""
      }
    },
    {
      "type": "Feature",
      "geometry": {
        "type": "Point",
        "coordinates": [
          139.780505,
          36.258616
        ]
      },
      "properties": {
        "NO": 17757,
        "共通ID": "E0920800025111",
        "都道府県名及び市町村名": "栃木県小山市",
        "施設・場所名": "小山南高等学校",
        "住所": "栃木県小山市間々田23-1",
        "指定緊急避難場所との住所同一": "1",
        "その他市町村長が必要と認める事項": "",
        "受入対象者": "",
        "備考": ""
      }
    },
    {
      "type": "Feature",
      "geometry": {
        "type": "Point",
        "coordinates": [
          139.766379,
          36.276263
        ]
      },
      "properties": {
        "NO": 17758,
        "共通ID": "E0920800026111",
        "都道府県名及び市町村名": "栃木県小山市",
        "施設・場所名": "間々田中学校",
        "住所": "栃木県小山市間々田2364",
        "指定緊急避難場所との住所同一": "1",
        "その他市町村長が必要と認める事項": "",
        "受入対象者": "",
        "備考": ""
      }
    },
    {
      "type": "Feature",
      "geometry": {
        "type": "Point",
        "coordinates": [
          139.777188,
          36.257176
        ]
      },
      "properties": {
        "NO": 17759,
        "共通ID": "E0920800028111",
        "都道府県名及び市町村名": "栃木県小山市",
        "施設・場所名": "間々田東小学校",
        "住所": "栃木県小山市間々田57-2",
        "指定緊急避難場所との住所同一": "1",
        "その他市町村長が必要と認める事項": "",
        "受入対象者": "",
        "備考": ""
      }
    },
    {
      "type": "Feature",
      "geometry": {
        "type": "Point",
        "coordinates": [
          139.777565,
          36.271315
        ]
      },
      "properties": {
        "NO": 17760,
        "共通ID": "E0920800029121",
        "都道府県名及び市町村名": "栃木県小山市",
        "施設・場所名": "（福）彰義重政会一桃舎",
        "住所": "栃木県小山市間々田750-1",
        "指定緊急避難場所との住所同一": "",
        "その他市町村長が必要と認める事項": null,
        "受入対象者": "要配慮者",
        "備考": ""
      }
    },
    {
      "type": "Feature",
      "geometry": {
        "type": "Point",
        "coordinates": [
          139.822457,
          36.346299
        ]
      },
      "properties": {
        "NO": 17761,
        "共通ID": "E0920800030122",
        "都道府県名及び市町村名": "栃木県小山市",
        "施設・場所名": "（医）朝日会朝日病院",
        "住所": "栃木県小山市喜沢660",
        "指定緊急避難場所との住所同一": "",
        "その他市町村長が必要と認める事項": null,
        "受入対象者": "要配慮者",
        "備考": ""
      }
    },
    {
      "type": "Feature",
      "geometry": {
        "type": "Point",
        "coordinates": [
          139.821802,
          36.346286
        ]
      },
      "properties": {
        "NO": 17762,
        "共通ID": "E0920800030121",
        "都道府県名及び市町村名": "栃木県小山市",
        "施設・場所名": "（医）朝日会思川ケアステージ",
        "住所": "栃木県小山市喜沢660",
        "指定緊急避難場所との住所同一": "",
        "その他市町村長が必要と認める事項": null,
        "受入対象者": "要配慮者",
        "備考": ""
      }
    },
    {
      "type": "Feature",
      "geometry": {
        "type": "Point",
        "coordinates": [
          139.798428,
          36.313576
        ]
      },
      "properties": {
        "NO": 17763,
        "共通ID": "E0920800031111",
        "都道府県名及び市町村名": "栃木県小山市",
        "施設・場所名": "小山第一小学校",
        "住所": "栃木県小山市宮本町1-3-1",
        "指定緊急避難場所との住所同一": "1",
        "その他市町村長が必要と認める事項": "",
        "受入対象者": "",
        "備考": ""
      }
    },
    {
      "type": "Feature",
      "geometry": {
        "type": "Point",
        "coordinates": [
          139.799941,
          36.310068
        ]
      },
      "properties": {
        "NO": 17764,
        "共通ID": "E0920800032111",
        "都道府県名及び市町村名": "栃木県小山市",
        "施設・場所名": "小山第二小学校",
        "住所": "栃木県小山市宮本町2-9-20",
        "指定緊急避難場所との住所同一": "1",
        "その他市町村長が必要と認める事項": "",
        "受入対象者": "",
        "備考": ""
      }
    },
    {
      "type": "Feature",
      "geometry": {
        "type": "Point",
        "coordinates": [
          139.827344,
          36.313878
        ]
      },
      "properties": {
        "NO": 17765,
        "共通ID": "E0920800034111",
        "都道府県名及び市町村名": "栃木県小山市",
        "施設・場所名": "勤労者体育センター",
        "住所": "栃木県小山市犬塚3-1-2",
        "指定緊急避難場所との住所同一": "1",
        "その他市町村長が必要と認める事項": "",
        "受入対象者": "",
        "備考": ""
      }
    },
    {
      "type": "Feature",
      "geometry": {
        "type": "Point",
        "coordinates": [
          139.83253,
          36.314698
        ]
      },
      "properties": {
        "NO": 17766,
        "共通ID": "E0920800035111",
        "都道府県名及び市町村名": "栃木県小山市",
        "施設・場所名": "小山第三中学校",
        "住所": "栃木県小山市犬塚3-29-1",
        "指定緊急避難場所との住所同一": "1",
        "その他市町村長が必要と認める事項": "",
        "受入対象者": "",
        "備考": ""
      }
    },
    {
      "type": "Feature",
      "geometry": {
        "type": "Point",
        "coordinates": [
          139.833292,
          36.306755
        ]
      },
      "properties": {
        "NO": 17767,
        "共通ID": "E0920800036111",
        "都道府県名及び市町村名": "栃木県小山市",
        "施設・場所名": "大谷北小学校",
        "住所": "栃木県小山市犬塚5-6-10",
        "指定緊急避難場所との住所同一": "1",
        "その他市町村長が必要と認める事項": "",
        "受入対象者": "",
        "備考": ""
      }
    },
    {
      "type": "Feature",
      "geometry": {
        "type": "Point",
        "coordinates": [
          139.832793,
          36.322516
        ]
      },
      "properties": {
        "NO": 17768,
        "共通ID": "E0920800037121",
        "都道府県名及び市町村名": "栃木県小山市",
        "施設・場所名": "（医）星野会つむぎの郷",
        "住所": "栃木県小山市犬塚62",
        "指定緊急避難場所との住所同一": "",
        "その他市町村長が必要と認める事項": null,
        "受入対象者": "要配慮者",
        "備考": ""
      }
    },
    {
      "type": "Feature",
      "geometry": {
        "type": "Point",
        "coordinates": [
          139.837202,
          36.335791
        ]
      },
      "properties": {
        "NO": 17769,
        "共通ID": "E0920800038121",
        "都道府県名及び市町村名": "栃木県小山市",
        "施設・場所名": "（福）洗心会サンフラワーワークセンター",
        "住所": "栃木県小山市犬塚7-20-2",
        "指定緊急避難場所との住所同一": "",
        "その他市町村長が必要と認める事項": null,
        "受入対象者": "要配慮者",
        "備考": ""
      }
    },
    {
      "type": "Feature",
      "geometry": {
        "type": "Point",
        "coordinates": [
          139.888144,
          36.338981
        ]
      },
      "properties": {
        "NO": 17770,
        "共通ID": "E0920800040121",
        "都道府県名及び市町村名": "栃木県小山市",
        "施設・場所名": "（福）くすの木会きぬの里",
        "住所": "栃木県小山市高椅132-1",
        "指定緊急避難場所との住所同一": "",
        "その他市町村長が必要と認める事項": null,
        "受入対象者": "要配慮者",
        "備考": ""
      }
    },
    {
      "type": "Feature",
      "geometry": {
        "type": "Point",
        "coordinates": [
          139.809061,
          36.357138
        ]
      },
      "properties": {
        "NO": 17771,
        "共通ID": "E0920800041111",
        "都道府県名及び市町村名": "栃木県小山市",
        "施設・場所名": "羽川西小学校",
        "住所": "栃木県小山市黒本771-2",
        "指定緊急避難場所との住所同一": "1",
        "その他市町村長が必要と認める事項": "",
        "受入対象者": "",
        "備考": ""
      }
    },
    {
      "type": "Feature",
      "geometry": {
        "type": "Point",
        "coordinates": [
          139.815826,
          36.353451
        ]
      },
      "properties": {
        "NO": 17772,
        "共通ID": "E0920800042121",
        "都道府県名及び市町村名": "栃木県小山市",
        "施設・場所名": "（福）ソフィア会おはようの家",
        "住所": "栃木県小山市三拝川岸127-1",
        "指定緊急避難場所との住所同一": "",
        "その他市町村長が必要と認める事項": null,
        "受入対象者": "要配慮者",
        "備考": ""
      }
    },
    {
      "type": "Feature",
      "geometry": {
        "type": "Point",
        "coordinates": [
          139.805731,
          36.307358
        ]
      },
      "properties": {
        "NO": 17773,
        "共通ID": "E0920800043121",
        "都道府県名及び市町村名": "栃木県小山市",
        "施設・場所名": "（福）豊心会すみれ乳児院",
        "住所": "栃木県小山市三峯2-1-21",
        "指定緊急避難場所との住所同一": "",
        "その他市町村長が必要と認める事項": null,
        "受入対象者": "要配慮者",
        "備考": ""
      }
    },
    {
      "type": "Feature",
      "geometry": {
        "type": "Point",
        "coordinates": [
          139.805838,
          36.32625
        ]
      },
      "properties": {
        "NO": 17774,
        "共通ID": "E0920800044111",
        "都道府県名及び市町村名": "栃木県小山市",
        "施設・場所名": "若木小学校",
        "住所": "栃木県小山市若木町2-6-44",
        "指定緊急避難場所との住所同一": "1",
        "その他市町村長が必要と認める事項": "",
        "受入対象者": "",
        "備考": ""
      }
    },
    {
      "type": "Feature",
      "geometry": {
        "type": "Point",
        "coordinates": [
          139.80689,
          36.328061
        ]
      },
      "properties": {
        "NO": 17775,
        "共通ID": "E0920800045111",
        "都道府県名及び市町村名": "栃木県小山市",
        "施設・場所名": "小山高等学校",
        "住所": "栃木県小山市若木町2-8-51",
        "指定緊急避難場所との住所同一": "1",
        "その他市町村長が必要と認める事項": "",
        "受入対象者": "",
        "備考": ""
      }
    },
    {
      "type": "Feature",
      "geometry": {
        "type": "Point",
        "coordinates": [
          139.801826,
          36.33231
        ]
      },
      "properties": {
        "NO": 17776,
        "共通ID": "E0920800046111",
        "都道府県名及び市町村名": "栃木県小山市",
        "施設・場所名": "小山中学校",
        "住所": "栃木県小山市渋井779-1",
        "指定緊急避難場所との住所同一": "1",
        "その他市町村長が必要と認める事項": "",
        "受入対象者": "",
        "備考": ""
      }
    },
    {
      "type": "Feature",
      "geometry": {
        "type": "Point",
        "coordinates": [
          139.830336,
          36.345286
        ]
      },
      "properties": {
        "NO": 17777,
        "共通ID": "E0920800047111",
        "都道府県名及び市町村名": "栃木県小山市",
        "施設・場所名": "桑中学校",
        "住所": "栃木県小山市出井1859",
        "指定緊急避難場所との住所同一": "1",
        "その他市町村長が必要と認める事項": "",
        "受入対象者": "",
        "備考": ""
      }
    },
    {
      "type": "Feature",
      "geometry": {
        "type": "Point",
        "coordinates": [
          139.837111,
          36.335545
        ]
      },
      "properties": {
        "NO": 17778,
        "共通ID": "E0920800048121",
        "都道府県名及び市町村名": "栃木県小山市",
        "施設・場所名": "（福）洗心会サンフラワーケアセンター",
        "住所": "栃木県小山市出井1933-1",
        "指定緊急避難場所との住所同一": "",
        "その他市町村長が必要と認める事項": null,
        "受入対象者": "要配慮者",
        "備考": ""
      }
    },
    {
      "type": "Feature",
      "geometry": {
        "type": "Point",
        "coordinates": [
          139.836323,
          36.334836
        ]
      },
      "properties": {
        "NO": 17779,
        "共通ID": "E0920800049121",
        "都道府県名及び市町村名": "栃木県小山市",
        "施設・場所名": "（福）洗心会サンフラワー療護園",
        "住所": "栃木県小山市出井1936",
        "指定緊急避難場所との住所同一": "",
        "その他市町村長が必要と認める事項": null,
        "受入対象者": "要配慮者",
        "備考": ""
      }
    },
    {
      "type": "Feature",
      "geometry": {
        "type": "Point",
        "coordinates": [
          139.836422,
          36.335313
        ]
      },
      "properties": {
        "NO": 17780,
        "共通ID": "E0920800049122",
        "都道府県名及び市町村名": "栃木県小山市",
        "施設・場所名": "（福）洗心会サンフラワーショートステイ",
        "住所": "栃木県小山市出井1936",
        "指定緊急避難場所との住所同一": "",
        "その他市町村長が必要と認める事項": null,
        "受入対象者": "要配慮者",
        "備考": ""
      }
    },
    {
      "type": "Feature",
      "geometry": {
        "type": "Point",
        "coordinates": [
          139.836987,
          36.334525
        ]
      },
      "properties": {
        "NO": 17781,
        "共通ID": "E0920800050121",
        "都道府県名及び市町村名": "栃木県小山市",
        "施設・場所名": "（福）洗心会サンフラワーガーデン",
        "住所": "栃木県小山市出井1938",
        "指定緊急避難場所との住所同一": "",
        "その他市町村長が必要と認める事項": null,
        "受入対象者": "要配慮者",
        "備考": ""
      }
    },
    {
      "type": "Feature",
      "geometry": {
        "type": "Point",
        "coordinates": [
          139.83711,
          36.333779
        ]
      },
      "properties": {
        "NO": 17782,
        "共通ID": "E0920800051121",
        "都道府県名及び市町村名": "栃木県小山市",
        "施設・場所名": "（福）洗心会サンフラワーグリーンホーム",
        "住所": "栃木県小山市出井1939",
        "指定緊急避難場所との住所同一": "",
        "その他市町村長が必要と認める事項": null,
        "受入対象者": "要配慮者",
        "備考": ""
      }
    },
    {
      "type": "Feature",
      "geometry": {
        "type": "Point",
        "coordinates": [
          139.818168,
          36.30152
        ]
      },
      "properties": {
        "NO": 17783,
        "共通ID": "E0920800052121",
        "都道府県名及び市町村名": "栃木県小山市",
        "施設・場所名": "（福）延寿会春わらう舎",
        "住所": "栃木県小山市小山1509-1",
        "指定緊急避難場所との住所同一": "",
        "その他市町村長が必要と認める事項": null,
        "受入対象者": "要配慮者",
        "備考": ""
      }
    },
    {
      "type": "Feature",
      "geometry": {
        "type": "Point",
        "coordinates": [
          139.781745,
          36.346318
        ]
      },
      "properties": {
        "NO": 17784,
        "共通ID": "E0920800053111",
        "都道府県名及び市町村名": "栃木県小山市",
        "施設・場所名": "豊田中学校",
        "住所": "栃木県小山市松沼397",
        "指定緊急避難場所との住所同一": "1",
        "その他市町村長が必要と認める事項": "",
        "受入対象者": "",
        "備考": ""
      }
    },
    {
      "type": "Feature",
      "geometry": {
        "type": "Point",
        "coordinates": [
          139.78375,
          36.347651
        ]
      },
      "properties": {
        "NO": 17785,
        "共通ID": "E0920800054111",
        "都道府県名及び市町村名": "栃木県小山市",
        "施設・場所名": "豊田小学校",
        "住所": "栃木県小山市松沼416-1",
        "指定緊急避難場所との住所同一": "1",
        "その他市町村長が必要と認める事項": "",
        "受入対象者": "",
        "備考": ""
      }
    },
    {
      "type": "Feature",
      "geometry": {
        "type": "Point",
        "coordinates": [
          139.768866,
          36.351806
        ]
      },
      "properties": {
        "NO": 17786,
        "共通ID": "E0920800056111",
        "都道府県名及び市町村名": "栃木県小山市",
        "施設・場所名": "小山西高等学校",
        "住所": "栃木県小山市松沼741",
        "指定緊急避難場所との住所同一": "1",
        "その他市町村長が必要と認める事項": "",
        "受入対象者": "",
        "備考": ""
      }
    },
    {
      "type": "Feature",
      "geometry": {
        "type": "Point",
        "coordinates": [
          139.776337,
          36.332613
        ]
      },
      "properties": {
        "NO": 17787,
        "共通ID": "E0920800057121",
        "都道府県名及び市町村名": "栃木県小山市",
        "施設・場所名": "（福）薫風会富士見荘",
        "住所": "栃木県小山市上石塚15",
        "指定緊急避難場所との住所同一": "",
        "その他市町村長が必要と認める事項": null,
        "受入対象者": "要配慮者",
        "備考": ""
      }
    },
    {
      "type": "Feature",
      "geometry": {
        "type": "Point",
        "coordinates": [
          139.803378,
          36.314939
        ]
      },
      "properties": {
        "NO": 17788,
        "共通ID": "E0920800059121",
        "都道府県名及び市町村名": "栃木県小山市",
        "施設・場所名": "（医）博愛会祇園荘",
        "住所": "栃木県小山市城山町2-7-18",
        "指定緊急避難場所との住所同一": "",
        "その他市町村長が必要と認める事項": null,
        "受入対象者": "要配慮者",
        "備考": ""
      }
    },
    {
      "type": "Feature",
      "geometry": {
        "type": "Point",
        "coordinates": [
          139.816042,
          36.307576
        ]
      },
      "properties": {
        "NO": 17789,
        "共通ID": "E0920800060111",
        "都道府県名及び市町村名": "栃木県小山市",
        "施設・場所名": "小山城東小学校",
        "住所": "栃木県小山市城東1-16-1",
        "指定緊急避難場所との住所同一": "1",
        "その他市町村長が必要と認める事項": "",
        "受入対象者": "",
        "備考": ""
      }
    },
    {
      "type": "Feature",
      "geometry": {
        "type": "Point",
        "coordinates": [
          139.820039,
          36.324238
        ]
      },
      "properties": {
        "NO": 17790,
        "共通ID": "E0920800062111",
        "都道府県名及び市町村名": "栃木県小山市",
        "施設・場所名": "小山城北小学校",
        "住所": "栃木県小山市城北5-18-1",
        "指定緊急避難場所との住所同一": "1",
        "その他市町村長が必要と認める事項": "",
        "受入対象者": "",
        "備考": ""
      }
    },
    {
      "type": "Feature",
      "geometry": {
        "type": "Point",
        "coordinates": [
          139.788085,
          36.296484
        ]
      },
      "properties": {
        "NO": 17791,
        "共通ID": "E0920800065111",
        "都道府県名及び市町村名": "栃木県小山市",
        "施設・場所名": "小山第三小学校",
        "住所": "栃木県小山市神鳥谷4-7-51",
        "指定緊急避難場所との住所同一": "1",
        "その他市町村長が必要と認める事項": "",
        "受入対象者": "",
        "備考": ""
      }
    },
    {
      "type": "Feature",
      "geometry": {
        "type": "Point",
        "coordinates": [
          139.803117,
          36.29303
        ]
      },
      "properties": {
        "NO": 17792,
        "共通ID": "E0920800066111",
        "都道府県名及び市町村名": "栃木県小山市",
        "施設・場所名": "小山城南高等学校",
        "住所": "栃木県小山市西城南4-26-1",
        "指定緊急避難場所との住所同一": "1",
        "その他市町村長が必要と認める事項": "",
        "受入対象者": "",
        "備考": ""
      }
    },
    {
      "type": "Feature",
      "geometry": {
        "type": "Point",
        "coordinates": [
          139.797979,
          36.294169
        ]
      },
      "properties": {
        "NO": 17793,
        "共通ID": "E0920800067111",
        "都道府県名及び市町村名": "栃木県小山市",
        "施設・場所名": "小山城南小学校",
        "住所": "栃木県小山市西城南5-29-1",
        "指定緊急避難場所との住所同一": "1",
        "その他市町村長が必要と認める事項": "",
        "受入対象者": "",
        "備考": ""
      }
    },
    {
      "type": "Feature",
      "geometry": {
        "type": "Point",
        "coordinates": [
          139.778062,
          36.338701
        ]
      },
      "properties": {
        "NO": 17794,
        "共通ID": "E0920800069121",
        "都道府県名及び市町村名": "栃木県小山市",
        "施設・場所名": "（医）さくら会さくら野",
        "住所": "栃木県小山市卒島110",
        "指定緊急避難場所との住所同一": "",
        "その他市町村長が必要と認める事項": null,
        "受入対象者": "要配慮者",
        "備考": ""
      }
    },
    {
      "type": "Feature",
      "geometry": {
        "type": "Point",
        "coordinates": [
          139.777542,
          36.338112
        ]
      },
      "properties": {
        "NO": 17795,
        "共通ID": "E0920800070121",
        "都道府県名及び市町村名": "栃木県小山市",
        "施設・場所名": "（医）さくら会グループホームさくらの家",
        "住所": "栃木県小山市卒島98",
        "指定緊急避難場所との住所同一": "",
        "その他市町村長が必要と認める事項": null,
        "受入対象者": "要配慮者",
        "備考": ""
      }
    },
    {
      "type": "Feature",
      "geometry": {
        "type": "Point",
        "coordinates": [
          139.793554,
          36.315761
        ]
      },
      "properties": {
        "NO": 17796,
        "共通ID": "E0920800071111",
        "都道府県名及び市町村名": "栃木県小山市",
        "施設・場所名": "白鷗大学大行寺キャンパス",
        "住所": "栃木県小山市大行寺1117",
        "指定緊急避難場所との住所同一": "1",
        "その他市町村長が必要と認める事項": "",
        "受入対象者": "",
        "備考": ""
      }
    },
    {
      "type": "Feature",
      "geometry": {
        "type": "Point",
        "coordinates": [
          139.785785,
          36.35891
        ]
      },
      "properties": {
        "NO": 17797,
        "共通ID": "E0920800072111",
        "都道府県名及び市町村名": "栃木県小山市",
        "施設・場所名": "旧豊田北小学校",
        "住所": "栃木県小山市大本808",
        "指定緊急避難場所との住所同一": "1",
        "その他市町村長が必要と認める事項": "",
        "受入対象者": "",
        "備考": ""
      }
    },
    {
      "type": "Feature",
      "geometry": {
        "type": "Point",
        "coordinates": [
          139.800072,
          36.313431
        ]
      },
      "properties": {
        "NO": 17798,
        "共通ID": "E0920800073111",
        "都道府県名及び市町村名": "栃木県小山市",
        "施設・場所名": "小山市立文化センター",
        "住所": "栃木県小山市中央町1-1-1",
        "指定緊急避難場所との住所同一": "1",
        "その他市町村長が必要と認める事項": "",
        "受入対象者": "",
        "備考": ""
      }
    },
    {
      "type": "Feature",
      "geometry": {
        "type": "Point",
        "coordinates": [
          139.834321,
          36.323592
        ]
      },
      "properties": {
        "NO": 17799,
        "共通ID": "E0920800075121",
        "都道府県名及び市町村名": "栃木県小山市",
        "施設・場所名": "（福）小山清風会しょうし苑",
        "住所": "栃木県小山市中久喜1273-1",
        "指定緊急避難場所との住所同一": "",
        "その他市町村長が必要と認める事項": null,
        "受入対象者": "要配慮者",
        "備考": ""
      }
    },
    {
      "type": "Feature",
      "geometry": {
        "type": "Point",
        "coordinates": [
          139.834262,
          36.322859
        ]
      },
      "properties": {
        "NO": 17800,
        "共通ID": "E0920800076121",
        "都道府県名及び市町村名": "栃木県小山市",
        "施設・場所名": "（福）小山清風会デイサービスセンターコスモス",
        "住所": "栃木県小山市中久喜1620-1",
        "指定緊急避難場所との住所同一": "",
        "その他市町村長が必要と認める事項": null,
        "受入対象者": "要配慮者",
        "備考": ""
      }
    },
    {
      "type": "Feature",
      "geometry": {
        "type": "Point",
        "coordinates": [
          139.842554,
          36.318565
        ]
      },
      "properties": {
        "NO": 17801,
        "共通ID": "E0920800077111",
        "都道府県名及び市町村名": "栃木県小山市",
        "施設・場所名": "小山工業高等専門学校",
        "住所": "栃木県小山市中久喜771",
        "指定緊急避難場所との住所同一": "1",
        "その他市町村長が必要と認める事項": "",
        "受入対象者": "",
        "備考": ""
      }
    },
    {
      "type": "Feature",
      "geometry": {
        "type": "Point",
        "coordinates": [
          139.735907,
          36.293093
        ]
      },
      "properties": {
        "NO": 17802,
        "共通ID": "E0920800078111",
        "都道府県名及び市町村名": "栃木県小山市",
        "施設・場所名": "寒川小学校",
        "住所": "栃木県小山市中里861",
        "指定緊急避難場所との住所同一": "1",
        "その他市町村長が必要と認める事項": "",
        "受入対象者": "",
        "備考": ""
      }
    },
    {
      "type": "Feature",
      "geometry": {
        "type": "Point",
        "coordinates": [
          139.804053,
          36.273301
        ]
      },
      "properties": {
        "NO": 17803,
        "共通ID": "E0920800079111",
        "都道府県名及び市町村名": "栃木県小山市",
        "施設・場所名": "小山市立体育館（小山思いの森敷地内）",
        "住所": "栃木県小山市塚崎1408-1",
        "指定緊急避難場所との住所同一": "1",
        "その他市町村長が必要と認める事項": "",
        "受入対象者": "",
        "備考": ""
      }
    },
    {
      "type": "Feature",
      "geometry": {
        "type": "Point",
        "coordinates": [
          139.81476,
          36.262926
        ]
      },
      "properties": {
        "NO": 17804,
        "共通ID": "E0920800080121",
        "都道府県名及び市町村名": "栃木県小山市",
        "施設・場所名": "（福）丹緑会栗林荘",
        "住所": "栃木県小山市塚崎463-1",
        "指定緊急避難場所との住所同一": "",
        "その他市町村長が必要と認める事項": null,
        "受入対象者": "要配慮者",
        "備考": ""
      }
    },
    {
      "type": "Feature",
      "geometry": {
        "type": "Point",
        "coordinates": [
          139.798252,
          36.306219
        ]
      },
      "properties": {
        "NO": 17805,
        "共通ID": "E0920800081111",
        "都道府県名及び市町村名": "栃木県小山市",
        "施設・場所名": "小山第二中学校",
        "住所": "栃木県小山市天神町1-6-36",
        "指定緊急避難場所との住所同一": "1",
        "その他市町村長が必要と認める事項": "",
        "受入対象者": "",
        "備考": ""
      }
    },
    {
      "type": "Feature",
      "geometry": {
        "type": "Point",
        "coordinates": [
          139.865565,
          36.355349
        ]
      },
      "properties": {
        "NO": 17806,
        "共通ID": "E0920800082111",
        "都道府県名及び市町村名": "栃木県小山市",
        "施設・場所名": "小山北桜高等学校",
        "住所": "栃木県小山市東山田448-29",
        "指定緊急避難場所との住所同一": "1",
        "その他市町村長が必要と認める事項": "",
        "受入対象者": "",
        "備考": ""
      }
    },
    {
      "type": "Feature",
      "geometry": {
        "type": "Point",
        "coordinates": [
          139.81068,
          36.295355
        ]
      },
      "properties": {
        "NO": 17807,
        "共通ID": "E0920800083111",
        "都道府県名及び市町村名": "栃木県小山市",
        "施設・場所名": "小山城南中学校",
        "住所": "栃木県小山市東城南1-22-9",
        "指定緊急避難場所との住所同一": "1",
        "その他市町村長が必要と認める事項": "",
        "受入対象者": "",
        "備考": ""
      }
    },
    {
      "type": "Feature",
      "geometry": {
        "type": "Point",
        "coordinates": [
          139.81493,
          36.292749
        ]
      },
      "properties": {
        "NO": 17808,
        "共通ID": "E0920800085111",
        "都道府県名及び市町村名": "栃木県小山市",
        "施設・場所名": "東城南小学校",
        "住所": "栃木県小山市東城南3-9-5",
        "指定緊急避難場所との住所同一": "1",
        "その他市町村長が必要と認める事項": "",
        "受入対象者": "",
        "備考": ""
      }
    },
    {
      "type": "Feature",
      "geometry": {
        "type": "Point",
        "coordinates": [
          139.807859,
          36.293197
        ]
      },
      "properties": {
        "NO": 17809,
        "共通ID": "E0920800086111",
        "都道府県名及び市町村名": "栃木県小山市",
        "施設・場所名": "小山城南市民交流センター",
        "住所": "栃木県小山市東城南4-1-12",
        "指定緊急避難場所との住所同一": "1",
        "その他市町村長が必要と認める事項": "",
        "受入対象者": "",
        "備考": ""
      }
    },
    {
      "type": "Feature",
      "geometry": {
        "type": "Point",
        "coordinates": [
          139.810302,
          36.350114
        ]
      },
      "properties": {
        "NO": 17810,
        "共通ID": "E0920800088121",
        "都道府県名及び市町村名": "栃木県小山市",
        "施設・場所名": "（福）ソフィア会えいぶるの里",
        "住所": "栃木県小山市東島田2403-2",
        "指定緊急避難場所との住所同一": "",
        "その他市町村長が必要と認める事項": null,
        "受入対象者": "要配慮者",
        "備考": ""
      }
    },
    {
      "type": "Feature",
      "geometry": {
        "type": "Point",
        "coordinates": [
          139.805057,
          36.253172
        ]
      },
      "properties": {
        "NO": 17811,
        "共通ID": "E0920800089111",
        "都道府県名及び市町村名": "栃木県小山市",
        "施設・場所名": "大谷南小学校",
        "住所": "栃木県小山市東野田2147",
        "指定緊急避難場所との住所同一": "1",
        "その他市町村長が必要と認める事項": "",
        "受入対象者": "",
        "備考": ""
      }
    },
    {
      "type": "Feature",
      "geometry": {
        "type": "Point",
        "coordinates": [
          139.799264,
          36.246636
        ]
      },
      "properties": {
        "NO": 17812,
        "共通ID": "E0920800090121",
        "都道府県名及び市町村名": "栃木県小山市",
        "施設・場所名": "（福）紫雲会花見ヶ丘学園",
        "住所": "栃木県小山市東野田635",
        "指定緊急避難場所との住所同一": "",
        "その他市町村長が必要と認める事項": null,
        "受入対象者": "要配慮者",
        "備考": ""
      }
    },
    {
      "type": "Feature",
      "geometry": {
        "type": "Point",
        "coordinates": [
          139.738247,
          36.318041
        ]
      },
      "properties": {
        "NO": 17813,
        "共通ID": "E0920800091111",
        "都道府県名及び市町村名": "栃木県小山市",
        "施設・場所名": "中小学校",
        "住所": "栃木県小山市南小林109",
        "指定緊急避難場所との住所同一": "1",
        "その他市町村長が必要と認める事項": "",
        "受入対象者": "",
        "備考": ""
      }
    },
    {
      "type": "Feature",
      "geometry": {
        "type": "Point",
        "coordinates": [
          139.768703,
          36.245989
        ]
      },
      "properties": {
        "NO": 17814,
        "共通ID": "E0920800092121",
        "都道府県名及び市町村名": "栃木県小山市",
        "施設・場所名": "（医）信誠会苅部太陽の家",
        "住所": "栃木県小山市南飯田317-5",
        "指定緊急避難場所との住所同一": "",
        "その他市町村長が必要と認める事項": null,
        "受入対象者": "要配慮者",
        "備考": ""
      }
    },
    {
      "type": "Feature",
      "geometry": {
        "type": "Point",
        "coordinates": [
          139.771803,
          36.312286
        ]
      },
      "properties": {
        "NO": 17815,
        "共通ID": "E0920800093111",
        "都道府県名及び市町村名": "栃木県小山市",
        "施設・場所名": "穂積小学校",
        "住所": "栃木県小山市萩島27",
        "指定緊急避難場所との住所同一": "1",
        "その他市町村長が必要と認める事項": "",
        "受入対象者": "",
        "備考": ""
      }
    },
    {
      "type": "Feature",
      "geometry": {
        "type": "Point",
        "coordinates": [
          139.895377,
          36.32917
        ]
      },
      "properties": {
        "NO": 17816,
        "共通ID": "E0920800095111",
        "都道府県名及び市町村名": "栃木県小山市",
        "施設・場所名": "絹義務教育学校・西校舎",
        "住所": "栃木県小山市福良2240-1",
        "指定緊急避難場所との住所同一": "1",
        "その他市町村長が必要と認める事項": "",
        "受入対象者": "",
        "備考": ""
      }
    },
    {
      "type": "Feature",
      "geometry": {
        "type": "Point",
        "coordinates": [
          139.896309,
          36.330431
        ]
      },
      "properties": {
        "NO": 17817,
        "共通ID": "E0920800096111",
        "都道府県名及び市町村名": "栃木県小山市",
        "施設・場所名": "絹義務教育学校・東校舎",
        "住所": "栃木県小山市福良2246",
        "指定緊急避難場所との住所同一": "1",
        "その他市町村長が必要と認める事項": "",
        "受入対象者": "",
        "備考": ""
      }
    },
    {
      "type": "Feature",
      "geometry": {
        "type": "Point",
        "coordinates": [
          139.773978,
          36.256383
        ]
      },
      "properties": {
        "NO": 17818,
        "共通ID": "E0920800097121",
        "都道府県名及び市町村名": "栃木県小山市",
        "施設・場所名": "（福）孝友会ひらわの郷",
        "住所": "栃木県小山市平和256",
        "指定緊急避難場所との住所同一": "",
        "その他市町村長が必要と認める事項": null,
        "受入対象者": "要配慮者",
        "備考": ""
      }
    },
    {
      "type": "Feature",
      "geometry": {
        "type": "Point",
        "coordinates": [
          139.773749,
          36.256017
        ]
      },
      "properties": {
        "NO": 17819,
        "共通ID": "E0920800098121",
        "都道府県名及び市町村名": "栃木県小山市",
        "施設・場所名": "（福）孝友会グループホームひらわ",
        "住所": "栃木県小山市平和263-4",
        "指定緊急避難場所との住所同一": "",
        "その他市町村長が必要と認める事項": null,
        "受入対象者": "要配慮者",
        "備考": ""
      }
    },
    {
      "type": "Feature",
      "geometry": {
        "type": "Point",
        "coordinates": [
          139.805037,
          36.320169
        ]
      },
      "properties": {
        "NO": 17820,
        "共通ID": "E0920800099121",
        "都道府県名及び市町村名": "栃木県小山市",
        "施設・場所名": "（ＮＰＯ）小山そよかぜ小山ひまわり",
        "住所": "栃木県小山市本郷町2-8-21",
        "指定緊急避難場所との住所同一": "",
        "その他市町村長が必要と認める事項": null,
        "受入対象者": "要配慮者",
        "備考": ""
      }
    },
    {
      "type": "Feature",
      "geometry": {
        "type": "Point",
        "coordinates": [
          139.743129,
          36.270782
        ]
      },
      "properties": {
        "NO": 17821,
        "共通ID": "E0920800100111",
        "都道府県名及び市町村名": "栃木県小山市",
        "施設・場所名": "旧網戸小学校",
        "住所": "栃木県小山市網戸1514",
        "指定緊急避難場所との住所同一": "1",
        "その他市町村長が必要と認める事項": "",
        "受入対象者": "",
        "備考": ""
      }
    },
    {
      "type": "Feature",
      "geometry": {
        "type": "Point",
        "coordinates": [
          139.89121,
          36.313392
        ]
      },
      "properties": {
        "NO": 17822,
        "共通ID": "E0920800101111",
        "都道府県名及び市町村名": "栃木県小山市",
        "施設・場所名": "小山ベースボールビレッジ（旧梁小学校）",
        "住所": "栃木県小山市梁67",
        "指定緊急避難場所との住所同一": "1",
        "その他市町村長が必要と認める事項": "",
        "受入対象者": "",
        "備考": ""
      }
    }
  ]
}