{
  "type": "FeatureCollection",
  "name": "092037",
  "features": [
    {
      "type": "Feature",
      "geometry": {
        "type": "Point",
        "coordinates": [
          139.737347,
          36.377147
        ]
      },
      "properties": {
        "NO": 17445,
        "共通ID": "E0920300001111",
        "都道府県名及び市町村名": "栃木県栃木市",
        "施設・場所名": "とちぎ岩下の新生姜ホール（栃木文化会館）",
        "住所": "栃木県栃木市旭町12-16",
        "指定緊急避難場所との住所同一": "1",
        "その他市町村長が必要と認める事項": "",
        "受入対象者": "",
        "備考": ""
      }
    },
    {
      "type": "Feature",
      "geometry": {
        "type": "Point",
        "coordinates": [
          139.722146,
          36.377686
        ]
      },
      "properties": {
        "NO": 17446,
        "共通ID": "E0920300002111",
        "都道府県名及び市町村名": "栃木県栃木市",
        "施設・場所名": "栃木女子高校",
        "住所": "栃木県栃木市薗部町1-2-5",
        "指定緊急避難場所との住所同一": "1",
        "その他市町村長が必要と認める事項": "",
        "受入対象者": "",
        "備考": ""
      }
    },
    {
      "type": "Feature",
      "geometry": {
        "type": "Point",
        "coordinates": [
          139.717774,
          36.376437
        ]
      },
      "properties": {
        "NO": 17447,
        "共通ID": "E0920300003111",
        "都道府県名及び市町村名": "栃木県栃木市",
        "施設・場所名": "とちぎ西部生きがいセンター（老人福祉センター長寿園、第６コミュニティセンター）",
        "住所": "栃木県栃木市薗部町2-14-9",
        "指定緊急避難場所との住所同一": "1",
        "その他市町村長が必要と認める事項": "",
        "受入対象者": "",
        "備考": ""
      }
    },
    {
      "type": "Feature",
      "geometry": {
        "type": "Point",
        "coordinates": [
          139.712836,
          36.374205
        ]
      },
      "properties": {
        "NO": 17448,
        "共通ID": "E0920300004111",
        "都道府県名及び市町村名": "栃木県栃木市",
        "施設・場所名": "栃木第五小学校",
        "住所": "栃木県栃木市薗部町2-7-25",
        "指定緊急避難場所との住所同一": "1",
        "その他市町村長が必要と認める事項": "",
        "受入対象者": "",
        "備考": ""
      }
    },
    {
      "type": "Feature",
      "geometry": {
        "type": "Point",
        "coordinates": [
          139.681253,
          36.392743
        ]
      },
      "properties": {
        "NO": 17449,
        "共通ID": "E0920300005111",
        "都道府県名及び市町村名": "栃木県栃木市",
        "施設・場所名": "皆川中学校",
        "住所": "栃木県栃木市皆川城内町1856",
        "指定緊急避難場所との住所同一": "1",
        "その他市町村長が必要と認める事項": "",
        "受入対象者": "",
        "備考": ""
      }
    },
    {
      "type": "Feature",
      "geometry": {
        "type": "Point",
        "coordinates": [
          139.691868,
          36.398264
        ]
      },
      "properties": {
        "NO": 17450,
        "共通ID": "E0920300006111",
        "都道府県名及び市町村名": "栃木県栃木市",
        "施設・場所名": "皆川城東小学校",
        "住所": "栃木県栃木市皆川城内町486",
        "指定緊急避難場所との住所同一": "1",
        "その他市町村長が必要と認める事項": "",
        "受入対象者": "",
        "備考": ""
      }
    },
    {
      "type": "Feature",
      "geometry": {
        "type": "Point",
        "coordinates": [
          139.682422,
          36.395456
        ]
      },
      "properties": {
        "NO": 17451,
        "共通ID": "E0920300007111",
        "都道府県名及び市町村名": "栃木県栃木市",
        "施設・場所名": "皆川公民館",
        "住所": "栃木県栃木市皆川城内町699",
        "指定緊急避難場所との住所同一": "1",
        "その他市町村長が必要と認める事項": "",
        "受入対象者": "",
        "備考": ""
      }
    },
    {
      "type": "Feature",
      "geometry": {
        "type": "Point",
        "coordinates": [
          139.634436,
          36.309684
        ]
      },
      "properties": {
        "NO": 17452,
        "共通ID": "E0920300008111",
        "都道府県名及び市町村名": "栃木県栃木市",
        "施設・場所名": "岩舟農村環境改善センター（こなら館）",
        "住所": "栃木県栃木市岩舟町下津原1572-1",
        "指定緊急避難場所との住所同一": "1",
        "その他市町村長が必要と認める事項": "",
        "受入対象者": "",
        "備考": ""
      }
    },
    {
      "type": "Feature",
      "geometry": {
        "type": "Point",
        "coordinates": [
          139.647643,
          36.339153
        ]
      },
      "properties": {
        "NO": 17453,
        "共通ID": "E0920300010111",
        "都道府県名及び市町村名": "栃木県栃木市",
        "施設・場所名": "ＣＩＴＹ　ＧＹＭ＆ＳＰＡ遊楽々館（岩舟健康福祉センター）",
        "住所": "栃木県栃木市岩舟町三谷1038-1",
        "指定緊急避難場所との住所同一": "1",
        "その他市町村長が必要と認める事項": "",
        "受入対象者": "",
        "備考": ""
      }
    },
    {
      "type": "Feature",
      "geometry": {
        "type": "Point",
        "coordinates": [
          139.624928,
          36.361742
        ]
      },
      "properties": {
        "NO": 17454,
        "共通ID": "E0920300011111",
        "都道府県名及び市町村名": "栃木県栃木市",
        "施設・場所名": "小野寺地区公民館",
        "住所": "栃木県栃木市岩舟町小野寺2071-1",
        "指定緊急避難場所との住所同一": "1",
        "その他市町村長が必要と認める事項": null,
        "受入対象者": null,
        "備考": ""
      }
    },
    {
      "type": "Feature",
      "geometry": {
        "type": "Point",
        "coordinates": [
          139.638597,
          36.332481
        ]
      },
      "properties": {
        "NO": 17455,
        "共通ID": "E0920300013111",
        "都道府県名及び市町村名": "栃木県栃木市",
        "施設・場所名": "小野寺ふれあい館",
        "住所": "栃木県栃木市岩舟町新里606",
        "指定緊急避難場所との住所同一": "1",
        "その他市町村長が必要と認める事項": "",
        "受入対象者": "",
        "備考": ""
      }
    },
    {
      "type": "Feature",
      "geometry": {
        "type": "Point",
        "coordinates": [
          139.655541,
          36.314658
        ]
      },
      "properties": {
        "NO": 17456,
        "共通ID": "E0920300014111",
        "都道府県名及び市町村名": "栃木県栃木市",
        "施設・場所名": "岩舟小学校",
        "住所": "栃木県栃木市岩舟町静1400-1",
        "指定緊急避難場所との住所同一": "1",
        "その他市町村長が必要と認める事項": "",
        "受入対象者": "",
        "備考": ""
      }
    },
    {
      "type": "Feature",
      "geometry": {
        "type": "Point",
        "coordinates": [
          139.66462,
          36.317066
        ]
      },
      "properties": {
        "NO": 17457,
        "共通ID": "E0920300015111",
        "都道府県名及び市町村名": "栃木県栃木市",
        "施設・場所名": "岩舟公民館",
        "住所": "栃木県栃木市岩舟町静2292-1",
        "指定緊急避難場所との住所同一": "1",
        "その他市町村長が必要と認める事項": "",
        "受入対象者": "",
        "備考": ""
      }
    },
    {
      "type": "Feature",
      "geometry": {
        "type": "Point",
        "coordinates": [
          139.665446,
          36.316362
        ]
      },
      "properties": {
        "NO": 17458,
        "共通ID": "E0920300016111",
        "都道府県名及び市町村名": "栃木県栃木市",
        "施設・場所名": "岩舟文化会館（コスモスホール）",
        "住所": "栃木県栃木市岩舟町静2303",
        "指定緊急避難場所との住所同一": "1",
        "その他市町村長が必要と認める事項": "",
        "受入対象者": "",
        "備考": ""
      }
    },
    {
      "type": "Feature",
      "geometry": {
        "type": "Point",
        "coordinates": [
          139.663825,
          36.322906
        ]
      },
      "properties": {
        "NO": 17459,
        "共通ID": "E0920300017111",
        "都道府県名及び市町村名": "栃木県栃木市",
        "施設・場所名": "岩舟中学校",
        "住所": "栃木県栃木市岩舟町静389-1",
        "指定緊急避難場所との住所同一": "1",
        "その他市町村長が必要と認める事項": "",
        "受入対象者": "",
        "備考": ""
      }
    },
    {
      "type": "Feature",
      "geometry": {
        "type": "Point",
        "coordinates": [
          139.684791,
          36.315421
        ]
      },
      "properties": {
        "NO": 17460,
        "共通ID": "E0920300018111",
        "都道府県名及び市町村名": "栃木県栃木市",
        "施設・場所名": "静和地区公民館",
        "住所": "栃木県栃木市岩舟町静和2170-1",
        "指定緊急避難場所との住所同一": "1",
        "その他市町村長が必要と認める事項": "",
        "受入対象者": "",
        "備考": ""
      }
    },
    {
      "type": "Feature",
      "geometry": {
        "type": "Point",
        "coordinates": [
          139.680207,
          36.316296
        ]
      },
      "properties": {
        "NO": 17461,
        "共通ID": "E0920300020111",
        "都道府県名及び市町村名": "栃木県栃木市",
        "施設・場所名": "静和小学校",
        "住所": "栃木県栃木市岩舟町静和2432",
        "指定緊急避難場所との住所同一": "1",
        "その他市町村長が必要と認める事項": "",
        "受入対象者": "",
        "備考": ""
      }
    },
    {
      "type": "Feature",
      "geometry": {
        "type": "Point",
        "coordinates": [
          139.707133,
          36.384431
        ]
      },
      "properties": {
        "NO": 17462,
        "共通ID": "E0920300021111",
        "都道府県名及び市町村名": "栃木県栃木市",
        "施設・場所名": "栃木工業高校",
        "住所": "栃木県栃木市岩出町129",
        "指定緊急避難場所との住所同一": "1",
        "その他市町村長が必要と認める事項": "",
        "受入対象者": "",
        "備考": ""
      }
    },
    {
      "type": "Feature",
      "geometry": {
        "type": "Point",
        "coordinates": [
          139.77971,
          36.388277
        ]
      },
      "properties": {
        "NO": 17463,
        "共通ID": "E0920300022111",
        "都道府県名及び市町村名": "栃木県栃木市",
        "施設・場所名": "国府南小学校",
        "住所": "栃木県栃木市寄居町949-3",
        "指定緊急避難場所との住所同一": "1",
        "その他市町村長が必要と認める事項": "",
        "受入対象者": "",
        "備考": ""
      }
    },
    {
      "type": "Feature",
      "geometry": {
        "type": "Point",
        "coordinates": [
          139.74943,
          36.384259
        ]
      },
      "properties": {
        "NO": 17464,
        "共通ID": "E0920300023111",
        "都道府県名及び市町村名": "栃木県栃木市",
        "施設・場所名": "勤労者総合福祉センター",
        "住所": "栃木県栃木市今泉町1-2-7",
        "指定緊急避難場所との住所同一": "1",
        "その他市町村長が必要と認める事項": "",
        "受入対象者": "",
        "備考": ""
      }
    },
    {
      "type": "Feature",
      "geometry": {
        "type": "Point",
        "coordinates": [
          139.749016,
          36.384149
        ]
      },
      "properties": {
        "NO": 17465,
        "共通ID": "E0920300023112",
        "都道府県名及び市町村名": "栃木県栃木市",
        "施設・場所名": "老人福祉センター泉寿園",
        "住所": "栃木県栃木市今泉町1-2-7",
        "指定緊急避難場所との住所同一": "1",
        "その他市町村長が必要と認める事項": "",
        "受入対象者": "",
        "備考": ""
      }
    },
    {
      "type": "Feature",
      "geometry": {
        "type": "Point",
        "coordinates": [
          139.745899,
          36.380972
        ]
      },
      "properties": {
        "NO": 17466,
        "共通ID": "E0920300024111",
        "都道府県名及び市町村名": "栃木県栃木市",
        "施設・場所名": "栃木保健福祉センター",
        "住所": "栃木県栃木市今泉町2-1-40",
        "指定緊急避難場所との住所同一": "1",
        "その他市町村長が必要と認める事項": "",
        "受入対象者": "",
        "備考": ""
      }
    },
    {
      "type": "Feature",
      "geometry": {
        "type": "Point",
        "coordinates": [
          139.73073,
          36.390017
        ]
      },
      "properties": {
        "NO": 17467,
        "共通ID": "E0920300026111",
        "都道府県名及び市町村名": "栃木県栃木市",
        "施設・場所名": "栃木第三小学校",
        "住所": "栃木県栃木市小平町13-39",
        "指定緊急避難場所との住所同一": "1",
        "その他市町村長が必要と認める事項": "",
        "受入対象者": "",
        "備考": ""
      }
    },
    {
      "type": "Feature",
      "geometry": {
        "type": "Point",
        "coordinates": [
          139.734639,
          36.372746
        ]
      },
      "properties": {
        "NO": 17468,
        "共通ID": "E0920300027111",
        "都道府県名及び市町村名": "栃木県栃木市",
        "施設・場所名": "学悠館高校",
        "住所": "栃木県栃木市沼和田町2-2",
        "指定緊急避難場所との住所同一": "1",
        "その他市町村長が必要と認める事項": "",
        "受入対象者": "",
        "備考": ""
      }
    },
    {
      "type": "Feature",
      "geometry": {
        "type": "Point",
        "coordinates": [
          139.739127,
          36.364078
        ]
      },
      "properties": {
        "NO": 17469,
        "共通ID": "E0920300028111",
        "都道府県名及び市町村名": "栃木県栃木市",
        "施設・場所名": "南小学校",
        "住所": "栃木県栃木市沼和田町38-10",
        "指定緊急避難場所との住所同一": "1",
        "その他市町村長が必要と認める事項": "",
        "受入対象者": "",
        "備考": ""
      }
    },
    {
      "type": "Feature",
      "geometry": {
        "type": "Point",
        "coordinates": [
          139.74143,
          36.376138
        ]
      },
      "properties": {
        "NO": 17470,
        "共通ID": "E0920300029111",
        "都道府県名及び市町村名": "栃木県栃木市",
        "施設・場所名": "栃木第四小学校",
        "住所": "栃木県栃木市城内町1-3-15",
        "指定緊急避難場所との住所同一": "1",
        "その他市町村長が必要と認める事項": "",
        "受入対象者": "",
        "備考": ""
      }
    },
    {
      "type": "Feature",
      "geometry": {
        "type": "Point",
        "coordinates": [
          139.719976,
          36.411451
        ]
      },
      "properties": {
        "NO": 17471,
        "共通ID": "E0920300031111",
        "都道府県名及び市町村名": "栃木県栃木市",
        "施設・場所名": "吹上小学校",
        "住所": "栃木県栃木市吹上町115",
        "指定緊急避難場所との住所同一": "1",
        "その他市町村長が必要と認める事項": "",
        "受入対象者": "",
        "備考": ""
      }
    },
    {
      "type": "Feature",
      "geometry": {
        "type": "Point",
        "coordinates": [
          139.708552,
          36.41406
        ]
      },
      "properties": {
        "NO": 17472,
        "共通ID": "E0920300032111",
        "都道府県名及び市町村名": "栃木県栃木市",
        "施設・場所名": "吹上中学校",
        "住所": "栃木県栃木市吹上町434-1",
        "指定緊急避難場所との住所同一": "1",
        "その他市町村長が必要と認める事項": "",
        "受入対象者": "",
        "備考": ""
      }
    },
    {
      "type": "Feature",
      "geometry": {
        "type": "Point",
        "coordinates": [
          139.705033,
          36.410652
        ]
      },
      "properties": {
        "NO": 17473,
        "共通ID": "E0920300033111",
        "都道府県名及び市町村名": "栃木県栃木市",
        "施設・場所名": "吹上公民館",
        "住所": "栃木県栃木市吹上町782-1",
        "指定緊急避難場所との住所同一": "1",
        "その他市町村長が必要と認める事項": "",
        "受入対象者": "",
        "備考": ""
      }
    },
    {
      "type": "Feature",
      "geometry": {
        "type": "Point",
        "coordinates": [
          139.734905,
          36.465306
        ]
      },
      "properties": {
        "NO": 17474,
        "共通ID": "E0920300037111",
        "都道府県名及び市町村名": "栃木県栃木市",
        "施設・場所名": "西方小学校",
        "住所": "栃木県栃木市西方町元770",
        "指定緊急避難場所との住所同一": "1",
        "その他市町村長が必要と認める事項": "",
        "受入対象者": "",
        "備考": ""
      }
    },
    {
      "type": "Feature",
      "geometry": {
        "type": "Point",
        "coordinates": [
          139.733317,
          36.461013
        ]
      },
      "properties": {
        "NO": 17475,
        "共通ID": "E0920300038111",
        "都道府県名及び市町村名": "栃木県栃木市",
        "施設・場所名": "西方中学校",
        "住所": "栃木県栃木市西方町元908-1",
        "指定緊急避難場所との住所同一": "1",
        "その他市町村長が必要と認める事項": "",
        "受入対象者": "",
        "備考": ""
      }
    },
    {
      "type": "Feature",
      "geometry": {
        "type": "Point",
        "coordinates": [
          139.701238,
          36.472424
        ]
      },
      "properties": {
        "NO": 17476,
        "共通ID": "E0920300039111",
        "都道府県名及び市町村名": "栃木県栃木市",
        "施設・場所名": "真名子夢ホール",
        "住所": "栃木県栃木市西方町真名子1086-1",
        "指定緊急避難場所との住所同一": "1",
        "その他市町村長が必要と認める事項": "",
        "受入対象者": "",
        "備考": ""
      }
    },
    {
      "type": "Feature",
      "geometry": {
        "type": "Point",
        "coordinates": [
          139.699961,
          36.472497
        ]
      },
      "properties": {
        "NO": 17477,
        "共通ID": "E0920300040111",
        "都道府県名及び市町村名": "栃木県栃木市",
        "施設・場所名": "真名子小学校",
        "住所": "栃木県栃木市西方町真名子1089-1",
        "指定緊急避難場所との住所同一": "1",
        "その他市町村長が必要と認める事項": "",
        "受入対象者": "",
        "備考": ""
      }
    },
    {
      "type": "Feature",
      "geometry": {
        "type": "Point",
        "coordinates": [
          139.739746,
          36.454638
        ]
      },
      "properties": {
        "NO": 17478,
        "共通ID": "E0920300041111",
        "都道府県名及び市町村名": "栃木県栃木市",
        "施設・場所名": "関東ホーチキにしかた体育館（西方総合文化体育館）",
        "住所": "栃木県栃木市西方町本郷1705-1",
        "指定緊急避難場所との住所同一": "1",
        "その他市町村長が必要と認める事項": "",
        "受入対象者": "",
        "備考": ""
      }
    },
    {
      "type": "Feature",
      "geometry": {
        "type": "Point",
        "coordinates": [
          139.744633,
          36.467079
        ]
      },
      "properties": {
        "NO": 17479,
        "共通ID": "E0920300043111",
        "都道府県名及び市町村名": "栃木県栃木市",
        "施設・場所名": "北部健康福祉センター（ゆったり～な）",
        "住所": "栃木県栃木市西方町本城2-1",
        "指定緊急避難場所との住所同一": "1",
        "その他市町村長が必要と認める事項": "",
        "受入対象者": "",
        "備考": ""
      }
    },
    {
      "type": "Feature",
      "geometry": {
        "type": "Point",
        "coordinates": [
          139.692842,
          36.415572
        ]
      },
      "properties": {
        "NO": 17480,
        "共通ID": "E0920300044111",
        "都道府県名及び市町村名": "栃木県栃木市",
        "施設・場所名": "老人福祉センター福寿園",
        "住所": "栃木県栃木市千塚町210",
        "指定緊急避難場所との住所同一": "1",
        "その他市町村長が必要と認める事項": "",
        "受入対象者": "",
        "備考": ""
      }
    },
    {
      "type": "Feature",
      "geometry": {
        "type": "Point",
        "coordinates": [
          139.725705,
          36.40015
        ]
      },
      "properties": {
        "NO": 17481,
        "共通ID": "E0920300045111",
        "都道府県名及び市町村名": "栃木県栃木市",
        "施設・場所名": "マルワ・アリーナとちぎ（栃木市総合体育館）",
        "住所": "栃木県栃木市川原田町760",
        "指定緊急避難場所との住所同一": "1",
        "その他市町村長が必要と認める事項": "",
        "受入対象者": "",
        "備考": ""
      }
    },
    {
      "type": "Feature",
      "geometry": {
        "type": "Point",
        "coordinates": [
          139.777911,
          36.401691
        ]
      },
      "properties": {
        "NO": 17482,
        "共通ID": "E0920300046111",
        "都道府県名及び市町村名": "栃木県栃木市",
        "施設・場所名": "国府公民館",
        "住所": "栃木県栃木市惣社町228-1",
        "指定緊急避難場所との住所同一": "1",
        "その他市町村長が必要と認める事項": "",
        "受入対象者": "",
        "備考": ""
      }
    },
    {
      "type": "Feature",
      "geometry": {
        "type": "Point",
        "coordinates": [
          139.769138,
          36.389077
        ]
      },
      "properties": {
        "NO": 17483,
        "共通ID": "E0920300047111",
        "都道府県名及び市町村名": "栃木県栃木市",
        "施設・場所名": "東陽中学校",
        "住所": "栃木県栃木市大宮町1287-1",
        "指定緊急避難場所との住所同一": "1",
        "その他市町村長が必要と認める事項": "",
        "受入対象者": "",
        "備考": ""
      }
    },
    {
      "type": "Feature",
      "geometry": {
        "type": "Point",
        "coordinates": [
          139.754438,
          36.389796
        ]
      },
      "properties": {
        "NO": 17484,
        "共通ID": "E0920300048111",
        "都道府県名及び市町村名": "栃木県栃木市",
        "施設・場所名": "大宮北小学校",
        "住所": "栃木県栃木市大宮町1777-1",
        "指定緊急避難場所との住所同一": "1",
        "その他市町村長が必要と認める事項": "",
        "受入対象者": "",
        "備考": ""
      }
    },
    {
      "type": "Feature",
      "geometry": {
        "type": "Point",
        "coordinates": [
          139.757528,
          36.388037
        ]
      },
      "properties": {
        "NO": 17485,
        "共通ID": "E0920300049111",
        "都道府県名及び市町村名": "栃木県栃木市",
        "施設・場所名": "大宮公民館",
        "住所": "栃木県栃木市大宮町422-1",
        "指定緊急避難場所との住所同一": "1",
        "その他市町村長が必要と認める事項": "",
        "受入対象者": "",
        "備考": ""
      }
    },
    {
      "type": "Feature",
      "geometry": {
        "type": "Point",
        "coordinates": [
          139.696581,
          36.413782
        ]
      },
      "properties": {
        "NO": 17486,
        "共通ID": "E0920300050111",
        "都道府県名及び市町村名": "栃木県栃木市",
        "施設・場所名": "千塚小学校",
        "住所": "栃木県栃木市大森町196",
        "指定緊急避難場所との住所同一": "1",
        "その他市町村長が必要と認める事項": "",
        "受入対象者": "",
        "備考": ""
      }
    },
    {
      "type": "Feature",
      "geometry": {
        "type": "Point",
        "coordinates": [
          139.774057,
          36.408467
        ]
      },
      "properties": {
        "NO": 17487,
        "共通ID": "E0920300051111",
        "都道府県名及び市町村名": "栃木県栃木市",
        "施設・場所名": "国府北小学校",
        "住所": "栃木県栃木市大塚町1278",
        "指定緊急避難場所との住所同一": "1",
        "その他市町村長が必要と認める事項": "",
        "受入対象者": "",
        "備考": ""
      }
    },
    {
      "type": "Feature",
      "geometry": {
        "type": "Point",
        "coordinates": [
          139.734505,
          36.348168
        ]
      },
      "properties": {
        "NO": 17488,
        "共通ID": "E0920300052111",
        "都道府県名及び市町村名": "栃木県栃木市",
        "施設・場所名": "大平東地区公民館",
        "住所": "栃木県栃木市大平町横堀810",
        "指定緊急避難場所との住所同一": "1",
        "その他市町村長が必要と認める事項": "",
        "受入対象者": "",
        "備考": ""
      }
    },
    {
      "type": "Feature",
      "geometry": {
        "type": "Point",
        "coordinates": [
          139.733583,
          36.347177
        ]
      },
      "properties": {
        "NO": 17489,
        "共通ID": "E0920300053111",
        "都道府県名及び市町村名": "栃木県栃木市",
        "施設・場所名": "大平東小学校",
        "住所": "栃木県栃木市大平町上高島809",
        "指定緊急避難場所との住所同一": "1",
        "その他市町村長が必要と認める事項": "",
        "受入対象者": "",
        "備考": ""
      }
    },
    {
      "type": "Feature",
      "geometry": {
        "type": "Point",
        "coordinates": [
          139.704924,
          36.330096
        ]
      },
      "properties": {
        "NO": 17490,
        "共通ID": "E0920300054111",
        "都道府県名及び市町村名": "栃木県栃木市",
        "施設・場所名": "大平隣保館",
        "住所": "栃木県栃木市大平町新1305-3",
        "指定緊急避難場所との住所同一": "1",
        "その他市町村長が必要と認める事項": "",
        "受入対象者": "",
        "備考": ""
      }
    },
    {
      "type": "Feature",
      "geometry": {
        "type": "Point",
        "coordinates": [
          139.704278,
          36.331285
        ]
      },
      "properties": {
        "NO": 17491,
        "共通ID": "E0920300055111",
        "都道府県名及び市町村名": "栃木県栃木市",
        "施設・場所名": "大平中央小学校",
        "住所": "栃木県栃木市大平町新1354-2",
        "指定緊急避難場所との住所同一": "1",
        "その他市町村長が必要と認める事項": "",
        "受入対象者": "",
        "備考": ""
      }
    },
    {
      "type": "Feature",
      "geometry": {
        "type": "Point",
        "coordinates": [
          139.714197,
          36.316484
        ]
      },
      "properties": {
        "NO": 17492,
        "共通ID": "E0920300056111",
        "都道府県名及び市町村名": "栃木県栃木市",
        "施設・場所名": "大平南小学校",
        "住所": "栃木県栃木市大平町西水代1732",
        "指定緊急避難場所との住所同一": "1",
        "その他市町村長が必要と認める事項": "",
        "受入対象者": "",
        "備考": ""
      }
    },
    {
      "type": "Feature",
      "geometry": {
        "type": "Point",
        "coordinates": [
          139.717511,
          36.317357
        ]
      },
      "properties": {
        "NO": 17493,
        "共通ID": "E0920300057111",
        "都道府県名及び市町村名": "栃木県栃木市",
        "施設・場所名": "大平南地区公民館",
        "住所": "栃木県栃木市大平町西水代1787",
        "指定緊急避難場所との住所同一": "1",
        "その他市町村長が必要と認める事項": null,
        "受入対象者": null,
        "備考": ""
      }
    },
    {
      "type": "Feature",
      "geometry": {
        "type": "Point",
        "coordinates": [
          139.718709,
          36.336064
        ]
      },
      "properties": {
        "NO": 17494,
        "共通ID": "E0920300058111",
        "都道府県名及び市町村名": "栃木県栃木市",
        "施設・場所名": "大平健康福祉センター（ゆうゆうプラザ）",
        "住所": "栃木県栃木市大平町西野田666-1",
        "指定緊急避難場所との住所同一": "1",
        "その他市町村長が必要と認める事項": "",
        "受入対象者": "",
        "備考": ""
      }
    },
    {
      "type": "Feature",
      "geometry": {
        "type": "Point",
        "coordinates": [
          139.717352,
          36.327985
        ]
      },
      "properties": {
        "NO": 17495,
        "共通ID": "E0920300059111",
        "都道府県名及び市町村名": "栃木県栃木市",
        "施設・場所名": "大平南中学校",
        "住所": "栃木県栃木市大平町西野田825",
        "指定緊急避難場所との住所同一": "1",
        "その他市町村長が必要と認める事項": "",
        "受入対象者": "",
        "備考": ""
      }
    },
    {
      "type": "Feature",
      "geometry": {
        "type": "Point",
        "coordinates": [
          139.715395,
          36.327831
        ]
      },
      "properties": {
        "NO": 17496,
        "共通ID": "E0920300060111",
        "都道府県名及び市町村名": "栃木県栃木市",
        "施設・場所名": "大平南体育館",
        "住所": "栃木県栃木市大平町西野田905-1",
        "指定緊急避難場所との住所同一": "1",
        "その他市町村長が必要と認める事項": "",
        "受入対象者": "",
        "備考": ""
      }
    },
    {
      "type": "Feature",
      "geometry": {
        "type": "Point",
        "coordinates": [
          139.726507,
          36.364969
        ]
      },
      "properties": {
        "NO": 17497,
        "共通ID": "E0920300061111",
        "都道府県名及び市町村名": "栃木県栃木市",
        "施設・場所名": "栃木翔南高校",
        "住所": "栃木県栃木市大平町川連370",
        "指定緊急避難場所との住所同一": "1",
        "その他市町村長が必要と認める事項": "",
        "受入対象者": "",
        "備考": ""
      }
    },
    {
      "type": "Feature",
      "geometry": {
        "type": "Point",
        "coordinates": [
          139.712194,
          36.344966
        ]
      },
      "properties": {
        "NO": 17498,
        "共通ID": "E0920300063111",
        "都道府県名及び市町村名": "栃木県栃木市",
        "施設・場所名": "大平体育館",
        "住所": "栃木県栃木市大平町蔵井2001-3",
        "指定緊急避難場所との住所同一": "1",
        "その他市町村長が必要と認める事項": "",
        "受入対象者": "",
        "備考": ""
      }
    },
    {
      "type": "Feature",
      "geometry": {
        "type": "Point",
        "coordinates": [
          139.711889,
          36.344082
        ]
      },
      "properties": {
        "NO": 17499,
        "共通ID": "E0920300063112",
        "都道府県名及び市町村名": "栃木県栃木市",
        "施設・場所名": "大平文化会館",
        "住所": "栃木県栃木市大平町蔵井2001-3",
        "指定緊急避難場所との住所同一": "1",
        "その他市町村長が必要と認める事項": null,
        "受入対象者": null,
        "備考": ""
      }
    },
    {
      "type": "Feature",
      "geometry": {
        "type": "Point",
        "coordinates": [
          139.712145,
          36.344686
        ]
      },
      "properties": {
        "NO": 17500,
        "共通ID": "E0920300063113",
        "都道府県名及び市町村名": "栃木県栃木市",
        "施設・場所名": "大平公民館",
        "住所": "栃木県栃木市大平町蔵井2001-3",
        "指定緊急避難場所との住所同一": "1",
        "その他市町村長が必要と認める事項": "",
        "受入対象者": "",
        "備考": ""
      }
    },
    {
      "type": "Feature",
      "geometry": {
        "type": "Point",
        "coordinates": [
          139.71549,
          36.345033
        ]
      },
      "properties": {
        "NO": 17501,
        "共通ID": "E0920300064111",
        "都道府県名及び市町村名": "栃木県栃木市",
        "施設・場所名": "大平中学校",
        "住所": "栃木県栃木市大平町蔵井2026-1",
        "指定緊急避難場所との住所同一": "1",
        "その他市町村長が必要と認める事項": "",
        "受入対象者": "",
        "備考": ""
      }
    },
    {
      "type": "Feature",
      "geometry": {
        "type": "Point",
        "coordinates": [
          139.696653,
          36.339665
        ]
      },
      "properties": {
        "NO": 17502,
        "共通ID": "E0920300066111",
        "都道府県名及び市町村名": "栃木県栃木市",
        "施設・場所名": "大平西地区公民館",
        "住所": "栃木県栃木市大平町富田1642-1",
        "指定緊急避難場所との住所同一": "1",
        "その他市町村長が必要と認める事項": "",
        "受入対象者": "",
        "備考": ""
      }
    },
    {
      "type": "Feature",
      "geometry": {
        "type": "Point",
        "coordinates": [
          139.694858,
          36.342528
        ]
      },
      "properties": {
        "NO": 17503,
        "共通ID": "E0920300067111",
        "都道府県名及び市町村名": "栃木県栃木市",
        "施設・場所名": "大平西小学校",
        "住所": "栃木県栃木市大平町富田1869",
        "指定緊急避難場所との住所同一": "1",
        "その他市町村長が必要と認める事項": "",
        "受入対象者": "",
        "備考": ""
      }
    },
    {
      "type": "Feature",
      "geometry": {
        "type": "Point",
        "coordinates": [
          139.713983,
          36.433371
        ]
      },
      "properties": {
        "NO": 17504,
        "共通ID": "E0920300068111",
        "都道府県名及び市町村名": "栃木県栃木市",
        "施設・場所名": "つがの里ふるさとセンター",
        "住所": "栃木県栃木市都賀町臼久保325",
        "指定緊急避難場所との住所同一": "1",
        "その他市町村長が必要と認める事項": "",
        "受入対象者": "",
        "備考": ""
      }
    },
    {
      "type": "Feature",
      "geometry": {
        "type": "Point",
        "coordinates": [
          139.759496,
          36.429764
        ]
      },
      "properties": {
        "NO": 17505,
        "共通ID": "E0920300069111",
        "都道府県名及び市町村名": "栃木県栃木市",
        "施設・場所名": "家中小学校",
        "住所": "栃木県栃木市都賀町家中2740",
        "指定緊急避難場所との住所同一": "1",
        "その他市町村長が必要と認める事項": "",
        "受入対象者": "",
        "備考": ""
      }
    },
    {
      "type": "Feature",
      "geometry": {
        "type": "Point",
        "coordinates": [
          139.742402,
          36.431352
        ]
      },
      "properties": {
        "NO": 17506,
        "共通ID": "E0920300071111",
        "都道府県名及び市町村名": "栃木県栃木市",
        "施設・場所名": "都賀中学校",
        "住所": "栃木県栃木市都賀町家中5818",
        "指定緊急避難場所との住所同一": "1",
        "その他市町村長が必要と認める事項": "",
        "受入対象者": "",
        "備考": ""
      }
    },
    {
      "type": "Feature",
      "geometry": {
        "type": "Point",
        "coordinates": [
          139.740166,
          36.431736
        ]
      },
      "properties": {
        "NO": 17507,
        "共通ID": "E0920300106111",
        "都道府県名及び市町村名": "栃木県栃木市",
        "施設・場所名": "都賀公民館",
        "住所": "栃木県栃木市都賀町原宿573",
        "指定緊急避難場所との住所同一": "1",
        "その他市町村長が必要と認める事項": "",
        "受入対象者": "",
        "備考": ""
      }
    },
    {
      "type": "Feature",
      "geometry": {
        "type": "Point",
        "coordinates": [
          139.746195,
          36.408467
        ]
      },
      "properties": {
        "NO": 17508,
        "共通ID": "E0920300074111",
        "都道府県名及び市町村名": "栃木県栃木市",
        "施設・場所名": "合戦場小学校",
        "住所": "栃木県栃木市都賀町合戦場301",
        "指定緊急避難場所との住所同一": "1",
        "その他市町村長が必要と認める事項": "",
        "受入対象者": "",
        "備考": ""
      }
    },
    {
      "type": "Feature",
      "geometry": {
        "type": "Point",
        "coordinates": [
          139.721631,
          36.441546
        ]
      },
      "properties": {
        "NO": 17509,
        "共通ID": "E0920300076111",
        "都道府県名及び市町村名": "栃木県栃木市",
        "施設・場所名": "赤津小学校",
        "住所": "栃木県栃木市都賀町富張147",
        "指定緊急避難場所との住所同一": "1",
        "その他市町村長が必要と認める事項": "",
        "受入対象者": "",
        "備考": ""
      }
    },
    {
      "type": "Feature",
      "geometry": {
        "type": "Point",
        "coordinates": [
          139.752809,
          36.409621
        ]
      },
      "properties": {
        "NO": 17510,
        "共通ID": "E0920300078111",
        "都道府県名及び市町村名": "栃木県栃木市",
        "施設・場所名": "都賀南部コミュニティセンター",
        "住所": "栃木県栃木市都賀町平川481-5",
        "指定緊急避難場所との住所同一": "1",
        "その他市町村長が必要と認める事項": "",
        "受入対象者": "",
        "備考": ""
      }
    },
    {
      "type": "Feature",
      "geometry": {
        "type": "Point",
        "coordinates": [
          139.72423,
          36.428842
        ]
      },
      "properties": {
        "NO": 17511,
        "共通ID": "E0920300079111",
        "都道府県名及び市町村名": "栃木県栃木市",
        "施設・場所名": "木コミュニティセンター",
        "住所": "栃木県栃木市都賀町木813",
        "指定緊急避難場所との住所同一": "1",
        "その他市町村長が必要と認める事項": "",
        "受入対象者": "",
        "備考": ""
      }
    },
    {
      "type": "Feature",
      "geometry": {
        "type": "Point",
        "coordinates": [
          139.63376,
          36.286899
        ]
      },
      "properties": {
        "NO": 17512,
        "共通ID": "E0920300080111",
        "都道府県名及び市町村名": "栃木県栃木市",
        "施設・場所名": "三鴨小学校",
        "住所": "栃木県栃木市藤岡町甲275-1",
        "指定緊急避難場所との住所同一": "1",
        "その他市町村長が必要と認める事項": "",
        "受入対象者": "",
        "備考": ""
      }
    },
    {
      "type": "Feature",
      "geometry": {
        "type": "Point",
        "coordinates": [
          139.666863,
          36.270375
        ]
      },
      "properties": {
        "NO": 17513,
        "共通ID": "E0920300082111",
        "都道府県名及び市町村名": "栃木県栃木市",
        "施設・場所名": "赤麻小学校",
        "住所": "栃木県栃木市藤岡町赤麻1703",
        "指定緊急避難場所との住所同一": "1",
        "その他市町村長が必要と認める事項": "",
        "受入対象者": "",
        "備考": ""
      }
    },
    {
      "type": "Feature",
      "geometry": {
        "type": "Point",
        "coordinates": [
          139.669474,
          36.263448
        ]
      },
      "properties": {
        "NO": 17514,
        "共通ID": "E0920300084111",
        "都道府県名及び市町村名": "栃木県栃木市",
        "施設・場所名": "藤岡保健福祉センター",
        "住所": "栃木県栃木市藤岡町赤麻502-1",
        "指定緊急避難場所との住所同一": "1",
        "その他市町村長が必要と認める事項": "",
        "受入対象者": "",
        "備考": ""
      }
    },
    {
      "type": "Feature",
      "geometry": {
        "type": "Point",
        "coordinates": [
          139.669034,
          36.263712
        ]
      },
      "properties": {
        "NO": 17515,
        "共通ID": "E0920300084112",
        "都道府県名及び市町村名": "栃木県栃木市",
        "施設・場所名": "渡良瀬の里",
        "住所": "栃木県栃木市藤岡町赤麻502-1",
        "指定緊急避難場所との住所同一": "1",
        "その他市町村長が必要と認める事項": "",
        "受入対象者": "",
        "備考": ""
      }
    },
    {
      "type": "Feature",
      "geometry": {
        "type": "Point",
        "coordinates": [
          139.625304,
          36.296709
        ]
      },
      "properties": {
        "NO": 17516,
        "共通ID": "E0920300085111",
        "都道府県名及び市町村名": "栃木県栃木市",
        "施設・場所名": "道の駅みかも",
        "住所": "栃木県栃木市藤岡町大田和678",
        "指定緊急避難場所との住所同一": "1",
        "その他市町村長が必要と認める事項": null,
        "受入対象者": null,
        "備考": ""
      }
    },
    {
      "type": "Feature",
      "geometry": {
        "type": "Point",
        "coordinates": [
          139.652683,
          36.270045
        ]
      },
      "properties": {
        "NO": 17517,
        "共通ID": "E0920300086111",
        "都道府県名及び市町村名": "栃木県栃木市",
        "施設・場所名": "藤岡中学校",
        "住所": "栃木県栃木市藤岡町藤岡10",
        "指定緊急避難場所との住所同一": "1",
        "その他市町村長が必要と認める事項": "",
        "受入対象者": "",
        "備考": ""
      }
    },
    {
      "type": "Feature",
      "geometry": {
        "type": "Point",
        "coordinates": [
          139.6535,
          36.259412
        ]
      },
      "properties": {
        "NO": 17518,
        "共通ID": "E0920300087111",
        "都道府県名及び市町村名": "栃木県栃木市",
        "施設・場所名": "渡良瀬遊水地ハートランド城",
        "住所": "栃木県栃木市藤岡町藤岡1218-1",
        "指定緊急避難場所との住所同一": "1",
        "その他市町村長が必要と認める事項": "",
        "受入対象者": "",
        "備考": ""
      }
    },
    {
      "type": "Feature",
      "geometry": {
        "type": "Point",
        "coordinates": [
          139.651405,
          36.255593
        ]
      },
      "properties": {
        "NO": 17519,
        "共通ID": "E0920300088111",
        "都道府県名及び市町村名": "栃木県栃木市",
        "施設・場所名": "藤岡小学校",
        "住所": "栃木県栃木市藤岡町藤岡1500",
        "指定緊急避難場所との住所同一": "1",
        "その他市町村長が必要と認める事項": "",
        "受入対象者": "",
        "備考": ""
      }
    },
    {
      "type": "Feature",
      "geometry": {
        "type": "Point",
        "coordinates": [
          139.652233,
          36.249242
        ]
      },
      "properties": {
        "NO": 17520,
        "共通ID": "E0920300089112",
        "都道府県名及び市町村名": "栃木県栃木市",
        "施設・場所名": "藤岡総合体育館",
        "住所": "栃木県栃木市藤岡町藤岡1788",
        "指定緊急避難場所との住所同一": "1",
        "その他市町村長が必要と認める事項": "",
        "受入対象者": "",
        "備考": ""
      }
    },
    {
      "type": "Feature",
      "geometry": {
        "type": "Point",
        "coordinates": [
          139.650927,
          36.266608
        ]
      },
      "properties": {
        "NO": 17521,
        "共通ID": "E0920300090111",
        "都道府県名及び市町村名": "栃木県栃木市",
        "施設・場所名": "藤岡文化会館",
        "住所": "栃木県栃木市藤岡町藤岡810",
        "指定緊急避難場所との住所同一": "1",
        "その他市町村長が必要と認める事項": "",
        "受入対象者": "",
        "備考": ""
      }
    },
    {
      "type": "Feature",
      "geometry": {
        "type": "Point",
        "coordinates": [
          139.69647,
          36.283228
        ]
      },
      "properties": {
        "NO": 17522,
        "共通ID": "E0920300091111",
        "都道府県名及び市町村名": "栃木県栃木市",
        "施設・場所名": "旧藤岡第二中学校",
        "住所": "栃木県栃木市藤岡町富吉1544",
        "指定緊急避難場所との住所同一": "1",
        "その他市町村長が必要と認める事項": "",
        "受入対象者": "",
        "備考": ""
      }
    },
    {
      "type": "Feature",
      "geometry": {
        "type": "Point",
        "coordinates": [
          139.711949,
          36.273356
        ]
      },
      "properties": {
        "NO": 17523,
        "共通ID": "E0920300093111",
        "都道府県名及び市町村名": "栃木県栃木市",
        "施設・場所名": "部屋小学校",
        "住所": "栃木県栃木市藤岡町部屋158",
        "指定緊急避難場所との住所同一": "1",
        "その他市町村長が必要と認める事項": "",
        "受入対象者": "",
        "備考": ""
      }
    },
    {
      "type": "Feature",
      "geometry": {
        "type": "Point",
        "coordinates": [
          139.760982,
          36.371106
        ]
      },
      "properties": {
        "NO": 17524,
        "共通ID": "E0920300094111",
        "都道府県名及び市町村名": "栃木県栃木市",
        "施設・場所名": "大宮南小学校",
        "住所": "栃木県栃木市藤田町135-2",
        "指定緊急避難場所との住所同一": "1",
        "その他市町村長が必要と認める事項": "",
        "受入対象者": "",
        "備考": ""
      }
    },
    {
      "type": "Feature",
      "geometry": {
        "type": "Point",
        "coordinates": [
          139.646047,
          36.44634
        ]
      },
      "properties": {
        "NO": 17525,
        "共通ID": "E0920300095111",
        "都道府県名及び市町村名": "栃木県栃木市",
        "施設・場所名": "寺尾中学校",
        "住所": "栃木県栃木市鍋山町86-2",
        "指定緊急避難場所との住所同一": "1",
        "その他市町村長が必要と認める事項": "",
        "受入対象者": "",
        "備考": ""
      }
    },
    {
      "type": "Feature",
      "geometry": {
        "type": "Point",
        "coordinates": [
          139.739169,
          36.38326
        ]
      },
      "properties": {
        "NO": 17526,
        "共通ID": "E0920300096111",
        "都道府県名及び市町村名": "栃木県栃木市",
        "施設・場所名": "栃木東中学校",
        "住所": "栃木県栃木市日ノ出町1-11",
        "指定緊急避難場所との住所同一": "1",
        "その他市町村長が必要と認める事項": "",
        "受入対象者": "",
        "備考": ""
      }
    },
    {
      "type": "Feature",
      "geometry": {
        "type": "Point",
        "coordinates": [
          139.742733,
          36.382959
        ]
      },
      "properties": {
        "NO": 17527,
        "共通ID": "E0920300097111",
        "都道府県名及び市町村名": "栃木県栃木市",
        "施設・場所名": "勤労者体育センター",
        "住所": "栃木県栃木市日ノ出町14-36",
        "指定緊急避難場所との住所同一": "1",
        "その他市町村長が必要と認める事項": "",
        "受入対象者": "",
        "備考": ""
      }
    },
    {
      "type": "Feature",
      "geometry": {
        "type": "Point",
        "coordinates": [
          139.73055,
          36.383904
        ]
      },
      "properties": {
        "NO": 17528,
        "共通ID": "E0920300098111",
        "都道府県名及び市町村名": "栃木県栃木市",
        "施設・場所名": "栃木高校",
        "住所": "栃木県栃木市入舟町12-4",
        "指定緊急避難場所との住所同一": "1",
        "その他市町村長が必要と認める事項": "",
        "受入対象者": "",
        "備考": ""
      }
    },
    {
      "type": "Feature",
      "geometry": {
        "type": "Point",
        "coordinates": [
          139.729974,
          36.382306
        ]
      },
      "properties": {
        "NO": 17529,
        "共通ID": "E0920300099111",
        "都道府県名及び市町村名": "栃木県栃木市",
        "施設・場所名": "栃木中央小学校",
        "住所": "栃木県栃木市入舟町13-3",
        "指定緊急避難場所との住所同一": "1",
        "その他市町村長が必要と認める事項": "",
        "受入対象者": "",
        "備考": ""
      }
    },
    {
      "type": "Feature",
      "geometry": {
        "type": "Point",
        "coordinates": [
          139.729794,
          36.380947
        ]
      },
      "properties": {
        "NO": 17530,
        "共通ID": "E0920300100111",
        "都道府県名及び市町村名": "栃木県栃木市",
        "施設・場所名": "栃木市市民交流センター",
        "住所": "栃木県栃木市入舟町6-8",
        "指定緊急避難場所との住所同一": "1",
        "その他市町村長が必要と認める事項": "",
        "受入対象者": "",
        "備考": ""
      }
    },
    {
      "type": "Feature",
      "geometry": {
        "type": "Point",
        "coordinates": [
          139.649277,
          36.444263
        ]
      },
      "properties": {
        "NO": 17531,
        "共通ID": "E0920300101111",
        "都道府県名及び市町村名": "栃木県栃木市",
        "施設・場所名": "寺尾公民館",
        "住所": "栃木県栃木市梅沢町1183",
        "指定緊急避難場所との住所同一": "1",
        "その他市町村長が必要と認める事項": "",
        "受入対象者": "",
        "備考": ""
      }
    },
    {
      "type": "Feature",
      "geometry": {
        "type": "Point",
        "coordinates": [
          139.726513,
          36.393305
        ]
      },
      "properties": {
        "NO": 17532,
        "共通ID": "E0920300102111",
        "都道府県名及び市町村名": "栃木県栃木市",
        "施設・場所名": "とちぎコミュニティプラザ（第５コミュニティセンター）",
        "住所": "栃木県栃木市箱森町36-31",
        "指定緊急避難場所との住所同一": "1",
        "その他市町村長が必要と認める事項": "",
        "受入対象者": "",
        "備考": ""
      }
    },
    {
      "type": "Feature",
      "geometry": {
        "type": "Point",
        "coordinates": [
          139.719458,
          36.372217
        ]
      },
      "properties": {
        "NO": 17533,
        "共通ID": "E0920300103111",
        "都道府県名及び市町村名": "栃木県栃木市",
        "施設・場所名": "栃木西中学校",
        "住所": "栃木県栃木市片柳町2-15-40",
        "指定緊急避難場所との住所同一": "1",
        "その他市町村長が必要と認める事項": "",
        "受入対象者": "",
        "備考": ""
      }
    },
    {
      "type": "Feature",
      "geometry": {
        "type": "Point",
        "coordinates": [
          139.717051,
          36.374336
        ]
      },
      "properties": {
        "NO": 17534,
        "共通ID": "E0920300104111",
        "都道府県名及び市町村名": "栃木県栃木市",
        "施設・場所名": "栃木商業高校",
        "住所": "栃木県栃木市片柳町5-1-30",
        "指定緊急避難場所との住所同一": "1",
        "その他市町村長が必要と認める事項": "",
        "受入対象者": "",
        "備考": ""
      }
    },
    {
      "type": "Feature",
      "geometry": {
        "type": "Point",
        "coordinates": [
          139.739224,
          36.376411
        ]
      },
      "properties": {
        "NO": 17535,
        "共通ID": "E0920300105111",
        "都道府県名及び市町村名": "栃木県栃木市",
        "施設・場所名": "栃木南中学校",
        "住所": "栃木県栃木市本町5-5",
        "指定緊急避難場所との住所同一": "1",
        "その他市町村長が必要と認める事項": "",
        "受入対象者": "",
        "備考": ""
      }
    }
  ]
}