{
  "type": "FeatureCollection",
  "name": "092061",
  "features": [
    {
      "type": "Feature",
      "geometry": {
        "type": "Point",
        "coordinates": [
          139.797231,
          36.735207
        ]
      },
      "properties": {
        "NO": 17652,
        "共通ID": "E0920600002121",
        "都道府県名及び市町村名": "栃木県日光市",
        "施設・場所名": "（社福）昂希会　特別養護老人ホーム　すまいる",
        "住所": "栃木県日光市塩野室町1504-1",
        "指定緊急避難場所との住所同一": "",
        "その他市町村長が必要と認める事項": null,
        "受入対象者": "要配慮者",
        "備考": ""
      }
    },
    {
      "type": "Feature",
      "geometry": {
        "type": "Point",
        "coordinates": [
          139.587205,
          36.750855
        ]
      },
      "properties": {
        "NO": 17653,
        "共通ID": "E0920600007121",
        "都道府県名及び市町村名": "栃木県日光市",
        "施設・場所名": "（社福）すぎのこ会　愛晃の杜",
        "住所": "栃木県日光市花石町1846-1",
        "指定緊急避難場所との住所同一": "",
        "その他市町村長が必要と認める事項": null,
        "受入対象者": "要配慮者",
        "備考": ""
      }
    },
    {
      "type": "Feature",
      "geometry": {
        "type": "Point",
        "coordinates": [
          139.585829,
          36.751953
        ]
      },
      "properties": {
        "NO": 17654,
        "共通ID": "E0920600008121",
        "都道府県名及び市町村名": "栃木県日光市",
        "施設・場所名": "日光福祉保健センター",
        "住所": "栃木県日光市花石町1942-1",
        "指定緊急避難場所との住所同一": "1",
        "その他市町村長が必要と認める事項": null,
        "受入対象者": "要配慮者",
        "備考": ""
      }
    },
    {
      "type": "Feature",
      "geometry": {
        "type": "Point",
        "coordinates": [
          139.715179,
          36.821993
        ]
      },
      "properties": {
        "NO": 17655,
        "共通ID": "E0920600010111",
        "都道府県名及び市町村名": "栃木県日光市",
        "施設・場所名": "藤原庁舎（藤原公民館）",
        "住所": "栃木県日光市鬼怒川温泉大原1406-2",
        "指定緊急避難場所との住所同一": "1",
        "その他市町村長が必要と認める事項": null,
        "受入対象者": null,
        "備考": ""
      }
    },
    {
      "type": "Feature",
      "geometry": {
        "type": "Point",
        "coordinates": [
          139.703291,
          36.799471
        ]
      },
      "properties": {
        "NO": 17656,
        "共通ID": "E0920600012111",
        "都道府県名及び市町村名": "栃木県日光市",
        "施設・場所名": "下原小学校（体育館）",
        "住所": "栃木県日光市鬼怒川温泉大原2",
        "指定緊急避難場所との住所同一": "1",
        "その他市町村長が必要と認める事項": null,
        "受入対象者": null,
        "備考": ""
      }
    },
    {
      "type": "Feature",
      "geometry": {
        "type": "Point",
        "coordinates": [
          139.705159,
          36.798457
        ]
      },
      "properties": {
        "NO": 17657,
        "共通ID": "E0920600014121",
        "都道府県名及び市町村名": "栃木県日光市",
        "施設・場所名": "藤原高齢者生活福祉センター（ふじの郷）",
        "住所": "栃木県日光市鬼怒川温泉大原2-6",
        "指定緊急避難場所との住所同一": "",
        "その他市町村長が必要と認める事項": null,
        "受入対象者": "要配慮者",
        "備考": ""
      }
    },
    {
      "type": "Feature",
      "geometry": {
        "type": "Point",
        "coordinates": [
          139.715499,
          36.817888
        ]
      },
      "properties": {
        "NO": 17658,
        "共通ID": "E0920600015111",
        "都道府県名及び市町村名": "栃木県日光市",
        "施設・場所名": "藤原中学校（体育館）",
        "住所": "栃木県日光市鬼怒川温泉大原790",
        "指定緊急避難場所との住所同一": "1",
        "その他市町村長が必要と認める事項": null,
        "受入対象者": null,
        "備考": ""
      }
    },
    {
      "type": "Feature",
      "geometry": {
        "type": "Point",
        "coordinates": [
          139.5773,
          36.74847
        ]
      },
      "properties": {
        "NO": 17659,
        "共通ID": "E0920600019111",
        "都道府県名及び市町村名": "栃木県日光市",
        "施設・場所名": "旧安良沢小学校（体育館）",
        "住所": "栃木県日光市久次良町1777",
        "指定緊急避難場所との住所同一": "1",
        "その他市町村長が必要と認める事項": "",
        "受入対象者": "",
        "備考": ""
      }
    },
    {
      "type": "Feature",
      "geometry": {
        "type": "Point",
        "coordinates": [
          139.582199,
          36.75649
        ]
      },
      "properties": {
        "NO": 17660,
        "共通ID": "E0920600020111",
        "都道府県名及び市町村名": "栃木県日光市",
        "施設・場所名": "日光中学校（体育館）",
        "住所": "栃木県日光市久次良町2096-1",
        "指定緊急避難場所との住所同一": "1",
        "その他市町村長が必要と認める事項": null,
        "受入対象者": null,
        "備考": ""
      }
    },
    {
      "type": "Feature",
      "geometry": {
        "type": "Point",
        "coordinates": [
          139.714888,
          36.750245
        ]
      },
      "properties": {
        "NO": 17661,
        "共通ID": "E0920600021111",
        "都道府県名及び市町村名": "栃木県日光市",
        "施設・場所名": "豊岡中学校（体育館）",
        "住所": "栃木県日光市芹沼1958",
        "指定緊急避難場所との住所同一": "1",
        "その他市町村長が必要と認める事項": "地区福祉避難所と重複",
        "受入対象者": null,
        "備考": ""
      }
    },
    {
      "type": "Feature",
      "geometry": {
        "type": "Point",
        "coordinates": [
          139.714887,
          36.750244
        ]
      },
      "properties": {
        "NO": 17662,
        "共通ID": "E0920600021121",
        "都道府県名及び市町村名": "栃木県日光市",
        "施設・場所名": "豊岡中学校（体育館）",
        "住所": "栃木県日光市芹沼1958",
        "指定緊急避難場所との住所同一": "1",
        "その他市町村長が必要と認める事項": "一般避難所と重複",
        "受入対象者": "要配慮者",
        "備考": ""
      }
    },
    {
      "type": "Feature",
      "geometry": {
        "type": "Point",
        "coordinates": [
          139.613124,
          36.748403
        ]
      },
      "properties": {
        "NO": 17663,
        "共通ID": "E0920600026111",
        "都道府県名及び市町村名": "栃木県日光市",
        "施設・場所名": "日光庁舎（２階：日光公民館）",
        "住所": "栃木県日光市御幸町4-1",
        "指定緊急避難場所との住所同一": "1",
        "その他市町村長が必要と認める事項": null,
        "受入対象者": null,
        "備考": ""
      }
    },
    {
      "type": "Feature",
      "geometry": {
        "type": "Point",
        "coordinates": [
          139.706843,
          36.782446
        ]
      },
      "properties": {
        "NO": 17664,
        "共通ID": "E0920600028121",
        "都道府県名及び市町村名": "栃木県日光市",
        "施設・場所名": "（社福）愛泉会　特別養護老人ホーム　きぬ川苑",
        "住所": "栃木県日光市高徳619-3",
        "指定緊急避難場所との住所同一": "1",
        "その他市町村長が必要と認める事項": null,
        "受入対象者": "要配慮者",
        "備考": ""
      }
    },
    {
      "type": "Feature",
      "geometry": {
        "type": "Point",
        "coordinates": [
          139.735894,
          36.749347
        ]
      },
      "properties": {
        "NO": 17665,
        "共通ID": "E0920600030111",
        "都道府県名及び市町村名": "栃木県日光市",
        "施設・場所名": "轟小学校（体育館）",
        "住所": "栃木県日光市轟53",
        "指定緊急避難場所との住所同一": "1",
        "その他市町村長が必要と認める事項": null,
        "受入対象者": null,
        "備考": ""
      }
    },
    {
      "type": "Feature",
      "geometry": {
        "type": "Point",
        "coordinates": [
          139.603469,
          36.866425
        ]
      },
      "properties": {
        "NO": 17666,
        "共通ID": "E0920600032111",
        "都道府県名及び市町村名": "栃木県日光市",
        "施設・場所名": "栗山庁舎（公民館）",
        "住所": "栃木県日光市黒部54-1",
        "指定緊急避難場所との住所同一": "1",
        "その他市町村長が必要と認める事項": "拠点福祉避難所と重複",
        "受入対象者": null,
        "備考": ""
      }
    },
    {
      "type": "Feature",
      "geometry": {
        "type": "Point",
        "coordinates": [
          139.603464,
          36.866426
        ]
      },
      "properties": {
        "NO": 17667,
        "共通ID": "E0920600032121",
        "都道府県名及び市町村名": "栃木県日光市",
        "施設・場所名": "栗山庁舎（公民館）",
        "住所": "栃木県日光市黒部54-1",
        "指定緊急避難場所との住所同一": "1",
        "その他市町村長が必要と認める事項": "一般避難所と重複",
        "受入対象者": "要配慮者",
        "備考": ""
      }
    },
    {
      "type": "Feature",
      "geometry": {
        "type": "Point",
        "coordinates": [
          139.697641,
          36.72474
        ]
      },
      "properties": {
        "NO": 17668,
        "共通ID": "E0920600033121",
        "都道府県名及び市町村名": "栃木県日光市",
        "施設・場所名": "（社福）大恵会　特別養護老人ホーム　ひかりの里",
        "住所": "栃木県日光市今市1086-2",
        "指定緊急避難場所との住所同一": "",
        "その他市町村長が必要と認める事項": null,
        "受入対象者": "要配慮者",
        "備考": ""
      }
    },
    {
      "type": "Feature",
      "geometry": {
        "type": "Point",
        "coordinates": [
          139.713182,
          36.727669
        ]
      },
      "properties": {
        "NO": 17669,
        "共通ID": "E0920600034111",
        "都道府県名及び市町村名": "栃木県日光市",
        "施設・場所名": "今市中学校（武道場）",
        "住所": "栃木県日光市今市1659",
        "指定緊急避難場所との住所同一": "1",
        "その他市町村長が必要と認める事項": "地区福祉避難所と重複",
        "受入対象者": null,
        "備考": ""
      }
    },
    {
      "type": "Feature",
      "geometry": {
        "type": "Point",
        "coordinates": [
          139.713179,
          36.727674
        ]
      },
      "properties": {
        "NO": 17670,
        "共通ID": "E0920600034121",
        "都道府県名及び市町村名": "栃木県日光市",
        "施設・場所名": "今市中学校（武道場）",
        "住所": "栃木県日光市今市1659",
        "指定緊急避難場所との住所同一": "1",
        "その他市町村長が必要と認める事項": "一般避難所と重複",
        "受入対象者": "要配慮者",
        "備考": ""
      }
    },
    {
      "type": "Feature",
      "geometry": {
        "type": "Point",
        "coordinates": [
          139.712414,
          36.726756
        ]
      },
      "properties": {
        "NO": 17671,
        "共通ID": "E0920600035111",
        "都道府県名及び市町村名": "栃木県日光市",
        "施設・場所名": "今市運動公園体育センター",
        "住所": "栃木県日光市今市1659-131",
        "指定緊急避難場所との住所同一": "1",
        "その他市町村長が必要と認める事項": null,
        "受入対象者": null,
        "備考": ""
      }
    },
    {
      "type": "Feature",
      "geometry": {
        "type": "Point",
        "coordinates": [
          139.680636,
          36.726064
        ]
      },
      "properties": {
        "NO": 17672,
        "共通ID": "E0920600036111",
        "都道府県名及び市町村名": "栃木県日光市",
        "施設・場所名": "今市小学校（体育館）",
        "住所": "栃木県日光市今市531",
        "指定緊急避難場所との住所同一": "1",
        "その他市町村長が必要と認める事項": null,
        "受入対象者": null,
        "備考": ""
      }
    },
    {
      "type": "Feature",
      "geometry": {
        "type": "Point",
        "coordinates": [
          139.697966,
          36.719146
        ]
      },
      "properties": {
        "NO": 17673,
        "共通ID": "E0920600038111",
        "都道府県名及び市町村名": "栃木県日光市",
        "施設・場所名": "今市第三小学校（体育館）",
        "住所": "栃木県日光市今市本町18-1",
        "指定緊急避難場所との住所同一": "1",
        "その他市町村長が必要と認める事項": null,
        "受入対象者": null,
        "備考": ""
      }
    },
    {
      "type": "Feature",
      "geometry": {
        "type": "Point",
        "coordinates": [
          139.779161,
          36.708441
        ]
      },
      "properties": {
        "NO": 17674,
        "共通ID": "E0920600040121",
        "都道府県名及び市町村名": "栃木県日光市",
        "施設・場所名": "（医）英静会　老人保健施設ヴィラフォーレスタ（森の家）",
        "住所": "栃木県日光市根室607-5",
        "指定緊急避難場所との住所同一": "",
        "その他市町村長が必要と認める事項": null,
        "受入対象者": "要配慮者",
        "備考": ""
      }
    },
    {
      "type": "Feature",
      "geometry": {
        "type": "Point",
        "coordinates": [
          139.551443,
          36.729612
        ]
      },
      "properties": {
        "NO": 17675,
        "共通ID": "E0920600043121",
        "都道府県名及び市町村名": "栃木県日光市",
        "施設・場所名": "（社福）晃友会　特別養護老人ホーム　きびたき荘",
        "住所": "栃木県日光市細尾町95",
        "指定緊急避難場所との住所同一": "",
        "その他市町村長が必要と認める事項": null,
        "受入対象者": "要配慮者",
        "備考": ""
      }
    },
    {
      "type": "Feature",
      "geometry": {
        "type": "Point",
        "coordinates": [
          139.715526,
          36.651349
        ]
      },
      "properties": {
        "NO": 17676,
        "共通ID": "E0920600053111",
        "都道府県名及び市町村名": "栃木県日光市",
        "施設・場所名": "落合中学校（体育館）",
        "住所": "栃木県日光市小代310",
        "指定緊急避難場所との住所同一": "1",
        "その他市町村長が必要と認める事項": "地区福祉避難所と重複",
        "受入対象者": null,
        "備考": ""
      }
    },
    {
      "type": "Feature",
      "geometry": {
        "type": "Point",
        "coordinates": [
          139.715531,
          36.651344
        ]
      },
      "properties": {
        "NO": 17677,
        "共通ID": "E0920600053121",
        "都道府県名及び市町村名": "栃木県日光市",
        "施設・場所名": "落合中学校（体育館）",
        "住所": "栃木県日光市小代310",
        "指定緊急避難場所との住所同一": "1",
        "その他市町村長が必要と認める事項": "一般避難所と重複",
        "受入対象者": "要配慮者",
        "備考": ""
      }
    },
    {
      "type": "Feature",
      "geometry": {
        "type": "Point",
        "coordinates": [
          139.679783,
          36.767119
        ]
      },
      "properties": {
        "NO": 17678,
        "共通ID": "E0920600055112",
        "都道府県名及び市町村名": "栃木県日光市",
        "施設・場所名": "旧小百小学校（体育館）",
        "住所": "栃木県日光市小百531",
        "指定緊急避難場所との住所同一": "1",
        "その他市町村長が必要と認める事項": "",
        "受入対象者": "",
        "備考": ""
      }
    },
    {
      "type": "Feature",
      "geometry": {
        "type": "Point",
        "coordinates": [
          139.814398,
          36.727212
        ]
      },
      "properties": {
        "NO": 17679,
        "共通ID": "E0920600058121",
        "都道府県名及び市町村名": "栃木県日光市",
        "施設・場所名": "小林中学校（体育館）",
        "住所": "栃木県日光市小林2384",
        "指定緊急避難場所との住所同一": "",
        "その他市町村長が必要と認める事項": "一般避難所と重複",
        "受入対象者": "要配慮者",
        "備考": ""
      }
    },
    {
      "type": "Feature",
      "geometry": {
        "type": "Point",
        "coordinates": [
          139.814397,
          36.727214
        ]
      },
      "properties": {
        "NO": 17680,
        "共通ID": "E0920600058111",
        "都道府県名及び市町村名": "栃木県日光市",
        "施設・場所名": "小林中学校（体育館）",
        "住所": "栃木県日光市小林2384",
        "指定緊急避難場所との住所同一": "",
        "その他市町村長が必要と認める事項": "地区福祉避難所と重複",
        "受入対象者": null,
        "備考": ""
      }
    },
    {
      "type": "Feature",
      "geometry": {
        "type": "Point",
        "coordinates": [
          139.815639,
          36.731149
        ]
      },
      "properties": {
        "NO": 17681,
        "共通ID": "E0920600060111",
        "都道府県名及び市町村名": "栃木県日光市",
        "施設・場所名": "小林小学校（体育館）",
        "住所": "栃木県日光市小林2708",
        "指定緊急避難場所との住所同一": "1",
        "その他市町村長が必要と認める事項": null,
        "受入対象者": null,
        "備考": ""
      }
    },
    {
      "type": "Feature",
      "geometry": {
        "type": "Point",
        "coordinates": [
          139.688693,
          36.734742
        ]
      },
      "properties": {
        "NO": 17682,
        "共通ID": "E0920600066111",
        "都道府県名及び市町村名": "栃木県日光市",
        "施設・場所名": "今市第二小学校（体育館）",
        "住所": "栃木県日光市瀬川227",
        "指定緊急避難場所との住所同一": "1",
        "その他市町村長が必要と認める事項": null,
        "受入対象者": null,
        "備考": ""
      }
    },
    {
      "type": "Feature",
      "geometry": {
        "type": "Point",
        "coordinates": [
          139.670652,
          36.738934
        ]
      },
      "properties": {
        "NO": 17683,
        "共通ID": "E0920600067121",
        "都道府県名及び市町村名": "栃木県日光市",
        "施設・場所名": "栃木県立今市特別支援学校",
        "住所": "栃木県日光市瀬尾1640-22",
        "指定緊急避難場所との住所同一": "1",
        "その他市町村長が必要と認める事項": "",
        "受入対象者": "",
        "備考": ""
      }
    },
    {
      "type": "Feature",
      "geometry": {
        "type": "Point",
        "coordinates": [
          139.55624,
          36.734738
        ]
      },
      "properties": {
        "NO": 17684,
        "共通ID": "E0920600070111",
        "都道府県名及び市町村名": "栃木県日光市",
        "施設・場所名": "旧清滝小学校（体育館）",
        "住所": "栃木県日光市清滝2-10-1",
        "指定緊急避難場所との住所同一": "1",
        "その他市町村長が必要と認める事項": "",
        "受入対象者": "",
        "備考": ""
      }
    },
    {
      "type": "Feature",
      "geometry": {
        "type": "Point",
        "coordinates": [
          139.561535,
          36.737307
        ]
      },
      "properties": {
        "NO": 17685,
        "共通ID": "E0920600071111",
        "都道府県名及び市町村名": "栃木県日光市",
        "施設・場所名": "女性サポートセンター",
        "住所": "栃木県日光市清滝桜ケ丘町210-7",
        "指定緊急避難場所との住所同一": "1",
        "その他市町村長が必要と認める事項": "地区福祉避難所と重複",
        "受入対象者": null,
        "備考": ""
      }
    },
    {
      "type": "Feature",
      "geometry": {
        "type": "Point",
        "coordinates": [
          139.561528,
          36.737306
        ]
      },
      "properties": {
        "NO": 17686,
        "共通ID": "E0920600071121",
        "都道府県名及び市町村名": "栃木県日光市",
        "施設・場所名": "女性サポートセンター",
        "住所": "栃木県日光市清滝桜ケ丘町210-7",
        "指定緊急避難場所との住所同一": "1",
        "その他市町村長が必要と認める事項": "一般避難所と重複",
        "受入対象者": "要配慮者",
        "備考": ""
      }
    },
    {
      "type": "Feature",
      "geometry": {
        "type": "Point",
        "coordinates": [
          139.712688,
          36.755075
        ]
      },
      "properties": {
        "NO": 17687,
        "共通ID": "E0920600080121",
        "都道府県名及び市町村名": "栃木県日光市",
        "施設・場所名": "（社福）三光会　特別養護老人ホーム　誠心園",
        "住所": "栃木県日光市倉ケ崎605-7",
        "指定緊急避難場所との住所同一": "",
        "その他市町村長が必要と認める事項": null,
        "受入対象者": "要配慮者",
        "備考": ""
      }
    },
    {
      "type": "Feature",
      "geometry": {
        "type": "Point",
        "coordinates": [
          139.701577,
          36.736999
        ]
      },
      "properties": {
        "NO": 17688,
        "共通ID": "E0920600081121",
        "都道府県名及び市町村名": "栃木県日光市",
        "施設・場所名": "（社福）すかい　特別養護老人ホームすかいの郷",
        "住所": "栃木県日光市倉ケ崎新田143-1",
        "指定緊急避難場所との住所同一": "",
        "その他市町村長が必要と認める事項": null,
        "受入対象者": "要配慮者",
        "備考": ""
      }
    },
    {
      "type": "Feature",
      "geometry": {
        "type": "Point",
        "coordinates": [
          139.620189,
          36.745502
        ]
      },
      "properties": {
        "NO": 17689,
        "共通ID": "E0920600082111",
        "都道府県名及び市町村名": "栃木県日光市",
        "施設・場所名": "日光体育館",
        "住所": "栃木県日光市相生町15",
        "指定緊急避難場所との住所同一": "1",
        "その他市町村長が必要と認める事項": "地区福祉避難所と重複",
        "受入対象者": null,
        "備考": ""
      }
    },
    {
      "type": "Feature",
      "geometry": {
        "type": "Point",
        "coordinates": [
          139.620188,
          36.745502
        ]
      },
      "properties": {
        "NO": 17690,
        "共通ID": "E0920600082121",
        "都道府県名及び市町村名": "栃木県日光市",
        "施設・場所名": "日光体育館",
        "住所": "栃木県日光市相生町15",
        "指定緊急避難場所との住所同一": "1",
        "その他市町村長が必要と認める事項": "一般避難所と重複",
        "受入対象者": "要配慮者",
        "備考": ""
      }
    },
    {
      "type": "Feature",
      "geometry": {
        "type": "Point",
        "coordinates": [
          139.485843,
          36.675189
        ]
      },
      "properties": {
        "NO": 17691,
        "共通ID": "E0920600084121",
        "都道府県名及び市町村名": "栃木県日光市",
        "施設・場所名": "（社福）すかい　第二皇海荘",
        "住所": "栃木県日光市足尾町2071-1",
        "指定緊急避難場所との住所同一": "",
        "その他市町村長が必要と認める事項": null,
        "受入対象者": "要配慮者",
        "備考": ""
      }
    },
    {
      "type": "Feature",
      "geometry": {
        "type": "Point",
        "coordinates": [
          139.445418,
          36.638549
        ]
      },
      "properties": {
        "NO": 17692,
        "共通ID": "E0920600090121",
        "都道府県名及び市町村名": "栃木県日光市",
        "施設・場所名": "旧足尾中学校（体育館）",
        "住所": "栃木県日光市足尾町向原7-1",
        "指定緊急避難場所との住所同一": "1",
        "その他市町村長が必要と認める事項": "一般避難所と重複",
        "受入対象者": "要配慮者",
        "備考": ""
      }
    },
    {
      "type": "Feature",
      "geometry": {
        "type": "Point",
        "coordinates": [
          139.445417,
          36.638553
        ]
      },
      "properties": {
        "NO": 17693,
        "共通ID": "E0920600090111",
        "都道府県名及び市町村名": "栃木県日光市",
        "施設・場所名": "旧足尾中学校（体育館）",
        "住所": "栃木県日光市足尾町向原7-1",
        "指定緊急避難場所との住所同一": "1",
        "その他市町村長が必要と認める事項": "地区福祉避難所と重複",
        "受入対象者": "",
        "備考": ""
      }
    },
    {
      "type": "Feature",
      "geometry": {
        "type": "Point",
        "coordinates": [
          139.442454,
          36.636316
        ]
      },
      "properties": {
        "NO": 17694,
        "共通ID": "E0920600092121",
        "都道府県名及び市町村名": "栃木県日光市",
        "施設・場所名": "足尾小中学校（体育館）",
        "住所": "栃木県日光市足尾町赤沢6-2",
        "指定緊急避難場所との住所同一": "1",
        "その他市町村長が必要と認める事項": "一般避難所と重複",
        "受入対象者": "要配慮者",
        "備考": ""
      }
    },
    {
      "type": "Feature",
      "geometry": {
        "type": "Point",
        "coordinates": [
          139.44246,
          36.636317
        ]
      },
      "properties": {
        "NO": 17695,
        "共通ID": "E0920600092111",
        "都道府県名及び市町村名": "栃木県日光市",
        "施設・場所名": "足尾小中学校（体育館）",
        "住所": "栃木県日光市足尾町赤沢6-2",
        "指定緊急避難場所との住所同一": "1",
        "その他市町村長が必要と認める事項": "拠点福祉避難所と重複",
        "受入対象者": "",
        "備考": ""
      }
    },
    {
      "type": "Feature",
      "geometry": {
        "type": "Point",
        "coordinates": [
          139.439889,
          36.633312
        ]
      },
      "properties": {
        "NO": 17696,
        "共通ID": "E0920600093111",
        "都道府県名及び市町村名": "栃木県日光市",
        "施設・場所名": "足尾市民センター",
        "住所": "栃木県日光市足尾町通洞9-1",
        "指定緊急避難場所との住所同一": "1",
        "その他市町村長が必要と認める事項": null,
        "受入対象者": null,
        "備考": ""
      }
    },
    {
      "type": "Feature",
      "geometry": {
        "type": "Point",
        "coordinates": [
          139.711486,
          36.761536
        ]
      },
      "properties": {
        "NO": 17697,
        "共通ID": "E0920600096111",
        "都道府県名及び市町村名": "栃木県日光市",
        "施設・場所名": "大桑小学校（体育館）",
        "住所": "栃木県日光市大桑町179",
        "指定緊急避難場所との住所同一": "1",
        "その他市町村長が必要と認める事項": null,
        "受入対象者": null,
        "備考": ""
      }
    },
    {
      "type": "Feature",
      "geometry": {
        "type": "Point",
        "coordinates": [
          139.746155,
          36.718279
        ]
      },
      "properties": {
        "NO": 17698,
        "共通ID": "E0920600097111",
        "都道府県名及び市町村名": "栃木県日光市",
        "施設・場所名": "大室小学校（体育館）",
        "住所": "栃木県日光市大室356",
        "指定緊急避難場所との住所同一": "1",
        "その他市町村長が必要と認める事項": null,
        "受入対象者": null,
        "備考": ""
      }
    },
    {
      "type": "Feature",
      "geometry": {
        "type": "Point",
        "coordinates": [
          139.750451,
          36.722711
        ]
      },
      "properties": {
        "NO": 17699,
        "共通ID": "E0920600098121",
        "都道府県名及び市町村名": "栃木県日光市",
        "施設・場所名": "（社福）真寿会　特別養護老人ホーム　大室さくら苑",
        "住所": "栃木県日光市大室863-7",
        "指定緊急避難場所との住所同一": "",
        "その他市町村長が必要と認める事項": null,
        "受入対象者": "要配慮者",
        "備考": ""
      }
    },
    {
      "type": "Feature",
      "geometry": {
        "type": "Point",
        "coordinates": [
          139.759433,
          36.696955
        ]
      },
      "properties": {
        "NO": 17700,
        "共通ID": "E0920600100111",
        "都道府県名及び市町村名": "栃木県日光市",
        "施設・場所名": "大沢地区センター",
        "住所": "栃木県日光市大沢町809-1",
        "指定緊急避難場所との住所同一": "1",
        "その他市町村長が必要と認める事項": null,
        "受入対象者": null,
        "備考": ""
      }
    },
    {
      "type": "Feature",
      "geometry": {
        "type": "Point",
        "coordinates": [
          139.754485,
          36.695043
        ]
      },
      "properties": {
        "NO": 17701,
        "共通ID": "E0920600101112",
        "都道府県名及び市町村名": "栃木県日光市",
        "施設・場所名": "大沢中学校（体育館）",
        "住所": "栃木県日光市大沢町97",
        "指定緊急避難場所との住所同一": "1",
        "その他市町村長が必要と認める事項": "地区福祉避難所と重複",
        "受入対象者": null,
        "備考": ""
      }
    },
    {
      "type": "Feature",
      "geometry": {
        "type": "Point",
        "coordinates": [
          139.754485,
          36.695047
        ]
      },
      "properties": {
        "NO": 17702,
        "共通ID": "E0920600101121",
        "都道府県名及び市町村名": "栃木県日光市",
        "施設・場所名": "大沢中学校（体育館）",
        "住所": "栃木県日光市大沢町97",
        "指定緊急避難場所との住所同一": "1",
        "その他市町村長が必要と認める事項": "一般避難所と重複",
        "受入対象者": "要配慮者",
        "備考": ""
      }
    },
    {
      "type": "Feature",
      "geometry": {
        "type": "Point",
        "coordinates": [
          139.754475,
          36.695806
        ]
      },
      "properties": {
        "NO": 17703,
        "共通ID": "E0920600101111",
        "都道府県名及び市町村名": "栃木県日光市",
        "施設・場所名": "大沢小学校（体育館）",
        "住所": "栃木県日光市大沢町97",
        "指定緊急避難場所との住所同一": "1",
        "その他市町村長が必要と認める事項": null,
        "受入対象者": null,
        "備考": ""
      }
    },
    {
      "type": "Feature",
      "geometry": {
        "type": "Point",
        "coordinates": [
          139.499378,
          36.741805
        ]
      },
      "properties": {
        "NO": 17704,
        "共通ID": "E0920600105121",
        "都道府県名及び市町村名": "栃木県日光市",
        "施設・場所名": "中宮祠小中学校（体育館）",
        "住所": "栃木県日光市中宮祠2478",
        "指定緊急避難場所との住所同一": "1",
        "その他市町村長が必要と認める事項": "一般避難所と重複",
        "受入対象者": "要配慮者",
        "備考": ""
      }
    },
    {
      "type": "Feature",
      "geometry": {
        "type": "Point",
        "coordinates": [
          139.499376,
          36.741808
        ]
      },
      "properties": {
        "NO": 17705,
        "共通ID": "E0920600105111",
        "都道府県名及び市町村名": "栃木県日光市",
        "施設・場所名": "中宮祠小中学校（体育館）",
        "住所": "栃木県日光市中宮祠2478",
        "指定緊急避難場所との住所同一": "1",
        "その他市町村長が必要と認める事項": "地区福祉避難所と重複",
        "受入対象者": null,
        "備考": ""
      }
    },
    {
      "type": "Feature",
      "geometry": {
        "type": "Point",
        "coordinates": [
          139.698504,
          36.990291
        ]
      },
      "properties": {
        "NO": 17706,
        "共通ID": "E0920600107121",
        "都道府県名及び市町村名": "栃木県日光市",
        "施設・場所名": "三依地区センター",
        "住所": "栃木県日光市中三依835-1",
        "指定緊急避難場所との住所同一": "1",
        "その他市町村長が必要と認める事項": "一般避難所と重複",
        "受入対象者": "要配慮者",
        "備考": ""
      }
    },
    {
      "type": "Feature",
      "geometry": {
        "type": "Point",
        "coordinates": [
          139.698508,
          36.990282
        ]
      },
      "properties": {
        "NO": 17707,
        "共通ID": "E0920600107111",
        "都道府県名及び市町村名": "栃木県日光市",
        "施設・場所名": "三依地区センター",
        "住所": "栃木県日光市中三依835-1",
        "指定緊急避難場所との住所同一": "1",
        "その他市町村長が必要と認める事項": "地区福祉避難所と重複",
        "受入対象者": null,
        "備考": ""
      }
    },
    {
      "type": "Feature",
      "geometry": {
        "type": "Point",
        "coordinates": [
          139.618133,
          36.665855
        ]
      },
      "properties": {
        "NO": 17708,
        "共通ID": "E0920600109121",
        "都道府県名及び市町村名": "栃木県日光市",
        "施設・場所名": "小来川小中学校（体育館）",
        "住所": "栃木県日光市中小来川2817",
        "指定緊急避難場所との住所同一": "1",
        "その他市町村長が必要と認める事項": "一般避難所と重複",
        "受入対象者": "要配慮者",
        "備考": ""
      }
    },
    {
      "type": "Feature",
      "geometry": {
        "type": "Point",
        "coordinates": [
          139.618129,
          36.665857
        ]
      },
      "properties": {
        "NO": 17709,
        "共通ID": "E0920600109111",
        "都道府県名及び市町村名": "栃木県日光市",
        "施設・場所名": "小来川小中学校（体育館）",
        "住所": "栃木県日光市中小来川2817",
        "指定緊急避難場所との住所同一": "1",
        "その他市町村長が必要と認める事項": "地区福祉避難所と重複",
        "受入対象者": null,
        "備考": ""
      }
    },
    {
      "type": "Feature",
      "geometry": {
        "type": "Point",
        "coordinates": [
          139.770552,
          36.672496
        ]
      },
      "properties": {
        "NO": 17710,
        "共通ID": "E0920600110111",
        "都道府県名及び市町村名": "栃木県日光市",
        "施設・場所名": "猪倉小学校（体育館）",
        "住所": "栃木県日光市猪倉3314",
        "指定緊急避難場所との住所同一": "1",
        "その他市町村長が必要と認める事項": null,
        "受入対象者": null,
        "備考": ""
      }
    },
    {
      "type": "Feature",
      "geometry": {
        "type": "Point",
        "coordinates": [
          139.701601,
          36.673127
        ]
      },
      "properties": {
        "NO": 17711,
        "共通ID": "E0920600113111",
        "都道府県名及び市町村名": "栃木県日光市",
        "施設・場所名": "落合西小学校（体育館）",
        "住所": "栃木県日光市長畑522-2",
        "指定緊急避難場所との住所同一": "1",
        "その他市町村長が必要と認める事項": null,
        "受入対象者": null,
        "備考": ""
      }
    },
    {
      "type": "Feature",
      "geometry": {
        "type": "Point",
        "coordinates": [
          139.731918,
          36.68928
        ]
      },
      "properties": {
        "NO": 17712,
        "共通ID": "E0920600115111",
        "都道府県名及び市町村名": "栃木県日光市",
        "施設・場所名": "南原コミュニティセンター",
        "住所": "栃木県日光市土沢2086",
        "指定緊急避難場所との住所同一": "1",
        "その他市町村長が必要と認める事項": null,
        "受入対象者": null,
        "備考": ""
      }
    },
    {
      "type": "Feature",
      "geometry": {
        "type": "Point",
        "coordinates": [
          139.724391,
          36.69128
        ]
      },
      "properties": {
        "NO": 17713,
        "共通ID": "E0920600116111",
        "都道府県名及び市町村名": "栃木県日光市",
        "施設・場所名": "南原小学校（体育館）",
        "住所": "栃木県日光市土沢460",
        "指定緊急避難場所との住所同一": "1",
        "その他市町村長が必要と認める事項": null,
        "受入対象者": null,
        "備考": ""
      }
    },
    {
      "type": "Feature",
      "geometry": {
        "type": "Point",
        "coordinates": [
          139.583948,
          36.961829
        ]
      },
      "properties": {
        "NO": 17714,
        "共通ID": "E0920600118121",
        "都道府県名及び市町村名": "栃木県日光市",
        "施設・場所名": "体験農業交流センター",
        "住所": "栃木県日光市湯西川1156",
        "指定緊急避難場所との住所同一": "1",
        "その他市町村長が必要と認める事項": "一般避難所と重複",
        "受入対象者": "要配慮者",
        "備考": ""
      }
    },
    {
      "type": "Feature",
      "geometry": {
        "type": "Point",
        "coordinates": [
          139.583947,
          36.961838
        ]
      },
      "properties": {
        "NO": 17715,
        "共通ID": "E0920600118111",
        "都道府県名及び市町村名": "栃木県日光市",
        "施設・場所名": "体験農業交流センター",
        "住所": "栃木県日光市湯西川1156",
        "指定緊急避難場所との住所同一": "1",
        "その他市町村長が必要と認める事項": "地区福祉避難所と重複",
        "受入対象者": null,
        "備考": ""
      }
    },
    {
      "type": "Feature",
      "geometry": {
        "type": "Point",
        "coordinates": [
          139.725136,
          36.84158
        ]
      },
      "properties": {
        "NO": 17716,
        "共通ID": "E0920600125121",
        "都道府県名及び市町村名": "栃木県日光市",
        "施設・場所名": "鬼怒川小学校（体育館）",
        "住所": "栃木県日光市藤原19",
        "指定緊急避難場所との住所同一": "1",
        "その他市町村長が必要と認める事項": "一般避難所と重複",
        "受入対象者": "要配慮者",
        "備考": ""
      }
    },
    {
      "type": "Feature",
      "geometry": {
        "type": "Point",
        "coordinates": [
          139.725137,
          36.841582
        ]
      },
      "properties": {
        "NO": 17717,
        "共通ID": "E0920600125111",
        "都道府県名及び市町村名": "栃木県日光市",
        "施設・場所名": "鬼怒川小学校（体育館）",
        "住所": "栃木県日光市藤原19",
        "指定緊急避難場所との住所同一": "1",
        "その他市町村長が必要と認める事項": "地区福祉避難所と重複",
        "受入対象者": null,
        "備考": ""
      }
    },
    {
      "type": "Feature",
      "geometry": {
        "type": "Point",
        "coordinates": [
          139.648586,
          36.879035
        ]
      },
      "properties": {
        "NO": 17718,
        "共通ID": "E0920600128121",
        "都道府県名及び市町村名": "栃木県日光市",
        "施設・場所名": "旧栗山中学校（校舎）",
        "住所": "栃木県日光市日向1456",
        "指定緊急避難場所との住所同一": "1",
        "その他市町村長が必要と認める事項": "一般避難所と重複",
        "受入対象者": "要配慮者",
        "備考": ""
      }
    },
    {
      "type": "Feature",
      "geometry": {
        "type": "Point",
        "coordinates": [
          139.648593,
          36.879036
        ]
      },
      "properties": {
        "NO": 17719,
        "共通ID": "E0920600128111",
        "都道府県名及び市町村名": "栃木県日光市",
        "施設・場所名": "旧栗山中学校（校舎）",
        "住所": "栃木県日光市日向1456",
        "指定緊急避難場所との住所同一": "1",
        "その他市町村長が必要と認める事項": "地区福祉避難所と重複",
        "受入対象者": "",
        "備考": ""
      }
    },
    {
      "type": "Feature",
      "geometry": {
        "type": "Point",
        "coordinates": [
          139.73523,
          36.649188
        ]
      },
      "properties": {
        "NO": 17720,
        "共通ID": "E0920600131121",
        "都道府県名及び市町村名": "栃木県日光市",
        "施設・場所名": "（社福）大恵会　特別養護老人ホーム　今市ホーム",
        "住所": "栃木県日光市板橋2190-2",
        "指定緊急避難場所との住所同一": "",
        "その他市町村長が必要と認める事項": null,
        "受入対象者": "要配慮者",
        "備考": ""
      }
    },
    {
      "type": "Feature",
      "geometry": {
        "type": "Point",
        "coordinates": [
          139.728212,
          36.640049
        ]
      },
      "properties": {
        "NO": 17721,
        "共通ID": "E0920600132111",
        "都道府県名及び市町村名": "栃木県日光市",
        "施設・場所名": "落合東小学校（体育館）",
        "住所": "栃木県日光市文挾町106",
        "指定緊急避難場所との住所同一": "1",
        "その他市町村長が必要と認める事項": null,
        "受入対象者": null,
        "備考": ""
      }
    },
    {
      "type": "Feature",
      "geometry": {
        "type": "Point",
        "coordinates": [
          139.684159,
          36.721072
        ]
      },
      "properties": {
        "NO": 17722,
        "共通ID": "E0920600133121",
        "都道府県名及び市町村名": "栃木県日光市",
        "施設・場所名": "今市保健福祉センター",
        "住所": "栃木県日光市平ケ崎109",
        "指定緊急避難場所との住所同一": "",
        "その他市町村長が必要と認める事項": null,
        "受入対象者": "要配慮者",
        "備考": ""
      }
    },
    {
      "type": "Feature",
      "geometry": {
        "type": "Point",
        "coordinates": [
          139.681882,
          36.715913
        ]
      },
      "properties": {
        "NO": 17723,
        "共通ID": "E0920600136121",
        "都道府県名及び市町村名": "栃木県日光市",
        "施設・場所名": "（医）矢尾板記念会　老人保健施設今市Ｌケアセンター",
        "住所": "栃木県日光市平ケ崎605-1",
        "指定緊急避難場所との住所同一": "",
        "その他市町村長が必要と認める事項": null,
        "受入対象者": "要配慮者",
        "備考": ""
      }
    },
    {
      "type": "Feature",
      "geometry": {
        "type": "Point",
        "coordinates": [
          139.68074,
          36.71565
        ]
      },
      "properties": {
        "NO": 17724,
        "共通ID": "E0920600137121",
        "都道府県名及び市町村名": "栃木県日光市",
        "施設・場所名": "（社福）日光福栄会　特別養護老人ホーム　ひらがさ喜の里",
        "住所": "栃木県日光市平ケ崎608-5",
        "指定緊急避難場所との住所同一": "",
        "その他市町村長が必要と認める事項": null,
        "受入対象者": "要配慮者",
        "備考": ""
      }
    },
    {
      "type": "Feature",
      "geometry": {
        "type": "Point",
        "coordinates": [
          139.692472,
          36.71756
        ]
      },
      "properties": {
        "NO": 17725,
        "共通ID": "E0920600138121",
        "都道府県名及び市町村名": "栃木県日光市",
        "施設・場所名": "東原中学校（体育館）",
        "住所": "栃木県日光市平ケ崎775-1",
        "指定緊急避難場所との住所同一": "1",
        "その他市町村長が必要と認める事項": "一般避難所と重複",
        "受入対象者": "要配慮者",
        "備考": ""
      }
    },
    {
      "type": "Feature",
      "geometry": {
        "type": "Point",
        "coordinates": [
          139.692471,
          36.71756
        ]
      },
      "properties": {
        "NO": 17726,
        "共通ID": "E0920600138111",
        "都道府県名及び市町村名": "栃木県日光市",
        "施設・場所名": "東原中学校（体育館）",
        "住所": "栃木県日光市平ケ崎775-1",
        "指定緊急避難場所との住所同一": "1",
        "その他市町村長が必要と認める事項": "地区福祉避難所と重複",
        "受入対象者": null,
        "備考": ""
      }
    },
    {
      "type": "Feature",
      "geometry": {
        "type": "Point",
        "coordinates": [
          139.713583,
          36.682203
        ]
      },
      "properties": {
        "NO": 17727,
        "共通ID": "E0920600140111",
        "都道府県名及び市町村名": "栃木県日光市",
        "施設・場所名": "落合運動公園（体育館）",
        "住所": "栃木県日光市明神1052",
        "指定緊急避難場所との住所同一": "1",
        "その他市町村長が必要と認める事項": null,
        "受入対象者": null,
        "備考": ""
      }
    },
    {
      "type": "Feature",
      "geometry": {
        "type": "Point",
        "coordinates": [
          139.713613,
          36.68001
        ]
      },
      "properties": {
        "NO": 17728,
        "共通ID": "E0920600141121",
        "都道府県名及び市町村名": "栃木県日光市",
        "施設・場所名": "（社福）大恵会　養護老人ホーム　晃明荘",
        "住所": "栃木県日光市明神2453-1",
        "指定緊急避難場所との住所同一": "",
        "その他市町村長が必要と認める事項": null,
        "受入対象者": "要配慮者",
        "備考": ""
      }
    },
    {
      "type": "Feature",
      "geometry": {
        "type": "Point",
        "coordinates": [
          139.752942,
          36.681256
        ]
      },
      "properties": {
        "NO": 17729,
        "共通ID": "E0920600144121",
        "都道府県名及び市町村名": "栃木県日光市",
        "施設・場所名": "（医）矢尾板記念会　介護老人保健施設見龍堂メディケアユニッツ",
        "住所": "栃木県日光市木和田島3008-1",
        "指定緊急避難場所との住所同一": "",
        "その他市町村長が必要と認める事項": null,
        "受入対象者": "要配慮者",
        "備考": ""
      }
    },
    {
      "type": "Feature",
      "geometry": {
        "type": "Point",
        "coordinates": [
          139.753346,
          36.681884
        ]
      },
      "properties": {
        "NO": 17730,
        "共通ID": "E0920600145121",
        "都道府県名及び市町村名": "栃木県日光市",
        "施設・場所名": "（社福）日光福栄会　特別養護老人ホーム　きわだの郷",
        "住所": "栃木県日光市木和田島3008-11",
        "指定緊急避難場所との住所同一": "",
        "その他市町村長が必要と認める事項": null,
        "受入対象者": "要配慮者",
        "備考": ""
      }
    },
    {
      "type": "Feature",
      "geometry": {
        "type": "Point",
        "coordinates": [
          139.752982,
          36.682297
        ]
      },
      "properties": {
        "NO": 17731,
        "共通ID": "E0920600146121",
        "都道府県名及び市町村名": "栃木県日光市",
        "施設・場所名": "（社福）日光福栄会　特別養護老人ホーム　喜わだ亭",
        "住所": "栃木県日光市木和田島3008-13",
        "指定緊急避難場所との住所同一": "",
        "その他市町村長が必要と認める事項": null,
        "受入対象者": "要配慮者",
        "備考": ""
      }
    },
    {
      "type": "Feature",
      "geometry": {
        "type": "Point",
        "coordinates": [
          139.647969,
          36.734133
        ]
      },
      "properties": {
        "NO": 17732,
        "共通ID": "E0920600147111",
        "都道府県名及び市町村名": "栃木県日光市",
        "施設・場所名": "旧野口小学校（体育館）",
        "住所": "栃木県日光市野口900",
        "指定緊急避難場所との住所同一": "1",
        "その他市町村長が必要と認める事項": null,
        "受入対象者": null,
        "備考": ""
      }
    }
  ]
}