{
  "type": "FeatureCollection",
  "name": "092151",
  "features": [
    {
      "type": "Feature",
      "geometry": {
        "type": "Point",
        "coordinates": [
          140.146465,
          36.649703
        ]
      },
      "properties": {
        "NO": 18078,
        "共通ID": "E0921500001111",
        "都道府県名及び市町村名": "栃木県那須烏山市",
        "施設・場所名": "烏山小学校",
        "住所": "栃木県那須烏山市愛宕台2800",
        "指定緊急避難場所との住所同一": "1",
        "その他市町村長が必要と認める事項": "",
        "受入対象者": "",
        "備考": ""
      }
    },
    {
      "type": "Feature",
      "geometry": {
        "type": "Point",
        "coordinates": [
          140.2065,
          36.645136
        ]
      },
      "properties": {
        "NO": 18079,
        "共通ID": "E0921500002111",
        "都道府県名及び市町村名": "栃木県那須烏山市",
        "施設・場所名": "旧やまびこの湯",
        "住所": "栃木県那須烏山市横枕473-1",
        "指定緊急避難場所との住所同一": "1",
        "その他市町村長が必要と認める事項": null,
        "受入対象者": null,
        "備考": ""
      }
    },
    {
      "type": "Feature",
      "geometry": {
        "type": "Point",
        "coordinates": [
          140.173031,
          36.62341
        ]
      },
      "properties": {
        "NO": 18080,
        "共通ID": "E0921500003111",
        "都道府県名及び市町村名": "栃木県那須烏山市",
        "施設・場所名": "旧境保育園",
        "住所": "栃木県那須烏山市下境1165",
        "指定緊急避難場所との住所同一": "1",
        "その他市町村長が必要と認める事項": null,
        "受入対象者": null,
        "備考": ""
      }
    },
    {
      "type": "Feature",
      "geometry": {
        "type": "Point",
        "coordinates": [
          140.172861,
          36.630483
        ]
      },
      "properties": {
        "NO": 18081,
        "共通ID": "E0921500004111",
        "都道府県名及び市町村名": "栃木県那須烏山市",
        "施設・場所名": "旧境小学校",
        "住所": "栃木県那須烏山市下境2226",
        "指定緊急避難場所との住所同一": "1",
        "その他市町村長が必要と認める事項": null,
        "受入対象者": null,
        "備考": ""
      }
    },
    {
      "type": "Feature",
      "geometry": {
        "type": "Point",
        "coordinates": [
          140.090099,
          36.699904
        ]
      },
      "properties": {
        "NO": 18082,
        "共通ID": "E0921500005111",
        "都道府県名及び市町村名": "栃木県那須烏山市",
        "施設・場所名": "江川小学校",
        "住所": "栃木県那須烏山市下川井1001",
        "指定緊急避難場所との住所同一": "1",
        "その他市町村長が必要と認める事項": null,
        "受入対象者": null,
        "備考": ""
      }
    },
    {
      "type": "Feature",
      "geometry": {
        "type": "Point",
        "coordinates": [
          140.100081,
          36.659352
        ]
      },
      "properties": {
        "NO": 18083,
        "共通ID": "E0921500006111",
        "都道府県名及び市町村名": "栃木県那須烏山市",
        "施設・場所名": "南那須公民館",
        "住所": "栃木県那須烏山市岩子6-1",
        "指定緊急避難場所との住所同一": "",
        "その他市町村長が必要と認める事項": null,
        "受入対象者": null,
        "備考": ""
      }
    },
    {
      "type": "Feature",
      "geometry": {
        "type": "Point",
        "coordinates": [
          140.162362,
          36.67277
        ]
      },
      "properties": {
        "NO": 18084,
        "共通ID": "E0921500008111",
        "都道府県名及び市町村名": "栃木県那須烏山市",
        "施設・場所名": "興野集会所",
        "住所": "栃木県那須烏山市興野963",
        "指定緊急避難場所との住所同一": "1",
        "その他市町村長が必要と認める事項": null,
        "受入対象者": null,
        "備考": ""
      }
    },
    {
      "type": "Feature",
      "geometry": {
        "type": "Point",
        "coordinates": [
          140.085201,
          36.613873
        ]
      },
      "properties": {
        "NO": 18085,
        "共通ID": "E0921500009111",
        "都道府県名及び市町村名": "栃木県那須烏山市",
        "施設・場所名": "曲畑公民館",
        "住所": "栃木県那須烏山市曲畑452-1",
        "指定緊急避難場所との住所同一": "1",
        "その他市町村長が必要と認める事項": null,
        "受入対象者": null,
        "備考": ""
      }
    },
    {
      "type": "Feature",
      "geometry": {
        "type": "Point",
        "coordinates": [
          140.151108,
          36.654805
        ]
      },
      "properties": {
        "NO": 18086,
        "共通ID": "E0921500010111",
        "都道府県名及び市町村名": "栃木県那須烏山市",
        "施設・場所名": "旧烏山女子高等学校",
        "住所": "栃木県那須烏山市金井1-4-23",
        "指定緊急避難場所との住所同一": "1",
        "その他市町村長が必要と認める事項": "",
        "受入対象者": "",
        "備考": ""
      }
    },
    {
      "type": "Feature",
      "geometry": {
        "type": "Point",
        "coordinates": [
          140.112762,
          36.682462
        ]
      },
      "properties": {
        "NO": 18087,
        "共通ID": "E0921500012111",
        "都道府県名及び市町村名": "栃木県那須烏山市",
        "施設・場所名": "熊田西公民館",
        "住所": "栃木県那須烏山市熊田555",
        "指定緊急避難場所との住所同一": "1",
        "その他市町村長が必要と認める事項": null,
        "受入対象者": null,
        "備考": ""
      }
    },
    {
      "type": "Feature",
      "geometry": {
        "type": "Point",
        "coordinates": [
          140.145668,
          36.623347
        ]
      },
      "properties": {
        "NO": 18088,
        "共通ID": "E0921500013111",
        "都道府県名及び市町村名": "栃木県那須烏山市",
        "施設・場所名": "旧向田小学校",
        "住所": "栃木県那須烏山市向田2187",
        "指定緊急避難場所との住所同一": "1",
        "その他市町村長が必要と認める事項": null,
        "受入対象者": null,
        "備考": ""
      }
    },
    {
      "type": "Feature",
      "geometry": {
        "type": "Point",
        "coordinates": [
          140.0482,
          36.671359
        ]
      },
      "properties": {
        "NO": 18089,
        "共通ID": "E0921500014111",
        "都道府県名及び市町村名": "栃木県那須烏山市",
        "施設・場所名": "鴻野山公民館",
        "住所": "栃木県那須烏山市鴻野山601",
        "指定緊急避難場所との住所同一": "1",
        "その他市町村長が必要と認める事項": null,
        "受入対象者": null,
        "備考": ""
      }
    },
    {
      "type": "Feature",
      "geometry": {
        "type": "Point",
        "coordinates": [
          140.065835,
          36.692249
        ]
      },
      "properties": {
        "NO": 18090,
        "共通ID": "E0921500015111",
        "都道府県名及び市町村名": "栃木県那須烏山市",
        "施設・場所名": "三箇地区公民館",
        "住所": "栃木県那須烏山市三箇1258",
        "指定緊急避難場所との住所同一": "1",
        "その他市町村長が必要と認める事項": null,
        "受入対象者": null,
        "備考": ""
      }
    },
    {
      "type": "Feature",
      "geometry": {
        "type": "Point",
        "coordinates": [
          140.10482,
          36.718122
        ]
      },
      "properties": {
        "NO": 18091,
        "共通ID": "E0921500016111",
        "都道府県名及び市町村名": "栃木県那須烏山市",
        "施設・場所名": "志鳥地区公民館",
        "住所": "栃木県那須烏山市志鳥930",
        "指定緊急避難場所との住所同一": "1",
        "その他市町村長が必要と認める事項": null,
        "受入対象者": null,
        "備考": ""
      }
    },
    {
      "type": "Feature",
      "geometry": {
        "type": "Point",
        "coordinates": [
          140.156925,
          36.651834
        ]
      },
      "properties": {
        "NO": 18092,
        "共通ID": "E0921500017111",
        "都道府県名及び市町村名": "栃木県那須烏山市",
        "施設・場所名": "農村婦人の家",
        "住所": "栃木県那須烏山市初音7-16",
        "指定緊急避難場所との住所同一": "",
        "その他市町村長が必要と認める事項": null,
        "受入対象者": null,
        "備考": ""
      }
    },
    {
      "type": "Feature",
      "geometry": {
        "type": "Point",
        "coordinates": [
          140.201188,
          36.620242
        ]
      },
      "properties": {
        "NO": 18093,
        "共通ID": "E0921500019111",
        "都道府県名及び市町村名": "栃木県那須烏山市",
        "施設・場所名": "木須の郷交流館",
        "住所": "栃木県那須烏山市小木須1845",
        "指定緊急避難場所との住所同一": "1",
        "その他市町村長が必要と認める事項": null,
        "受入対象者": null,
        "備考": ""
      }
    },
    {
      "type": "Feature",
      "geometry": {
        "type": "Point",
        "coordinates": [
          140.207751,
          36.631617
        ]
      },
      "properties": {
        "NO": 18094,
        "共通ID": "E0921500020111",
        "都道府県名及び市町村名": "栃木県那須烏山市",
        "施設・場所名": "明和ふれあいガーデン",
        "住所": "栃木県那須烏山市小木須2659",
        "指定緊急避難場所との住所同一": "1",
        "その他市町村長が必要と認める事項": null,
        "受入対象者": null,
        "備考": ""
      }
    },
    {
      "type": "Feature",
      "geometry": {
        "type": "Point",
        "coordinates": [
          140.174091,
          36.637581
        ]
      },
      "properties": {
        "NO": 18095,
        "共通ID": "E0921500021111",
        "都道府県名及び市町村名": "栃木県那須烏山市",
        "施設・場所名": "境小学校",
        "住所": "栃木県那須烏山市上境1404",
        "指定緊急避難場所との住所同一": "1",
        "その他市町村長が必要と認める事項": null,
        "受入対象者": null,
        "備考": ""
      }
    },
    {
      "type": "Feature",
      "geometry": {
        "type": "Point",
        "coordinates": [
          140.117803,
          36.637479
        ]
      },
      "properties": {
        "NO": 18096,
        "共通ID": "E0921500024111",
        "都道府県名及び市町村名": "栃木県那須烏山市",
        "施設・場所名": "輪之内自治会公民館",
        "住所": "栃木県那須烏山市森田561",
        "指定緊急避難場所との住所同一": "1",
        "その他市町村長が必要と認める事項": null,
        "受入対象者": null,
        "備考": ""
      }
    },
    {
      "type": "Feature",
      "geometry": {
        "type": "Point",
        "coordinates": [
          140.133004,
          36.658938
        ]
      },
      "properties": {
        "NO": 18097,
        "共通ID": "E0921500025111",
        "都道府県名及び市町村名": "栃木県那須烏山市",
        "施設・場所名": "那須烏山消防署",
        "住所": "栃木県那須烏山市神長880-1",
        "指定緊急避難場所との住所同一": "1",
        "その他市町村長が必要と認める事項": null,
        "受入対象者": null,
        "備考": ""
      }
    },
    {
      "type": "Feature",
      "geometry": {
        "type": "Point",
        "coordinates": [
          140.094207,
          36.658154
        ]
      },
      "properties": {
        "NO": 18098,
        "共通ID": "E0921500028111",
        "都道府県名及び市町村名": "栃木県那須烏山市",
        "施設・場所名": "那須烏山市武道館",
        "住所": "栃木県那須烏山市大金240",
        "指定緊急避難場所との住所同一": "",
        "その他市町村長が必要と認める事項": null,
        "受入対象者": null,
        "備考": ""
      }
    },
    {
      "type": "Feature",
      "geometry": {
        "type": "Point",
        "coordinates": [
          140.09512,
          36.653959
        ]
      },
      "properties": {
        "NO": 18099,
        "共通ID": "E0921500029111",
        "都道府県名及び市町村名": "栃木県那須烏山市",
        "施設・場所名": "南那須中学校",
        "住所": "栃木県那須烏山市大金285",
        "指定緊急避難場所との住所同一": "1",
        "その他市町村長が必要と認める事項": null,
        "受入対象者": null,
        "備考": ""
      }
    },
    {
      "type": "Feature",
      "geometry": {
        "type": "Point",
        "coordinates": [
          140.222622,
          36.632929
        ]
      },
      "properties": {
        "NO": 18100,
        "共通ID": "E0921500032111",
        "都道府県名及び市町村名": "栃木県那須烏山市",
        "施設・場所名": "大木須集会所",
        "住所": "栃木県那須烏山市大木須1768",
        "指定緊急避難場所との住所同一": "",
        "その他市町村長が必要と認める事項": null,
        "受入対象者": null,
        "備考": ""
      }
    },
    {
      "type": "Feature",
      "geometry": {
        "type": "Point",
        "coordinates": [
          140.138924,
          36.645555
        ]
      },
      "properties": {
        "NO": 18101,
        "共通ID": "E0921500033111",
        "都道府県名及び市町村名": "栃木県那須烏山市",
        "施設・場所名": "龍門ふるさと民芸館",
        "住所": "栃木県那須烏山市滝414",
        "指定緊急避難場所との住所同一": "1",
        "その他市町村長が必要と認める事項": null,
        "受入対象者": null,
        "備考": ""
      }
    },
    {
      "type": "Feature",
      "geometry": {
        "type": "Point",
        "coordinates": [
          140.156628,
          36.692712
        ]
      },
      "properties": {
        "NO": 18102,
        "共通ID": "E0921500034111",
        "都道府県名及び市町村名": "栃木県那須烏山市",
        "施設・場所名": "七合小学校",
        "住所": "栃木県那須烏山市谷浅見910",
        "指定緊急避難場所との住所同一": "1",
        "その他市町村長が必要と認める事項": "",
        "受入対象者": "",
        "備考": ""
      }
    },
    {
      "type": "Feature",
      "geometry": {
        "type": "Point",
        "coordinates": [
          140.155764,
          36.658376
        ]
      },
      "properties": {
        "NO": 18103,
        "共通ID": "E0921500036111",
        "都道府県名及び市町村名": "栃木県那須烏山市",
        "施設・場所名": "烏山公民館",
        "住所": "栃木県那須烏山市中央2-13-8",
        "指定緊急避難場所との住所同一": "",
        "その他市町村長が必要と認める事項": null,
        "受入対象者": null,
        "備考": ""
      }
    },
    {
      "type": "Feature",
      "geometry": {
        "type": "Point",
        "coordinates": [
          140.155415,
          36.658831
        ]
      },
      "properties": {
        "NO": 18104,
        "共通ID": "E0921500037111",
        "都道府県名及び市町村名": "栃木県那須烏山市",
        "施設・場所名": "烏山武道館",
        "住所": "栃木県那須烏山市中央2-17-1",
        "指定緊急避難場所との住所同一": "",
        "その他市町村長が必要と認める事項": null,
        "受入対象者": null,
        "備考": ""
      }
    },
    {
      "type": "Feature",
      "geometry": {
        "type": "Point",
        "coordinates": [
          140.152825,
          36.664059
        ]
      },
      "properties": {
        "NO": 18105,
        "共通ID": "E0921500038111",
        "都道府県名及び市町村名": "栃木県那須烏山市",
        "施設・場所名": "烏山高等学校",
        "住所": "栃木県那須烏山市中央3-9-8",
        "指定緊急避難場所との住所同一": "1",
        "その他市町村長が必要と認める事項": "",
        "受入対象者": "",
        "備考": ""
      }
    },
    {
      "type": "Feature",
      "geometry": {
        "type": "Point",
        "coordinates": [
          140.147986,
          36.689153
        ]
      },
      "properties": {
        "NO": 18106,
        "共通ID": "E0921500039111",
        "都道府県名及び市町村名": "栃木県那須烏山市",
        "施設・場所名": "旧七合中学校",
        "住所": "栃木県那須烏山市中山226",
        "指定緊急避難場所との住所同一": "",
        "その他市町村長が必要と認める事項": null,
        "受入対象者": null,
        "備考": ""
      }
    },
    {
      "type": "Feature",
      "geometry": {
        "type": "Point",
        "coordinates": [
          140.099074,
          36.659182
        ]
      },
      "properties": {
        "NO": 18107,
        "共通ID": "E0921500040111",
        "都道府県名及び市町村名": "栃木県那須烏山市",
        "施設・場所名": "南那須図書館",
        "住所": "栃木県那須烏山市田野倉65-1",
        "指定緊急避難場所との住所同一": "",
        "その他市町村長が必要と認める事項": null,
        "受入対象者": null,
        "備考": ""
      }
    },
    {
      "type": "Feature",
      "geometry": {
        "type": "Point",
        "coordinates": [
          140.095979,
          36.658675
        ]
      },
      "properties": {
        "NO": 18108,
        "共通ID": "E0921500041111",
        "都道府県名及び市町村名": "栃木県那須烏山市",
        "施設・場所名": "保健福祉センター",
        "住所": "栃木県那須烏山市田野倉85-1",
        "指定緊急避難場所との住所同一": "1",
        "その他市町村長が必要と認める事項": null,
        "受入対象者": null,
        "備考": ""
      }
    },
    {
      "type": "Feature",
      "geometry": {
        "type": "Point",
        "coordinates": [
          140.095979,
          36.658675
        ]
      },
      "properties": {
        "NO": 18109,
        "共通ID": "E0921500041121",
        "都道府県名及び市町村名": "栃木県那須烏山市",
        "施設・場所名": "保健福祉センター",
        "住所": "栃木県那須烏山市田野倉85-1",
        "指定緊急避難場所との住所同一": "1",
        "その他市町村長が必要と認める事項": null,
        "受入対象者": "要配慮者",
        "備考": ""
      }
    },
    {
      "type": "Feature",
      "geometry": {
        "type": "Point",
        "coordinates": [
          140.100218,
          36.656843
        ]
      },
      "properties": {
        "NO": 18110,
        "共通ID": "E0921500042111",
        "都道府県名及び市町村名": "栃木県那須烏山市",
        "施設・場所名": "つくし幼稚園",
        "住所": "栃木県那須烏山市東原50",
        "指定緊急避難場所との住所同一": "",
        "その他市町村長が必要と認める事項": null,
        "受入対象者": null,
        "備考": ""
      }
    },
    {
      "type": "Feature",
      "geometry": {
        "type": "Point",
        "coordinates": [
          140.10203,
          36.681632
        ]
      },
      "properties": {
        "NO": 18111,
        "共通ID": "E0921500043111",
        "都道府県名及び市町村名": "栃木県那須烏山市",
        "施設・場所名": "スポーツ健康館",
        "住所": "栃木県那須烏山市藤田1181-85",
        "指定緊急避難場所との住所同一": "1",
        "その他市町村長が必要と認める事項": null,
        "受入対象者": null,
        "備考": ""
      }
    },
    {
      "type": "Feature",
      "geometry": {
        "type": "Point",
        "coordinates": [
          140.087036,
          36.680461
        ]
      },
      "properties": {
        "NO": 18112,
        "共通ID": "E0921500044111",
        "都道府県名及び市町村名": "栃木県那須烏山市",
        "施設・場所名": "藤田公民館",
        "住所": "栃木県那須烏山市藤田784-1",
        "指定緊急避難場所との住所同一": "1",
        "その他市町村長が必要と認める事項": null,
        "受入対象者": null,
        "備考": ""
      }
    },
    {
      "type": "Feature",
      "geometry": {
        "type": "Point",
        "coordinates": [
          140.146108,
          36.648373
        ]
      },
      "properties": {
        "NO": 18113,
        "共通ID": "E0921500046111",
        "都道府県名及び市町村名": "栃木県那須烏山市",
        "施設・場所名": "烏山中学校",
        "住所": "栃木県那須烏山市南1-2810",
        "指定緊急避難場所との住所同一": "1",
        "その他市町村長が必要と認める事項": "",
        "受入対象者": "",
        "備考": ""
      }
    },
    {
      "type": "Feature",
      "geometry": {
        "type": "Point",
        "coordinates": [
          140.073416,
          36.631435
        ]
      },
      "properties": {
        "NO": 18114,
        "共通ID": "E0921500047111",
        "都道府県名及び市町村名": "栃木県那須烏山市",
        "施設・場所名": "八ケ代コミュニティーセンター",
        "住所": "栃木県那須烏山市八ケ代169",
        "指定緊急避難場所との住所同一": "1",
        "その他市町村長が必要と認める事項": null,
        "受入対象者": null,
        "備考": ""
      }
    },
    {
      "type": "Feature",
      "geometry": {
        "type": "Point",
        "coordinates": [
          140.150189,
          36.634658
        ]
      },
      "properties": {
        "NO": 18115,
        "共通ID": "E0921500048111",
        "都道府県名及び市町村名": "栃木県那須烏山市",
        "施設・場所名": "野上体育館",
        "住所": "栃木県那須烏山市野上703",
        "指定緊急避難場所との住所同一": "1",
        "その他市町村長が必要と認める事項": null,
        "受入対象者": null,
        "備考": ""
      }
    },
    {
      "type": "Feature",
      "geometry": {
        "type": "Point",
        "coordinates": [
          140.150852,
          36.63492
        ]
      },
      "properties": {
        "NO": 18116,
        "共通ID": "E0921500048112",
        "都道府県名及び市町村名": "栃木県那須烏山市",
        "施設・場所名": "すくすく保育園・烏山南公民館",
        "住所": "栃木県那須烏山市野上703",
        "指定緊急避難場所との住所同一": "1",
        "その他市町村長が必要と認める事項": "",
        "受入対象者": "",
        "備考": ""
      }
    }
  ]
}