{
  "type": "FeatureCollection",
  "name": "092134",
  "features": [
    {
      "type": "Feature",
      "geometry": {
        "type": "Point",
        "coordinates": [
          139.960217,
          36.940202
        ]
      },
      "properties": {
        "NO": 17979,
        "共通ID": "E0921300001111",
        "都道府県名及び市町村名": "栃木県那須塩原市",
        "施設・場所名": "旧　那須塩原市立横林小学校",
        "住所": "栃木県那須塩原市横林137-5",
        "指定緊急避難場所との住所同一": "",
        "その他市町村長が必要と認める事項": "",
        "受入対象者": "",
        "備考": ""
      }
    },
    {
      "type": "Feature",
      "geometry": {
        "type": "Point",
        "coordinates": [
          139.986829,
          36.877499
        ]
      },
      "properties": {
        "NO": 17980,
        "共通ID": "E0921300002111",
        "都道府県名及び市町村名": "栃木県那須塩原市",
        "施設・場所名": "那須塩原市立西那須野中学校",
        "住所": "栃木県那須塩原市下永田4-3",
        "指定緊急避難場所との住所同一": "",
        "その他市町村長が必要と認める事項": null,
        "受入対象者": null,
        "備考": ""
      }
    },
    {
      "type": "Feature",
      "geometry": {
        "type": "Point",
        "coordinates": [
          140.001085,
          36.874717
        ]
      },
      "properties": {
        "NO": 17981,
        "共通ID": "E0921300003111",
        "都道府県名及び市町村名": "栃木県那須塩原市",
        "施設・場所名": "那須塩原市立大山小学校",
        "住所": "栃木県那須塩原市下永田8-7",
        "指定緊急避難場所との住所同一": "",
        "その他市町村長が必要と認める事項": null,
        "受入対象者": null,
        "備考": ""
      }
    },
    {
      "type": "Feature",
      "geometry": {
        "type": "Point",
        "coordinates": [
          140.001984,
          36.873257
        ]
      },
      "properties": {
        "NO": 17982,
        "共通ID": "E0921300004111",
        "都道府県名及び市町村名": "栃木県那須塩原市",
        "施設・場所名": "那須塩原市大山公民館",
        "住所": "栃木県那須塩原市下永田8-7-86",
        "指定緊急避難場所との住所同一": "1",
        "その他市町村長が必要と認める事項": null,
        "受入対象者": null,
        "備考": ""
      }
    },
    {
      "type": "Feature",
      "geometry": {
        "type": "Point",
        "coordinates": [
          140.002061,
          36.873251
        ]
      },
      "properties": {
        "NO": 17983,
        "共通ID": "E0921300004121",
        "都道府県名及び市町村名": "栃木県那須塩原市",
        "施設・場所名": "那須塩原市大山公民館",
        "住所": "栃木県那須塩原市下永田8-7-86",
        "指定緊急避難場所との住所同一": "1",
        "その他市町村長が必要と認める事項": null,
        "受入対象者": "高齢者、障害児、乳幼児、妊産婦、傷病者、内部障碍者、難病患者、医療的ケアを必要とする者及びその家族等",
        "備考": ""
      }
    },
    {
      "type": "Feature",
      "geometry": {
        "type": "Point",
        "coordinates": [
          139.89886,
          36.944786
        ]
      },
      "properties": {
        "NO": 17984,
        "共通ID": "E0921300005111",
        "都道府県名及び市町村名": "栃木県那須塩原市",
        "施設・場所名": "旧　那須塩原市立箒根中学校",
        "住所": "栃木県那須塩原市関谷1251",
        "指定緊急避難場所との住所同一": "",
        "その他市町村長が必要と認める事項": "",
        "受入対象者": "",
        "備考": ""
      }
    },
    {
      "type": "Feature",
      "geometry": {
        "type": "Point",
        "coordinates": [
          139.896462,
          36.945148
        ]
      },
      "properties": {
        "NO": 17985,
        "共通ID": "E0921300006111",
        "都道府県名及び市町村名": "栃木県那須塩原市",
        "施設・場所名": "那須塩原市ハロープラザ",
        "住所": "栃木県那須塩原市関谷1266-4",
        "指定緊急避難場所との住所同一": "1",
        "その他市町村長が必要と認める事項": null,
        "受入対象者": null,
        "備考": ""
      }
    },
    {
      "type": "Feature",
      "geometry": {
        "type": "Point",
        "coordinates": [
          139.896525,
          36.945213
        ]
      },
      "properties": {
        "NO": 17986,
        "共通ID": "E0921300006121",
        "都道府県名及び市町村名": "栃木県那須塩原市",
        "施設・場所名": "那須塩原市ハロープラザ",
        "住所": "栃木県那須塩原市関谷1266-4",
        "指定緊急避難場所との住所同一": "1",
        "その他市町村長が必要と認める事項": null,
        "受入対象者": "高齢者、障害児、乳幼児、妊産婦、傷病者、内部障碍者、難病患者、医療的ケアを必要とする者及びその家族等",
        "備考": ""
      }
    },
    {
      "type": "Feature",
      "geometry": {
        "type": "Point",
        "coordinates": [
          139.902488,
          36.952306
        ]
      },
      "properties": {
        "NO": 17987,
        "共通ID": "E0921300007111",
        "都道府県名及び市町村名": "栃木県那須塩原市",
        "施設・場所名": "那須塩原市立箒根学園",
        "住所": "栃木県那須塩原市関谷2018-1",
        "指定緊急避難場所との住所同一": "",
        "その他市町村長が必要と認める事項": "",
        "受入対象者": "",
        "備考": ""
      }
    },
    {
      "type": "Feature",
      "geometry": {
        "type": "Point",
        "coordinates": [
          140.04579,
          36.96333
        ]
      },
      "properties": {
        "NO": 17988,
        "共通ID": "E0921300008111",
        "都道府県名及び市町村名": "栃木県那須塩原市",
        "施設・場所名": "那須塩原市立共英小学校",
        "住所": "栃木県那須塩原市共墾社99-11",
        "指定緊急避難場所との住所同一": "",
        "その他市町村長が必要と認める事項": null,
        "受入対象者": null,
        "備考": ""
      }
    },
    {
      "type": "Feature",
      "geometry": {
        "type": "Point",
        "coordinates": [
          139.900384,
          36.90938
        ]
      },
      "properties": {
        "NO": 17989,
        "共通ID": "E0921300009111",
        "都道府県名及び市町村名": "栃木県那須塩原市",
        "施設・場所名": "旧　那須塩原市立金沢小学校",
        "住所": "栃木県那須塩原市金沢1969-2",
        "指定緊急避難場所との住所同一": "",
        "その他市町村長が必要と認める事項": null,
        "受入対象者": null,
        "備考": ""
      }
    },
    {
      "type": "Feature",
      "geometry": {
        "type": "Point",
        "coordinates": [
          139.989048,
          36.900144
        ]
      },
      "properties": {
        "NO": 17990,
        "共通ID": "E0921300010111",
        "都道府県名及び市町村名": "栃木県那須塩原市",
        "施設・場所名": "那須塩原市にしなすの運動公園",
        "住所": "栃木県那須塩原市高柳10",
        "指定緊急避難場所との住所同一": "1",
        "その他市町村長が必要と認める事項": null,
        "受入対象者": null,
        "備考": ""
      }
    },
    {
      "type": "Feature",
      "geometry": {
        "type": "Point",
        "coordinates": [
          139.943289,
          36.986588
        ]
      },
      "properties": {
        "NO": 17991,
        "共通ID": "E0921300011111",
        "都道府県名及び市町村名": "栃木県那須塩原市",
        "施設・場所名": "那須塩原市立高林小学校",
        "住所": "栃木県那須塩原市高林483",
        "指定緊急避難場所との住所同一": "",
        "その他市町村長が必要と認める事項": null,
        "受入対象者": null,
        "備考": ""
      }
    },
    {
      "type": "Feature",
      "geometry": {
        "type": "Point",
        "coordinates": [
          140.022701,
          36.9824
        ]
      },
      "properties": {
        "NO": 17992,
        "共通ID": "E0921300012111",
        "都道府県名及び市町村名": "栃木県那須塩原市",
        "施設・場所名": "那須塩原市立黒磯北中学校",
        "住所": "栃木県那須塩原市埼玉6",
        "指定緊急避難場所との住所同一": "",
        "その他市町村長が必要と認める事項": null,
        "受入対象者": null,
        "備考": ""
      }
    },
    {
      "type": "Feature",
      "geometry": {
        "type": "Point",
        "coordinates": [
          140.02977,
          36.979231
        ]
      },
      "properties": {
        "NO": 17993,
        "共通ID": "E0921300013111",
        "都道府県名及び市町村名": "栃木県那須塩原市",
        "施設・場所名": "那須塩原市立稲村小学校",
        "住所": "栃木県那須塩原市埼玉8",
        "指定緊急避難場所との住所同一": "",
        "その他市町村長が必要と認める事項": null,
        "受入対象者": null,
        "備考": ""
      }
    },
    {
      "type": "Feature",
      "geometry": {
        "type": "Point",
        "coordinates": [
          140.022682,
          36.962766
        ]
      },
      "properties": {
        "NO": 17994,
        "共通ID": "E0921300014111",
        "都道府県名及び市町村名": "栃木県那須塩原市",
        "施設・場所名": "那須塩原市立埼玉小学校",
        "住所": "栃木県那須塩原市埼玉99",
        "指定緊急避難場所との住所同一": "",
        "その他市町村長が必要と認める事項": null,
        "受入対象者": null,
        "備考": ""
      }
    },
    {
      "type": "Feature",
      "geometry": {
        "type": "Point",
        "coordinates": [
          140.05187,
          36.97563
        ]
      },
      "properties": {
        "NO": 17995,
        "共通ID": "E0921300015111",
        "都道府県名及び市町村名": "栃木県那須塩原市",
        "施設・場所名": "那須塩原市いきいきふれあいセンター",
        "住所": "栃木県那須塩原市桜町1-5",
        "指定緊急避難場所との住所同一": "1",
        "その他市町村長が必要と認める事項": null,
        "受入対象者": null,
        "備考": ""
      }
    },
    {
      "type": "Feature",
      "geometry": {
        "type": "Point",
        "coordinates": [
          140.051944,
          36.975655
        ]
      },
      "properties": {
        "NO": 17996,
        "共通ID": "E0921300015121",
        "都道府県名及び市町村名": "栃木県那須塩原市",
        "施設・場所名": "那須塩原市いきいきふれあいセンター",
        "住所": "栃木県那須塩原市桜町1-5",
        "指定緊急避難場所との住所同一": "1",
        "その他市町村長が必要と認める事項": null,
        "受入対象者": "高齢者、障害児、乳幼児、妊産婦、傷病者、内部障碍者、難病患者、医療的ケアを必要とする者及びその家族等",
        "備考": ""
      }
    },
    {
      "type": "Feature",
      "geometry": {
        "type": "Point",
        "coordinates": [
          139.975973,
          36.895618
        ]
      },
      "properties": {
        "NO": 17997,
        "共通ID": "E0921300016111",
        "都道府県名及び市町村名": "栃木県那須塩原市",
        "施設・場所名": "那須塩原市立三島小学校",
        "住所": "栃木県那須塩原市三島1-21",
        "指定緊急避難場所との住所同一": "",
        "その他市町村長が必要と認める事項": null,
        "受入対象者": null,
        "備考": ""
      }
    },
    {
      "type": "Feature",
      "geometry": {
        "type": "Point",
        "coordinates": [
          139.96861,
          36.9008
        ]
      },
      "properties": {
        "NO": 17998,
        "共通ID": "E0921300017111",
        "都道府県名及び市町村名": "栃木県那須塩原市",
        "施設・場所名": "那須塩原市三島体育センター",
        "住所": "栃木県那須塩原市三島5-1",
        "指定緊急避難場所との住所同一": "1",
        "その他市町村長が必要と認める事項": null,
        "受入対象者": null,
        "備考": ""
      }
    },
    {
      "type": "Feature",
      "geometry": {
        "type": "Point",
        "coordinates": [
          139.953478,
          36.895563
        ]
      },
      "properties": {
        "NO": 17999,
        "共通ID": "E0921300018111",
        "都道府県名及び市町村名": "栃木県那須塩原市",
        "施設・場所名": "那須塩原市西公民館",
        "住所": "栃木県那須塩原市四区町661",
        "指定緊急避難場所との住所同一": "1",
        "その他市町村長が必要と認める事項": null,
        "受入対象者": null,
        "備考": ""
      }
    },
    {
      "type": "Feature",
      "geometry": {
        "type": "Point",
        "coordinates": [
          139.953455,
          36.895602
        ]
      },
      "properties": {
        "NO": 18000,
        "共通ID": "E0921300018121",
        "都道府県名及び市町村名": "栃木県那須塩原市",
        "施設・場所名": "那須塩原市西公民館",
        "住所": "栃木県那須塩原市四区町661",
        "指定緊急避難場所との住所同一": "1",
        "その他市町村長が必要と認める事項": null,
        "受入対象者": "高齢者、障害児、乳幼児、妊産婦、傷病者、内部障碍者、難病患者、医療的ケアを必要とする者及びその家族等",
        "備考": ""
      }
    },
    {
      "type": "Feature",
      "geometry": {
        "type": "Point",
        "coordinates": [
          139.951128,
          36.895333
        ]
      },
      "properties": {
        "NO": 18001,
        "共通ID": "E0921300019111",
        "都道府県名及び市町村名": "栃木県那須塩原市",
        "施設・場所名": "那須塩原市立西小学校",
        "住所": "栃木県那須塩原市四区町662",
        "指定緊急避難場所との住所同一": "",
        "その他市町村長が必要と認める事項": null,
        "受入対象者": null,
        "備考": ""
      }
    },
    {
      "type": "Feature",
      "geometry": {
        "type": "Point",
        "coordinates": [
          140.11342,
          36.967384
        ]
      },
      "properties": {
        "NO": 18002,
        "共通ID": "E0921300020111",
        "都道府県名及び市町村名": "栃木県那須塩原市",
        "施設・場所名": "旧　那須塩原市立寺子小学校",
        "住所": "栃木県那須塩原市寺子1146-2",
        "指定緊急避難場所との住所同一": "",
        "その他市町村長が必要と認める事項": null,
        "受入対象者": null,
        "備考": ""
      }
    },
    {
      "type": "Feature",
      "geometry": {
        "type": "Point",
        "coordinates": [
          140.031208,
          36.976017
        ]
      },
      "properties": {
        "NO": 18003,
        "共通ID": "E0921300021111",
        "都道府県名及び市町村名": "栃木県那須塩原市",
        "施設・場所名": "那須塩原市稲村公民館",
        "住所": "栃木県那須塩原市若草町117-1",
        "指定緊急避難場所との住所同一": "1",
        "その他市町村長が必要と認める事項": null,
        "受入対象者": null,
        "備考": ""
      }
    },
    {
      "type": "Feature",
      "geometry": {
        "type": "Point",
        "coordinates": [
          140.03124,
          36.976097
        ]
      },
      "properties": {
        "NO": 18004,
        "共通ID": "E0921300021121",
        "都道府県名及び市町村名": "栃木県那須塩原市",
        "施設・場所名": "那須塩原市稲村公民館",
        "住所": "栃木県那須塩原市若草町117-1",
        "指定緊急避難場所との住所同一": "1",
        "その他市町村長が必要と認める事項": null,
        "受入対象者": "高齢者、障害児、乳幼児、妊産婦、傷病者、内部障碍者、難病患者、医療的ケアを必要とする者及びその家族等",
        "備考": ""
      }
    },
    {
      "type": "Feature",
      "geometry": {
        "type": "Point",
        "coordinates": [
          139.7928,
          36.981089
        ]
      },
      "properties": {
        "NO": 18005,
        "共通ID": "E0921300022111",
        "都道府県名及び市町村名": "栃木県那須塩原市",
        "施設・場所名": "宿泊体験館メープル",
        "住所": "栃木県那須塩原市上塩原58-3",
        "指定緊急避難場所との住所同一": "",
        "その他市町村長が必要と認める事項": null,
        "受入対象者": null,
        "備考": ""
      }
    },
    {
      "type": "Feature",
      "geometry": {
        "type": "Point",
        "coordinates": [
          140.033213,
          36.958768
        ]
      },
      "properties": {
        "NO": 18006,
        "共通ID": "E0921300023111",
        "都道府県名及び市町村名": "栃木県那須塩原市",
        "施設・場所名": "那須塩原市立厚崎中学校",
        "住所": "栃木県那須塩原市上厚崎385",
        "指定緊急避難場所との住所同一": "",
        "その他市町村長が必要と認める事項": null,
        "受入対象者": null,
        "備考": ""
      }
    },
    {
      "type": "Feature",
      "geometry": {
        "type": "Point",
        "coordinates": [
          140.032428,
          36.951998
        ]
      },
      "properties": {
        "NO": 18007,
        "共通ID": "E0921300024111",
        "都道府県名及び市町村名": "栃木県那須塩原市",
        "施設・場所名": "那須塩原市黒磯文化会館",
        "住所": "栃木県那須塩原市上厚崎490",
        "指定緊急避難場所との住所同一": "1",
        "その他市町村長が必要と認める事項": null,
        "受入対象者": null,
        "備考": ""
      }
    },
    {
      "type": "Feature",
      "geometry": {
        "type": "Point",
        "coordinates": [
          140.033359,
          36.95122
        ]
      },
      "properties": {
        "NO": 18008,
        "共通ID": "E0921300025111",
        "都道府県名及び市町村名": "栃木県那須塩原市",
        "施設・場所名": "那須塩原市厚崎公民館",
        "住所": "栃木県那須塩原市上厚崎500-1",
        "指定緊急避難場所との住所同一": "1",
        "その他市町村長が必要と認める事項": null,
        "受入対象者": null,
        "備考": ""
      }
    },
    {
      "type": "Feature",
      "geometry": {
        "type": "Point",
        "coordinates": [
          140.033419,
          36.951241
        ]
      },
      "properties": {
        "NO": 18009,
        "共通ID": "E0921300025121",
        "都道府県名及び市町村名": "栃木県那須塩原市",
        "施設・場所名": "那須塩原市厚崎公民館",
        "住所": "栃木県那須塩原市上厚崎500-1",
        "指定緊急避難場所との住所同一": "1",
        "その他市町村長が必要と認める事項": null,
        "受入対象者": "高齢者、障害児、乳幼児、妊産婦、傷病者、内部障碍者、難病患者、医療的ケアを必要とする者及びその家族等",
        "備考": ""
      }
    },
    {
      "type": "Feature",
      "geometry": {
        "type": "Point",
        "coordinates": [
          140.031667,
          36.959659
        ]
      },
      "properties": {
        "NO": 18010,
        "共通ID": "E0921300026111",
        "都道府県名及び市町村名": "栃木県那須塩原市",
        "施設・場所名": "那須塩原市くろいそ運動場武道館",
        "住所": "栃木県那須塩原市上厚崎664",
        "指定緊急避難場所との住所同一": "1",
        "その他市町村長が必要と認める事項": null,
        "受入対象者": null,
        "備考": ""
      }
    },
    {
      "type": "Feature",
      "geometry": {
        "type": "Point",
        "coordinates": [
          139.92532,
          36.895554
        ]
      },
      "properties": {
        "NO": 18011,
        "共通ID": "E0921300027111",
        "都道府県名及び市町村名": "栃木県那須塩原市",
        "施設・場所名": "旧　那須塩原市立大貫小学校",
        "住所": "栃木県那須塩原市上大貫2077-2",
        "指定緊急避難場所との住所同一": "",
        "その他市町村長が必要と認める事項": "",
        "受入対象者": "",
        "備考": ""
      }
    },
    {
      "type": "Feature",
      "geometry": {
        "type": "Point",
        "coordinates": [
          139.993662,
          36.992455
        ]
      },
      "properties": {
        "NO": 18012,
        "共通ID": "E0921300028111",
        "都道府県名及び市町村名": "栃木県那須塩原市",
        "施設・場所名": "那須塩原市立青木小学校",
        "住所": "栃木県那須塩原市青木12",
        "指定緊急避難場所との住所同一": "",
        "その他市町村長が必要と認める事項": null,
        "受入対象者": null,
        "備考": ""
      }
    },
    {
      "type": "Feature",
      "geometry": {
        "type": "Point",
        "coordinates": [
          139.945559,
          37.006323
        ]
      },
      "properties": {
        "NO": 18013,
        "共通ID": "E0921300029111",
        "都道府県名及び市町村名": "栃木県那須塩原市",
        "施設・場所名": "那須塩原市高林公民館",
        "住所": "栃木県那須塩原市箭坪347-1",
        "指定緊急避難場所との住所同一": "1",
        "その他市町村長が必要と認める事項": null,
        "受入対象者": null,
        "備考": ""
      }
    },
    {
      "type": "Feature",
      "geometry": {
        "type": "Point",
        "coordinates": [
          139.945659,
          37.006267
        ]
      },
      "properties": {
        "NO": 18014,
        "共通ID": "E0921300029121",
        "都道府県名及び市町村名": "栃木県那須塩原市",
        "施設・場所名": "那須塩原市高林公民館",
        "住所": "栃木県那須塩原市箭坪347-1",
        "指定緊急避難場所との住所同一": "1",
        "その他市町村長が必要と認める事項": null,
        "受入対象者": "高齢者、障害児、乳幼児、妊産婦、傷病者、内部障碍者、難病患者、医療的ケアを必要とする者及びその家族等",
        "備考": ""
      }
    },
    {
      "type": "Feature",
      "geometry": {
        "type": "Point",
        "coordinates": [
          139.943286,
          37.00539
        ]
      },
      "properties": {
        "NO": 18015,
        "共通ID": "E0921300030111",
        "都道府県名及び市町村名": "栃木県那須塩原市",
        "施設・場所名": "那須塩原市立高林中学校",
        "住所": "栃木県那須塩原市箭坪353",
        "指定緊急避難場所との住所同一": "",
        "その他市町村長が必要と認める事項": null,
        "受入対象者": null,
        "備考": ""
      }
    },
    {
      "type": "Feature",
      "geometry": {
        "type": "Point",
        "coordinates": [
          139.980413,
          36.884733
        ]
      },
      "properties": {
        "NO": 18016,
        "共通ID": "E0921300031111",
        "都道府県名及び市町村名": "栃木県那須塩原市",
        "施設・場所名": "那須塩原市立東小学校",
        "住所": "栃木県那須塩原市太夫塚1-193",
        "指定緊急避難場所との住所同一": "",
        "その他市町村長が必要と認める事項": null,
        "受入対象者": null,
        "備考": ""
      }
    },
    {
      "type": "Feature",
      "geometry": {
        "type": "Point",
        "coordinates": [
          139.976747,
          36.884706
        ]
      },
      "properties": {
        "NO": 18017,
        "共通ID": "E0921300032111",
        "都道府県名及び市町村名": "栃木県那須塩原市",
        "施設・場所名": "那須塩原市西那須野公民館",
        "住所": "栃木県那須塩原市太夫塚1-194-78",
        "指定緊急避難場所との住所同一": "1",
        "その他市町村長が必要と認める事項": null,
        "受入対象者": null,
        "備考": ""
      }
    },
    {
      "type": "Feature",
      "geometry": {
        "type": "Point",
        "coordinates": [
          139.97671,
          36.884734
        ]
      },
      "properties": {
        "NO": 18018,
        "共通ID": "E0921300032121",
        "都道府県名及び市町村名": "栃木県那須塩原市",
        "施設・場所名": "那須塩原市西那須野公民館",
        "住所": "栃木県那須塩原市太夫塚1-194-78",
        "指定緊急避難場所との住所同一": "1",
        "その他市町村長が必要と認める事項": null,
        "受入対象者": "高齢者、障害児、乳幼児、妊産婦、傷病者、内部障碍者、難病患者、医療的ケアを必要とする者及びその家族等",
        "備考": ""
      }
    },
    {
      "type": "Feature",
      "geometry": {
        "type": "Point",
        "coordinates": [
          139.809488,
          36.977668
        ]
      },
      "properties": {
        "NO": 18019,
        "共通ID": "E0921300033111",
        "都道府県名及び市町村名": "栃木県那須塩原市",
        "施設・場所名": "那須塩原市塩原公民館",
        "住所": "栃木県那須塩原市中塩原1-2",
        "指定緊急避難場所との住所同一": "1",
        "その他市町村長が必要と認める事項": null,
        "受入対象者": null,
        "備考": ""
      }
    },
    {
      "type": "Feature",
      "geometry": {
        "type": "Point",
        "coordinates": [
          139.809561,
          36.977619
        ]
      },
      "properties": {
        "NO": 18020,
        "共通ID": "E0921300033121",
        "都道府県名及び市町村名": "栃木県那須塩原市",
        "施設・場所名": "那須塩原市塩原公民館",
        "住所": "栃木県那須塩原市中塩原1-2",
        "指定緊急避難場所との住所同一": "1",
        "その他市町村長が必要と認める事項": null,
        "受入対象者": "高齢者、障害児、乳幼児、妊産婦、傷病者、内部障碍者、難病患者、医療的ケアを必要とする者及びその家族等",
        "備考": ""
      }
    },
    {
      "type": "Feature",
      "geometry": {
        "type": "Point",
        "coordinates": [
          139.997766,
          36.910785
        ]
      },
      "properties": {
        "NO": 18021,
        "共通ID": "E0921300034111",
        "都道府県名及び市町村名": "栃木県那須塩原市",
        "施設・場所名": "那須塩原市立槻沢小学校",
        "住所": "栃木県那須塩原市槻沢1",
        "指定緊急避難場所との住所同一": "",
        "その他市町村長が必要と認める事項": null,
        "受入対象者": null,
        "備考": ""
      }
    },
    {
      "type": "Feature",
      "geometry": {
        "type": "Point",
        "coordinates": [
          139.999674,
          36.90532
        ]
      },
      "properties": {
        "NO": 18022,
        "共通ID": "E0921300035111",
        "都道府県名及び市町村名": "栃木県那須塩原市",
        "施設・場所名": "那須塩原市狩野公民館",
        "住所": "栃木県那須塩原市槻沢231",
        "指定緊急避難場所との住所同一": "1",
        "その他市町村長が必要と認める事項": null,
        "受入対象者": null,
        "備考": ""
      }
    },
    {
      "type": "Feature",
      "geometry": {
        "type": "Point",
        "coordinates": [
          139.999632,
          36.90529
        ]
      },
      "properties": {
        "NO": 18023,
        "共通ID": "E0921300035121",
        "都道府県名及び市町村名": "栃木県那須塩原市",
        "施設・場所名": "那須塩原市狩野公民館",
        "住所": "栃木県那須塩原市槻沢231",
        "指定緊急避難場所との住所同一": "1",
        "その他市町村長が必要と認める事項": null,
        "受入対象者": "高齢者、障害児、乳幼児、妊産婦、傷病者、内部障碍者、難病患者、医療的ケアを必要とする者及びその家族等",
        "備考": ""
      }
    },
    {
      "type": "Feature",
      "geometry": {
        "type": "Point",
        "coordinates": [
          140.005823,
          36.938604
        ]
      },
      "properties": {
        "NO": 18024,
        "共通ID": "E0921300036111",
        "都道府県名及び市町村名": "栃木県那須塩原市",
        "施設・場所名": "那須塩原市立東那須野中学校",
        "住所": "栃木県那須塩原市島方689",
        "指定緊急避難場所との住所同一": "",
        "その他市町村長が必要と認める事項": null,
        "受入対象者": null,
        "備考": ""
      }
    },
    {
      "type": "Feature",
      "geometry": {
        "type": "Point",
        "coordinates": [
          140.032695,
          36.983552
        ]
      },
      "properties": {
        "NO": 18025,
        "共通ID": "E0921300037111",
        "都道府県名及び市町村名": "栃木県那須塩原市",
        "施設・場所名": "那須塩原市立東原小学校",
        "住所": "栃木県那須塩原市東原4",
        "指定緊急避難場所との住所同一": "",
        "その他市町村長が必要と認める事項": null,
        "受入対象者": null,
        "備考": ""
      }
    },
    {
      "type": "Feature",
      "geometry": {
        "type": "Point",
        "coordinates": [
          139.982651,
          36.89906
        ]
      },
      "properties": {
        "NO": 18026,
        "共通ID": "E0921300038111",
        "都道府県名及び市町村名": "栃木県那須塩原市",
        "施設・場所名": "那須塩原市立三島中学校",
        "住所": "栃木県那須塩原市東三島1-104",
        "指定緊急避難場所との住所同一": "",
        "その他市町村長が必要と認める事項": null,
        "受入対象者": null,
        "備考": ""
      }
    },
    {
      "type": "Feature",
      "geometry": {
        "type": "Point",
        "coordinates": [
          139.970883,
          36.900211
        ]
      },
      "properties": {
        "NO": 18027,
        "共通ID": "E0921300039111",
        "都道府県名及び市町村名": "栃木県那須塩原市",
        "施設・場所名": "那須塩原市三島公民館",
        "住所": "栃木県那須塩原市東三島6-337",
        "指定緊急避難場所との住所同一": "1",
        "その他市町村長が必要と認める事項": null,
        "受入対象者": null,
        "備考": ""
      }
    },
    {
      "type": "Feature",
      "geometry": {
        "type": "Point",
        "coordinates": [
          139.971054,
          36.900316
        ]
      },
      "properties": {
        "NO": 18028,
        "共通ID": "E0921300039121",
        "都道府県名及び市町村名": "栃木県那須塩原市",
        "施設・場所名": "那須塩原市三島公民館",
        "住所": "栃木県那須塩原市東三島6-337",
        "指定緊急避難場所との住所同一": "1",
        "その他市町村長が必要と認める事項": null,
        "受入対象者": "高齢者、障害児、乳幼児、妊産婦、傷病者、内部障碍者、難病患者、医療的ケアを必要とする者及びその家族等",
        "備考": ""
      }
    },
    {
      "type": "Feature",
      "geometry": {
        "type": "Point",
        "coordinates": [
          140.024239,
          36.930502
        ]
      },
      "properties": {
        "NO": 18029,
        "共通ID": "E0921300040111",
        "都道府県名及び市町村名": "栃木県那須塩原市",
        "施設・場所名": "那須塩原市東那須野公民館",
        "住所": "栃木県那須塩原市東小屋474-11",
        "指定緊急避難場所との住所同一": "1",
        "その他市町村長が必要と認める事項": null,
        "受入対象者": null,
        "備考": ""
      }
    },
    {
      "type": "Feature",
      "geometry": {
        "type": "Point",
        "coordinates": [
          140.024289,
          36.930515
        ]
      },
      "properties": {
        "NO": 18030,
        "共通ID": "E0921300040121",
        "都道府県名及び市町村名": "栃木県那須塩原市",
        "施設・場所名": "那須塩原市東那須野公民館",
        "住所": "栃木県那須塩原市東小屋474-11",
        "指定緊急避難場所との住所同一": "1",
        "その他市町村長が必要と認める事項": null,
        "受入対象者": "高齢者、障害児、乳幼児、妊産婦、傷病者、内部障碍者、難病患者、医療的ケアを必要とする者及びその家族等",
        "備考": ""
      }
    },
    {
      "type": "Feature",
      "geometry": {
        "type": "Point",
        "coordinates": [
          140.061133,
          36.966809
        ]
      },
      "properties": {
        "NO": 18031,
        "共通ID": "E0921300041111",
        "都道府県名及び市町村名": "栃木県那須塩原市",
        "施設・場所名": "那須塩原市とようら公民館",
        "住所": "栃木県那須塩原市東豊浦23-110",
        "指定緊急避難場所との住所同一": "1",
        "その他市町村長が必要と認める事項": null,
        "受入対象者": null,
        "備考": ""
      }
    },
    {
      "type": "Feature",
      "geometry": {
        "type": "Point",
        "coordinates": [
          140.06118,
          36.966858
        ]
      },
      "properties": {
        "NO": 18032,
        "共通ID": "E0921300041121",
        "都道府県名及び市町村名": "栃木県那須塩原市",
        "施設・場所名": "那須塩原市とようら公民館",
        "住所": "栃木県那須塩原市東豊浦23-110",
        "指定緊急避難場所との住所同一": "1",
        "その他市町村長が必要と認める事項": "",
        "受入対象者": "高齢者、障害児、乳幼児、妊産婦、傷病者、内部障碍者、難病患者、医療的ケアを必要とする者及びその家族等",
        "備考": ""
      }
    },
    {
      "type": "Feature",
      "geometry": {
        "type": "Point",
        "coordinates": [
          140.093086,
          36.945985
        ]
      },
      "properties": {
        "NO": 18033,
        "共通ID": "E0921300042111",
        "都道府県名及び市町村名": "栃木県那須塩原市",
        "施設・場所名": "那須塩原市立鍋掛小学校",
        "住所": "栃木県那須塩原市鍋掛1019",
        "指定緊急避難場所との住所同一": "",
        "その他市町村長が必要と認める事項": null,
        "受入対象者": null,
        "備考": ""
      }
    },
    {
      "type": "Feature",
      "geometry": {
        "type": "Point",
        "coordinates": [
          140.073553,
          36.957534
        ]
      },
      "properties": {
        "NO": 18034,
        "共通ID": "E0921300043111",
        "都道府県名及び市町村名": "栃木県那須塩原市",
        "施設・場所名": "那須塩原市立日新中学校",
        "住所": "栃木県那須塩原市鍋掛1087",
        "指定緊急避難場所との住所同一": "",
        "その他市町村長が必要と認める事項": null,
        "受入対象者": null,
        "備考": ""
      }
    },
    {
      "type": "Feature",
      "geometry": {
        "type": "Point",
        "coordinates": [
          140.072555,
          36.953753
        ]
      },
      "properties": {
        "NO": 18035,
        "共通ID": "E0921300044111",
        "都道府県名及び市町村名": "栃木県那須塩原市",
        "施設・場所名": "那須塩原市シニアセンター",
        "住所": "栃木県那須塩原市鍋掛1429-34",
        "指定緊急避難場所との住所同一": "",
        "その他市町村長が必要と認める事項": null,
        "受入対象者": null,
        "備考": ""
      }
    },
    {
      "type": "Feature",
      "geometry": {
        "type": "Point",
        "coordinates": [
          140.100683,
          36.945743
        ]
      },
      "properties": {
        "NO": 18036,
        "共通ID": "E0921300045111",
        "都道府県名及び市町村名": "栃木県那須塩原市",
        "施設・場所名": "那須塩原市鍋掛公民館",
        "住所": "栃木県那須塩原市鍋掛531",
        "指定緊急避難場所との住所同一": "1",
        "その他市町村長が必要と認める事項": null,
        "受入対象者": null,
        "備考": ""
      }
    },
    {
      "type": "Feature",
      "geometry": {
        "type": "Point",
        "coordinates": [
          140.10077,
          36.94573
        ]
      },
      "properties": {
        "NO": 18037,
        "共通ID": "E0921300045121",
        "都道府県名及び市町村名": "栃木県那須塩原市",
        "施設・場所名": "那須塩原市鍋掛公民館",
        "住所": "栃木県那須塩原市鍋掛531",
        "指定緊急避難場所との住所同一": "1",
        "その他市町村長が必要と認める事項": null,
        "受入対象者": "高齢者、障害児、乳幼児、妊産婦、傷病者、内部障碍者、難病患者、医療的ケアを必要とする者及びその家族等",
        "備考": ""
      }
    },
    {
      "type": "Feature",
      "geometry": {
        "type": "Point",
        "coordinates": [
          139.988176,
          36.897635
        ]
      },
      "properties": {
        "NO": 18038,
        "共通ID": "E0921300046111",
        "都道府県名及び市町村名": "栃木県那須塩原市",
        "施設・場所名": "那須塩原市健康長寿センター",
        "住所": "栃木県那須塩原市南郷屋5-163",
        "指定緊急避難場所との住所同一": "",
        "その他市町村長が必要と認める事項": null,
        "受入対象者": null,
        "備考": ""
      }
    },
    {
      "type": "Feature",
      "geometry": {
        "type": "Point",
        "coordinates": [
          139.971665,
          36.855781
        ]
      },
      "properties": {
        "NO": 18039,
        "共通ID": "E0921300047111",
        "都道府県名及び市町村名": "栃木県那須塩原市",
        "施設・場所名": "那須塩原市立南小学校",
        "住所": "栃木県那須塩原市二区町399",
        "指定緊急避難場所との住所同一": "",
        "その他市町村長が必要と認める事項": null,
        "受入対象者": null,
        "備考": ""
      }
    },
    {
      "type": "Feature",
      "geometry": {
        "type": "Point",
        "coordinates": [
          139.969713,
          36.855052
        ]
      },
      "properties": {
        "NO": 18040,
        "共通ID": "E0921300048111",
        "都道府県名及び市町村名": "栃木県那須塩原市",
        "施設・場所名": "那須塩原市南公民館",
        "住所": "栃木県那須塩原市二区町401",
        "指定緊急避難場所との住所同一": "1",
        "その他市町村長が必要と認める事項": null,
        "受入対象者": null,
        "備考": ""
      }
    },
    {
      "type": "Feature",
      "geometry": {
        "type": "Point",
        "coordinates": [
          139.969784,
          36.855071
        ]
      },
      "properties": {
        "NO": 18041,
        "共通ID": "E0921300048121",
        "都道府県名及び市町村名": "栃木県那須塩原市",
        "施設・場所名": "那須塩原市南公民館",
        "住所": "栃木県那須塩原市二区町401",
        "指定緊急避難場所との住所同一": "1",
        "その他市町村長が必要と認める事項": null,
        "受入対象者": "高齢者、障害児、乳幼児、妊産婦、傷病者、内部障碍者、難病患者、医療的ケアを必要とする者及びその家族等",
        "備考": ""
      }
    },
    {
      "type": "Feature",
      "geometry": {
        "type": "Point",
        "coordinates": [
          139.992706,
          36.953253
        ]
      },
      "properties": {
        "NO": 18042,
        "共通ID": "E0921300049111",
        "都道府県名及び市町村名": "栃木県那須塩原市",
        "施設・場所名": "那須塩原市立波立小学校",
        "住所": "栃木県那須塩原市波立228",
        "指定緊急避難場所との住所同一": "",
        "その他市町村長が必要と認める事項": null,
        "受入対象者": null,
        "備考": ""
      }
    },
    {
      "type": "Feature",
      "geometry": {
        "type": "Point",
        "coordinates": [
          140.011911,
          36.930833
        ]
      },
      "properties": {
        "NO": 18043,
        "共通ID": "E0921300050111",
        "都道府県名及び市町村名": "栃木県那須塩原市",
        "施設・場所名": "那須塩原市立大原間小学校",
        "住所": "栃木県那須塩原市方京3-14-6",
        "指定緊急避難場所との住所同一": "",
        "その他市町村長が必要と認める事項": null,
        "受入対象者": null,
        "備考": ""
      }
    },
    {
      "type": "Feature",
      "geometry": {
        "type": "Point",
        "coordinates": [
          140.060372,
          36.961282
        ]
      },
      "properties": {
        "NO": 18044,
        "共通ID": "E0921300051111",
        "都道府県名及び市町村名": "栃木県那須塩原市",
        "施設・場所名": "那須塩原市立豊浦小学校",
        "住所": "栃木県那須塩原市豊浦17",
        "指定緊急避難場所との住所同一": "",
        "その他市町村長が必要と認める事項": null,
        "受入対象者": null,
        "備考": ""
      }
    },
    {
      "type": "Feature",
      "geometry": {
        "type": "Point",
        "coordinates": [
          140.053361,
          36.970038
        ]
      },
      "properties": {
        "NO": 18045,
        "共通ID": "E0921300052111",
        "都道府県名及び市町村名": "栃木県那須塩原市",
        "施設・場所名": "那須塩原市立黒磯小学校",
        "住所": "栃木県那須塩原市豊町2-1",
        "指定緊急避難場所との住所同一": "",
        "その他市町村長が必要と認める事項": null,
        "受入対象者": null,
        "備考": ""
      }
    },
    {
      "type": "Feature",
      "geometry": {
        "type": "Point",
        "coordinates": [
          140.049751,
          36.968338
        ]
      },
      "properties": {
        "NO": 18046,
        "共通ID": "E0921300053111",
        "都道府県名及び市町村名": "栃木県那須塩原市",
        "施設・場所名": "那須塩原市立黒磯中学校",
        "住所": "栃木県那須塩原市豊町5-3",
        "指定緊急避難場所との住所同一": "",
        "その他市町村長が必要と認める事項": null,
        "受入対象者": null,
        "備考": ""
      }
    }
  ]
}