{
  "type": "FeatureCollection",
  "name": "092169",
  "features": [
    {
      "type": "Feature",
      "geometry": {
        "type": "Point",
        "coordinates": [
          139.844763,
          36.369815
        ]
      },
      "properties": {
        "NO": 18117,
        "共通ID": "E0921600001111",
        "都道府県名及び市町村名": "栃木県下野市",
        "施設・場所名": "国分寺武道館",
        "住所": "栃木県下野市駅東7-3-13",
        "指定緊急避難場所との住所同一": "1",
        "その他市町村長が必要と認める事項": null,
        "受入対象者": null,
        "備考": ""
      }
    },
    {
      "type": "Feature",
      "geometry": {
        "type": "Point",
        "coordinates": [
          139.84447,
          36.370844
        ]
      },
      "properties": {
        "NO": 18118,
        "共通ID": "E0921600002111",
        "都道府県名及び市町村名": "栃木県下野市",
        "施設・場所名": "国分寺東児童館",
        "住所": "栃木県下野市駅東7-4",
        "指定緊急避難場所との住所同一": "1",
        "その他市町村長が必要と認める事項": null,
        "受入対象者": null,
        "備考": ""
      }
    },
    {
      "type": "Feature",
      "geometry": {
        "type": "Point",
        "coordinates": [
          139.843684,
          36.445209
        ]
      },
      "properties": {
        "NO": 18119,
        "共通ID": "E0921600003111",
        "都道府県名及び市町村名": "栃木県下野市",
        "施設・場所名": "保健福祉センターきらら館",
        "住所": "栃木県下野市下古山1220",
        "指定緊急避難場所との住所同一": "1",
        "その他市町村長が必要と認める事項": null,
        "受入対象者": null,
        "備考": ""
      }
    },
    {
      "type": "Feature",
      "geometry": {
        "type": "Point",
        "coordinates": [
          139.843684,
          36.445209
        ]
      },
      "properties": {
        "NO": 18120,
        "共通ID": "E0921600003121",
        "都道府県名及び市町村名": "栃木県下野市",
        "施設・場所名": "保健福祉センターきらら館",
        "住所": "栃木県下野市下古山1220",
        "指定緊急避難場所との住所同一": "1",
        "その他市町村長が必要と認める事項": null,
        "受入対象者": "要配慮者",
        "備考": ""
      }
    },
    {
      "type": "Feature",
      "geometry": {
        "type": "Point",
        "coordinates": [
          139.85926,
          36.445227
        ]
      },
      "properties": {
        "NO": 18121,
        "共通ID": "E0921600004111",
        "都道府県名及び市町村名": "栃木県下野市",
        "施設・場所名": "古山小学校",
        "住所": "栃木県下野市下古山3-1-9",
        "指定緊急避難場所との住所同一": "1",
        "その他市町村長が必要と認める事項": null,
        "受入対象者": null,
        "備考": ""
      }
    },
    {
      "type": "Feature",
      "geometry": {
        "type": "Point",
        "coordinates": [
          139.858733,
          36.449121
        ]
      },
      "properties": {
        "NO": 18122,
        "共通ID": "E0921600005111",
        "都道府県名及び市町村名": "栃木県下野市",
        "施設・場所名": "グリムの館",
        "住所": "栃木県下野市下古山747",
        "指定緊急避難場所との住所同一": "1",
        "その他市町村長が必要と認める事項": null,
        "受入対象者": null,
        "備考": ""
      }
    },
    {
      "type": "Feature",
      "geometry": {
        "type": "Point",
        "coordinates": [
          139.842102,
          36.450029
        ]
      },
      "properties": {
        "NO": 18123,
        "共通ID": "E0921600006111",
        "都道府県名及び市町村名": "栃木県下野市",
        "施設・場所名": "ふれあいセンター",
        "住所": "栃木県下野市下長田146",
        "指定緊急避難場所との住所同一": "1",
        "その他市町村長が必要と認める事項": null,
        "受入対象者": null,
        "備考": ""
      }
    },
    {
      "type": "Feature",
      "geometry": {
        "type": "Point",
        "coordinates": [
          139.888761,
          36.367755
        ]
      },
      "properties": {
        "NO": 18124,
        "共通ID": "E0921600007111",
        "都道府県名及び市町村名": "栃木県下野市",
        "施設・場所名": "旧吉田西小学校",
        "住所": "栃木県下野市下坪山959",
        "指定緊急避難場所との住所同一": "1",
        "その他市町村長が必要と認める事項": null,
        "受入対象者": null,
        "備考": ""
      }
    },
    {
      "type": "Feature",
      "geometry": {
        "type": "Point",
        "coordinates": [
          139.862426,
          36.431912
        ]
      },
      "properties": {
        "NO": 18125,
        "共通ID": "E0921600008111",
        "都道府県名及び市町村名": "栃木県下野市",
        "施設・場所名": "石橋小学校",
        "住所": "栃木県下野市花の木1-4",
        "指定緊急避難場所との住所同一": "1",
        "その他市町村長が必要と認める事項": null,
        "受入対象者": null,
        "備考": ""
      }
    },
    {
      "type": "Feature",
      "geometry": {
        "type": "Point",
        "coordinates": [
          139.862297,
          36.393711
        ]
      },
      "properties": {
        "NO": 18126,
        "共通ID": "E0921600009111",
        "都道府県名及び市町村名": "栃木県下野市",
        "施設・場所名": "祇園小学校",
        "住所": "栃木県下野市祇󠄀園2-21-3",
        "指定緊急避難場所との住所同一": "1",
        "その他市町村長が必要と認める事項": null,
        "受入対象者": null,
        "備考": ""
      }
    },
    {
      "type": "Feature",
      "geometry": {
        "type": "Point",
        "coordinates": [
          139.8603,
          36.390079
        ]
      },
      "properties": {
        "NO": 18127,
        "共通ID": "E0921600011111",
        "都道府県名及び市町村名": "栃木県下野市",
        "施設・場所名": "南河内第二中学校",
        "住所": "栃木県下野市祇󠄀園4-16-3",
        "指定緊急避難場所との住所同一": "1",
        "その他市町村長が必要と認める事項": null,
        "受入対象者": null,
        "備考": ""
      }
    },
    {
      "type": "Feature",
      "geometry": {
        "type": "Point",
        "coordinates": [
          139.811318,
          36.385515
        ]
      },
      "properties": {
        "NO": 18128,
        "共通ID": "E0921600013111",
        "都道府県名及び市町村名": "栃木県下野市",
        "施設・場所名": "国分寺聖武館",
        "住所": "栃木県下野市国分寺628-2",
        "指定緊急避難場所との住所同一": "1",
        "その他市町村長が必要と認める事項": null,
        "受入対象者": null,
        "備考": ""
      }
    },
    {
      "type": "Feature",
      "geometry": {
        "type": "Point",
        "coordinates": [
          139.831368,
          36.425877
        ]
      },
      "properties": {
        "NO": 18129,
        "共通ID": "E0921600014111",
        "都道府県名及び市町村名": "栃木県下野市",
        "施設・場所名": "細谷小学校",
        "住所": "栃木県下野市細谷693",
        "指定緊急避難場所との住所同一": "1",
        "その他市町村長が必要と認める事項": null,
        "受入対象者": null,
        "備考": ""
      }
    },
    {
      "type": "Feature",
      "geometry": {
        "type": "Point",
        "coordinates": [
          139.902976,
          36.397492
        ]
      },
      "properties": {
        "NO": 18130,
        "共通ID": "E0921600015111",
        "都道府県名及び市町村名": "栃木県下野市",
        "施設・場所名": "ふれあい館",
        "住所": "栃木県下野市三王山698-5",
        "指定緊急避難場所との住所同一": "1",
        "その他市町村長が必要と認める事項": null,
        "受入対象者": null,
        "備考": ""
      }
    },
    {
      "type": "Feature",
      "geometry": {
        "type": "Point",
        "coordinates": [
          139.902976,
          36.397492
        ]
      },
      "properties": {
        "NO": 18131,
        "共通ID": "E0921600015121",
        "都道府県名及び市町村名": "栃木県下野市",
        "施設・場所名": "ふれあい館",
        "住所": "栃木県下野市三王山698-5",
        "指定緊急避難場所との住所同一": "1",
        "その他市町村長が必要と認める事項": null,
        "受入対象者": "要配慮者",
        "備考": ""
      }
    },
    {
      "type": "Feature",
      "geometry": {
        "type": "Point",
        "coordinates": [
          139.851333,
          36.370605
        ]
      },
      "properties": {
        "NO": 18132,
        "共通ID": "E0921600016111",
        "都道府県名及び市町村名": "栃木県下野市",
        "施設・場所名": "コミュニティセンター友愛館",
        "住所": "栃木県下野市柴1019-1",
        "指定緊急避難場所との住所同一": "1",
        "その他市町村長が必要と認める事項": null,
        "受入対象者": null,
        "備考": ""
      }
    },
    {
      "type": "Feature",
      "geometry": {
        "type": "Point",
        "coordinates": [
          139.849528,
          36.372278
        ]
      },
      "properties": {
        "NO": 18133,
        "共通ID": "E0921600017111",
        "都道府県名及び市町村名": "栃木県下野市",
        "施設・場所名": "国分寺東小学校",
        "住所": "栃木県下野市柴897-1",
        "指定緊急避難場所との住所同一": "1",
        "その他市町村長が必要と認める事項": null,
        "受入対象者": null,
        "備考": ""
      }
    },
    {
      "type": "Feature",
      "geometry": {
        "type": "Point",
        "coordinates": [
          139.841474,
          36.387446
        ]
      },
      "properties": {
        "NO": 18134,
        "共通ID": "E0921600018111",
        "都道府県名及び市町村名": "栃木県下野市",
        "施設・場所名": "国分寺公民館",
        "住所": "栃木県下野市小金井1127",
        "指定緊急避難場所との住所同一": "1",
        "その他市町村長が必要と認める事項": null,
        "受入対象者": null,
        "備考": ""
      }
    },
    {
      "type": "Feature",
      "geometry": {
        "type": "Point",
        "coordinates": [
          139.836122,
          36.384104
        ]
      },
      "properties": {
        "NO": 18135,
        "共通ID": "E0921600019111",
        "都道府県名及び市町村名": "栃木県下野市",
        "施設・場所名": "国分寺Ｂ＆Ｇ海洋センター体育館",
        "住所": "栃木県下野市小金井277-2",
        "指定緊急避難場所との住所同一": "1",
        "その他市町村長が必要と認める事項": null,
        "受入対象者": null,
        "備考": ""
      }
    },
    {
      "type": "Feature",
      "geometry": {
        "type": "Point",
        "coordinates": [
          139.839389,
          36.380181
        ]
      },
      "properties": {
        "NO": 18136,
        "共通ID": "E0921600020111",
        "都道府県名及び市町村名": "栃木県下野市",
        "施設・場所名": "国分寺中学校",
        "住所": "栃木県下野市小金井4-1-8",
        "指定緊急避難場所との住所同一": "1",
        "その他市町村長が必要と認める事項": null,
        "受入対象者": null,
        "備考": ""
      }
    },
    {
      "type": "Feature",
      "geometry": {
        "type": "Point",
        "coordinates": [
          139.840625,
          36.380856
        ]
      },
      "properties": {
        "NO": 18137,
        "共通ID": "E0921600021111",
        "都道府県名及び市町村名": "栃木県下野市",
        "施設・場所名": "国分寺小学校",
        "住所": "栃木県下野市小金井4-2-3",
        "指定緊急避難場所との住所同一": "1",
        "その他市町村長が必要と認める事項": null,
        "受入対象者": null,
        "備考": ""
      }
    },
    {
      "type": "Feature",
      "geometry": {
        "type": "Point",
        "coordinates": [
          139.836253,
          36.376702
        ]
      },
      "properties": {
        "NO": 18138,
        "共通ID": "E0921600022111",
        "都道府県名及び市町村名": "栃木県下野市",
        "施設・場所名": "国分寺駅西児童館",
        "住所": "栃木県下野市小金井5-22-1",
        "指定緊急避難場所との住所同一": "1",
        "その他市町村長が必要と認める事項": null,
        "受入対象者": null,
        "備考": ""
      }
    },
    {
      "type": "Feature",
      "geometry": {
        "type": "Point",
        "coordinates": [
          139.837299,
          36.385086
        ]
      },
      "properties": {
        "NO": 18139,
        "共通ID": "E0921600023111",
        "都道府県名及び市町村名": "栃木県下野市",
        "施設・場所名": "保健福祉センターゆうゆう館",
        "住所": "栃木県下野市小金井789",
        "指定緊急避難場所との住所同一": "1",
        "その他市町村長が必要と認める事項": null,
        "受入対象者": null,
        "備考": ""
      }
    },
    {
      "type": "Feature",
      "geometry": {
        "type": "Point",
        "coordinates": [
          139.837299,
          36.385086
        ]
      },
      "properties": {
        "NO": 18140,
        "共通ID": "E0921600023121",
        "都道府県名及び市町村名": "栃木県下野市",
        "施設・場所名": "保健福祉センターゆうゆう館",
        "住所": "栃木県下野市小金井789",
        "指定緊急避難場所との住所同一": "1",
        "その他市町村長が必要と認める事項": null,
        "受入対象者": "要配慮者",
        "備考": ""
      }
    },
    {
      "type": "Feature",
      "geometry": {
        "type": "Point",
        "coordinates": [
          139.860116,
          36.465489
        ]
      },
      "properties": {
        "NO": 18141,
        "共通ID": "E0921600024111",
        "都道府県名及び市町村名": "栃木県下野市",
        "施設・場所名": "石橋北小学校",
        "住所": "栃木県下野市上古山1932",
        "指定緊急避難場所との住所同一": "1",
        "その他市町村長が必要と認める事項": null,
        "受入対象者": null,
        "備考": ""
      }
    },
    {
      "type": "Feature",
      "geometry": {
        "type": "Point",
        "coordinates": [
          139.878279,
          36.384315
        ]
      },
      "properties": {
        "NO": 18142,
        "共通ID": "E0921600025111",
        "都道府県名及び市町村名": "栃木県下野市",
        "施設・場所名": "南河内体育センター",
        "住所": "栃木県下野市仁良川1141",
        "指定緊急避難場所との住所同一": "1",
        "その他市町村長が必要と認める事項": null,
        "受入対象者": null,
        "備考": ""
      }
    },
    {
      "type": "Feature",
      "geometry": {
        "type": "Point",
        "coordinates": [
          139.877244,
          36.37701
        ]
      },
      "properties": {
        "NO": 18143,
        "共通ID": "E0921600026111",
        "都道府県名及び市町村名": "栃木県下野市",
        "施設・場所名": "仁良川コミュニティセンター",
        "住所": "栃木県下野市仁良川1468",
        "指定緊急避難場所との住所同一": "1",
        "その他市町村長が必要と認める事項": null,
        "受入対象者": null,
        "備考": ""
      }
    },
    {
      "type": "Feature",
      "geometry": {
        "type": "Point",
        "coordinates": [
          139.845711,
          36.438544
        ]
      },
      "properties": {
        "NO": 18144,
        "共通ID": "E0921600027111",
        "都道府県名及び市町村名": "栃木県下野市",
        "施設・場所名": "石橋中学校",
        "住所": "栃木県下野市石橋1130",
        "指定緊急避難場所との住所同一": "1",
        "その他市町村長が必要と認める事項": null,
        "受入対象者": null,
        "備考": ""
      }
    },
    {
      "type": "Feature",
      "geometry": {
        "type": "Point",
        "coordinates": [
          139.858064,
          36.438803
        ]
      },
      "properties": {
        "NO": 18145,
        "共通ID": "E0921600028111",
        "都道府県名及び市町村名": "栃木県下野市",
        "施設・場所名": "石橋高等学校",
        "住所": "栃木県下野市石橋845",
        "指定緊急避難場所との住所同一": "1",
        "その他市町村長が必要と認める事項": null,
        "受入対象者": null,
        "備考": ""
      }
    },
    {
      "type": "Feature",
      "geometry": {
        "type": "Point",
        "coordinates": [
          139.81897,
          36.39192
        ]
      },
      "properties": {
        "NO": 18146,
        "共通ID": "E0921600029111",
        "都道府県名及び市町村名": "栃木県下野市",
        "施設・場所名": "旧国分寺西小学校",
        "住所": "栃木県下野市川中子3278",
        "指定緊急避難場所との住所同一": "1",
        "その他市町村長が必要と認める事項": null,
        "受入対象者": null,
        "備考": ""
      }
    },
    {
      "type": "Feature",
      "geometry": {
        "type": "Point",
        "coordinates": [
          139.857108,
          36.431812
        ]
      },
      "properties": {
        "NO": 18147,
        "共通ID": "E0921600030111",
        "都道府県名及び市町村名": "栃木県下野市",
        "施設・場所名": "石橋体育センター",
        "住所": "栃木県下野市大松山1-7-1",
        "指定緊急避難場所との住所同一": "1",
        "その他市町村長が必要と認める事項": null,
        "受入対象者": null,
        "備考": ""
      }
    },
    {
      "type": "Feature",
      "geometry": {
        "type": "Point",
        "coordinates": [
          139.857663,
          36.431941
        ]
      },
      "properties": {
        "NO": 18148,
        "共通ID": "E0921600030112",
        "都道府県名及び市町村名": "栃木県下野市",
        "施設・場所名": "スポーツ交流館",
        "住所": "栃木県下野市大松山1-7-1",
        "指定緊急避難場所との住所同一": "1",
        "その他市町村長が必要と認める事項": null,
        "受入対象者": null,
        "備考": ""
      }
    },
    {
      "type": "Feature",
      "geometry": {
        "type": "Point",
        "coordinates": [
          139.8563,
          36.430638
        ]
      },
      "properties": {
        "NO": 18149,
        "共通ID": "E0921600031111",
        "都道府県名及び市町村名": "栃木県下野市",
        "施設・場所名": "石橋図書館",
        "住所": "栃木県下野市大松山1-7-3",
        "指定緊急避難場所との住所同一": "1",
        "その他市町村長が必要と認める事項": null,
        "受入対象者": null,
        "備考": ""
      }
    },
    {
      "type": "Feature",
      "geometry": {
        "type": "Point",
        "coordinates": [
          139.910248,
          36.382581
        ]
      },
      "properties": {
        "NO": 18150,
        "共通ID": "E0921600032111",
        "都道府県名及び市町村名": "栃木県下野市",
        "施設・場所名": "旧吉田東小学校",
        "住所": "栃木県下野市中川島7",
        "指定緊急避難場所との住所同一": "1",
        "その他市町村長が必要と認める事項": null,
        "受入対象者": null,
        "備考": ""
      }
    },
    {
      "type": "Feature",
      "geometry": {
        "type": "Point",
        "coordinates": [
          139.877574,
          36.384669
        ]
      },
      "properties": {
        "NO": 18151,
        "共通ID": "E0921600033111",
        "都道府県名及び市町村名": "栃木県下野市",
        "施設・場所名": "南河内公民館",
        "住所": "栃木県下野市田中681-1",
        "指定緊急避難場所との住所同一": "1",
        "その他市町村長が必要と認める事項": null,
        "受入対象者": null,
        "備考": ""
      }
    },
    {
      "type": "Feature",
      "geometry": {
        "type": "Point",
        "coordinates": [
          139.909395,
          36.374483
        ]
      },
      "properties": {
        "NO": 18152,
        "共通ID": "E0921600034111",
        "都道府県名及び市町村名": "栃木県下野市",
        "施設・場所名": "南河内東公民館",
        "住所": "栃木県下野市本吉田783",
        "指定緊急避難場所との住所同一": "1",
        "その他市町村長が必要と認める事項": null,
        "受入対象者": null,
        "備考": ""
      }
    },
    {
      "type": "Feature",
      "geometry": {
        "type": "Point",
        "coordinates": [
          139.909062,
          36.37425
        ]
      },
      "properties": {
        "NO": 18153,
        "共通ID": "E0921600034112",
        "都道府県名及び市町村名": "栃木県下野市",
        "施設・場所名": "南河内東体育館",
        "住所": "栃木県下野市本吉田783",
        "指定緊急避難場所との住所同一": "1",
        "その他市町村長が必要と認める事項": null,
        "受入対象者": null,
        "備考": ""
      }
    },
    {
      "type": "Feature",
      "geometry": {
        "type": "Point",
        "coordinates": [
          139.874047,
          36.395423
        ]
      },
      "properties": {
        "NO": 18154,
        "共通ID": "E0921600035111",
        "都道府県名及び市町村名": "栃木県下野市",
        "施設・場所名": "薬師寺コミュニティセンター",
        "住所": "栃木県下野市薬師寺1387-25",
        "指定緊急避難場所との住所同一": "1",
        "その他市町村長が必要と認める事項": null,
        "受入対象者": null,
        "備考": ""
      }
    },
    {
      "type": "Feature",
      "geometry": {
        "type": "Point",
        "coordinates": [
          139.877096,
          36.395093
        ]
      },
      "properties": {
        "NO": 18155,
        "共通ID": "E0921600036111",
        "都道府県名及び市町村名": "栃木県下野市",
        "施設・場所名": "旧薬師寺小学校",
        "住所": "栃木県下野市薬師寺1412",
        "指定緊急避難場所との住所同一": "1",
        "その他市町村長が必要と認める事項": null,
        "受入対象者": null,
        "備考": ""
      }
    },
    {
      "type": "Feature",
      "geometry": {
        "type": "Point",
        "coordinates": [
          139.876553,
          36.386809
        ]
      },
      "properties": {
        "NO": 18156,
        "共通ID": "E0921600037111",
        "都道府県名及び市町村名": "栃木県下野市",
        "施設・場所名": "南河内小中学校",
        "住所": "栃木県下野市薬師寺986",
        "指定緊急避難場所との住所同一": "1",
        "その他市町村長が必要と認める事項": null,
        "受入対象者": null,
        "備考": ""
      }
    },
    {
      "type": "Feature",
      "geometry": {
        "type": "Point",
        "coordinates": [
          139.856365,
          36.386983
        ]
      },
      "properties": {
        "NO": 18157,
        "共通ID": "E0921600039111",
        "都道府県名及び市町村名": "栃木県下野市",
        "施設・場所名": "緑小学校",
        "住所": "栃木県下野市緑3-16-1",
        "指定緊急避難場所との住所同一": "1",
        "その他市町村長が必要と認める事項": null,
        "受入対象者": null,
        "備考": ""
      }
    },
    {
      "type": "Feature",
      "geometry": {
        "type": "Point",
        "coordinates": [
          139.869543,
          36.415954
        ]
      },
      "properties": {
        "NO": 18158,
        "共通ID": "E0921600040111",
        "都道府県名及び市町村名": "栃木県下野市",
        "施設・場所名": "上三川高等学校",
        "住所": "栃木県上三川町大字多功994-4",
        "指定緊急避難場所との住所同一": "1",
        "その他市町村長が必要と認める事項": null,
        "受入対象者": null,
        "備考": ""
      }
    }
  ]
}