{
  "type": "FeatureCollection",
  "name": "112038",
  "features": [
    {
      "type": "Feature",
      "geometry": {
        "type": "Point",
        "coordinates": [
          139.759193,
          35.849056
        ]
      },
      "properties": {
        "NO": 20517,
        "共通ID": "E1120300001121",
        "都道府県名及び市町村名": "埼玉県川口市",
        "施設・場所名": "川口市老人福祉センター安行たたら荘",
        "住所": "埼玉県川口市安行1194",
        "指定緊急避難場所との住所同一": "",
        "その他市町村長が必要と認める事項": null,
        "受入対象者": "要配慮者",
        "備考": ""
      }
    },
    {
      "type": "Feature",
      "geometry": {
        "type": "Point",
        "coordinates": [
          139.759761,
          35.85177
        ]
      },
      "properties": {
        "NO": 20518,
        "共通ID": "E1120300002111",
        "都道府県名及び市町村名": "埼玉県川口市",
        "施設・場所名": "安行東中学校",
        "住所": "埼玉県川口市安行34",
        "指定緊急避難場所との住所同一": "1",
        "その他市町村長が必要と認める事項": null,
        "受入対象者": null,
        "備考": ""
      }
    },
    {
      "type": "Feature",
      "geometry": {
        "type": "Point",
        "coordinates": [
          139.765733,
          35.839411
        ]
      },
      "properties": {
        "NO": 20519,
        "共通ID": "E1120300003111",
        "都道府県名及び市町村名": "埼玉県川口市",
        "施設・場所名": "安行小学校",
        "住所": "埼玉県川口市安行原2020",
        "指定緊急避難場所との住所同一": "1",
        "その他市町村長が必要と認める事項": null,
        "受入対象者": null,
        "備考": ""
      }
    },
    {
      "type": "Feature",
      "geometry": {
        "type": "Point",
        "coordinates": [
          139.763817,
          35.842133
        ]
      },
      "properties": {
        "NO": 20520,
        "共通ID": "E1120300005111",
        "都道府県名及び市町村名": "埼玉県川口市",
        "施設・場所名": "安行中学校",
        "住所": "埼玉県川口市安行原2221",
        "指定緊急避難場所との住所同一": "1",
        "その他市町村長が必要と認める事項": null,
        "受入対象者": null,
        "備考": ""
      }
    },
    {
      "type": "Feature",
      "geometry": {
        "type": "Point",
        "coordinates": [
          139.750679,
          35.84066
        ]
      },
      "properties": {
        "NO": 20521,
        "共通ID": "E1120300006111",
        "都道府県名及び市町村名": "埼玉県川口市",
        "施設・場所名": "慈林小学校",
        "住所": "埼玉県川口市安行慈林356",
        "指定緊急避難場所との住所同一": "1",
        "その他市町村長が必要と認める事項": null,
        "受入対象者": null,
        "備考": ""
      }
    },
    {
      "type": "Feature",
      "geometry": {
        "type": "Point",
        "coordinates": [
          139.767121,
          35.852076
        ]
      },
      "properties": {
        "NO": 20522,
        "共通ID": "E1120300007111",
        "都道府県名及び市町村名": "埼玉県川口市",
        "施設・場所名": "安行東小学校",
        "住所": "埼玉県川口市安行出羽4-1-1",
        "指定緊急避難場所との住所同一": "1",
        "その他市町村長が必要と認める事項": null,
        "受入対象者": null,
        "備考": ""
      }
    },
    {
      "type": "Feature",
      "geometry": {
        "type": "Point",
        "coordinates": [
          139.715876,
          35.842965
        ]
      },
      "properties": {
        "NO": 20523,
        "共通ID": "E1120300010111",
        "都道府県名及び市町村名": "埼玉県川口市",
        "施設・場所名": "根岸小学校",
        "住所": "埼玉県川口市安行領根岸113",
        "指定緊急避難場所との住所同一": "1",
        "その他市町村長が必要と認める事項": null,
        "受入対象者": null,
        "備考": ""
      }
    },
    {
      "type": "Feature",
      "geometry": {
        "type": "Point",
        "coordinates": [
          139.707488,
          35.845492
        ]
      },
      "properties": {
        "NO": 20524,
        "共通ID": "E1120300011111",
        "都道府県名及び市町村名": "埼玉県川口市",
        "施設・場所名": "岸川中学校",
        "住所": "埼玉県川口市安行領根岸374-1",
        "指定緊急避難場所との住所同一": "1",
        "その他市町村長が必要と認める事項": null,
        "受入対象者": null,
        "備考": ""
      }
    },
    {
      "type": "Feature",
      "geometry": {
        "type": "Point",
        "coordinates": [
          139.71357,
          35.856213
        ]
      },
      "properties": {
        "NO": 20525,
        "共通ID": "E1120300012111",
        "都道府県名及び市町村名": "埼玉県川口市",
        "施設・場所名": "在家中学校",
        "住所": "埼玉県川口市安行領在家272",
        "指定緊急避難場所との住所同一": "",
        "その他市町村長が必要と認める事項": null,
        "受入対象者": null,
        "備考": ""
      }
    },
    {
      "type": "Feature",
      "geometry": {
        "type": "Point",
        "coordinates": [
          139.711709,
          35.854075
        ]
      },
      "properties": {
        "NO": 20526,
        "共通ID": "E1120300013111",
        "都道府県名及び市町村名": "埼玉県川口市",
        "施設・場所名": "在家小学校",
        "住所": "埼玉県川口市安行領在家323",
        "指定緊急避難場所との住所同一": "",
        "その他市町村長が必要と認める事項": null,
        "受入対象者": null,
        "備考": ""
      }
    },
    {
      "type": "Feature",
      "geometry": {
        "type": "Point",
        "coordinates": [
          139.704237,
          35.846794
        ]
      },
      "properties": {
        "NO": 20527,
        "共通ID": "E1120300014121",
        "都道府県名及び市町村名": "埼玉県川口市",
        "施設・場所名": "芝福祉センター（川口市老人福祉センター芝たたら荘・老人デイサービスセンター芝れんげそう・芝保健ステーション）",
        "住所": "埼玉県川口市伊刈20",
        "指定緊急避難場所との住所同一": "",
        "その他市町村長が必要と認める事項": null,
        "受入対象者": "要配慮者",
        "備考": ""
      }
    },
    {
      "type": "Feature",
      "geometry": {
        "type": "Point",
        "coordinates": [
          139.702685,
          35.800755
        ]
      },
      "properties": {
        "NO": 20528,
        "共通ID": "E1120300015111",
        "都道府県名及び市町村名": "埼玉県川口市",
        "施設・場所名": "西中学校",
        "住所": "埼玉県川口市宮町16-1",
        "指定緊急避難場所との住所同一": "1",
        "その他市町村長が必要と認める事項": null,
        "受入対象者": null,
        "備考": ""
      }
    },
    {
      "type": "Feature",
      "geometry": {
        "type": "Point",
        "coordinates": [
          139.730553,
          35.797615
        ]
      },
      "properties": {
        "NO": 20529,
        "共通ID": "E1120300016111",
        "都道府県名及び市町村名": "埼玉県川口市",
        "施設・場所名": "元郷南小学校",
        "住所": "埼玉県川口市元郷2-15-20",
        "指定緊急避難場所との住所同一": "1",
        "その他市町村長が必要と認める事項": null,
        "受入対象者": null,
        "備考": ""
      }
    },
    {
      "type": "Feature",
      "geometry": {
        "type": "Point",
        "coordinates": [
          139.742573,
          35.799291
        ]
      },
      "properties": {
        "NO": 20530,
        "共通ID": "E1120300017121",
        "都道府県名及び市町村名": "埼玉県川口市",
        "施設・場所名": "川口市立南平公民館",
        "住所": "埼玉県川口市元郷6-14-1",
        "指定緊急避難場所との住所同一": "1",
        "その他市町村長が必要と認める事項": null,
        "受入対象者": "要配慮者",
        "備考": ""
      }
    },
    {
      "type": "Feature",
      "geometry": {
        "type": "Point",
        "coordinates": [
          139.741931,
          35.800556
        ]
      },
      "properties": {
        "NO": 20531,
        "共通ID": "E1120300018111",
        "都道府県名及び市町村名": "埼玉県川口市",
        "施設・場所名": "元郷小学校",
        "住所": "埼玉県川口市元郷6-2-1",
        "指定緊急避難場所との住所同一": "1",
        "その他市町村長が必要と認める事項": null,
        "受入対象者": null,
        "備考": ""
      }
    },
    {
      "type": "Feature",
      "geometry": {
        "type": "Point",
        "coordinates": [
          139.746956,
          35.869185
        ]
      },
      "properties": {
        "NO": 20532,
        "共通ID": "E1120300019111",
        "都道府県名及び市町村名": "埼玉県川口市",
        "施設・場所名": "戸塚小学校",
        "住所": "埼玉県川口市戸塚3-13-55",
        "指定緊急避難場所との住所同一": "1",
        "その他市町村長が必要と認める事項": null,
        "受入対象者": null,
        "備考": ""
      }
    },
    {
      "type": "Feature",
      "geometry": {
        "type": "Point",
        "coordinates": [
          139.755177,
          35.870907
        ]
      },
      "properties": {
        "NO": 20533,
        "共通ID": "E1120300020111",
        "都道府県名及び市町村名": "埼玉県川口市",
        "施設・場所名": "戸塚東小学校",
        "住所": "埼玉県川口市戸塚東2-18-20",
        "指定緊急避難場所との住所同一": "1",
        "その他市町村長が必要と認める事項": null,
        "受入対象者": null,
        "備考": ""
      }
    },
    {
      "type": "Feature",
      "geometry": {
        "type": "Point",
        "coordinates": [
          139.744858,
          35.864671
        ]
      },
      "properties": {
        "NO": 20534,
        "共通ID": "E1120300023111",
        "都道府県名及び市町村名": "埼玉県川口市",
        "施設・場所名": "戸塚南小学校",
        "住所": "埼玉県川口市戸塚南4-10-1",
        "指定緊急避難場所との住所同一": "1",
        "その他市町村長が必要と認める事項": null,
        "受入対象者": null,
        "備考": ""
      }
    },
    {
      "type": "Feature",
      "geometry": {
        "type": "Point",
        "coordinates": [
          139.745037,
          35.864892
        ]
      },
      "properties": {
        "NO": 20535,
        "共通ID": "E1120300024121",
        "都道府県名及び市町村名": "埼玉県川口市",
        "施設・場所名": "川口市立戸塚児童センター",
        "住所": "埼玉県川口市戸塚南4-10-2",
        "指定緊急避難場所との住所同一": "",
        "その他市町村長が必要と認める事項": null,
        "受入対象者": "要配慮者",
        "備考": ""
      }
    },
    {
      "type": "Feature",
      "geometry": {
        "type": "Point",
        "coordinates": [
          139.755955,
          35.864797
        ]
      },
      "properties": {
        "NO": 20536,
        "共通ID": "E1120300025111",
        "都道府県名及び市町村名": "埼玉県川口市",
        "施設・場所名": "戸塚中学校",
        "住所": "埼玉県川口市戸塚鋏町3-1",
        "指定緊急避難場所との住所同一": "1",
        "その他市町村長が必要と認める事項": null,
        "受入対象者": null,
        "備考": ""
      }
    },
    {
      "type": "Feature",
      "geometry": {
        "type": "Point",
        "coordinates": [
          139.717786,
          35.805826
        ]
      },
      "properties": {
        "NO": 20537,
        "共通ID": "E1120300026111",
        "都道府県名及び市町村名": "埼玉県川口市",
        "施設・場所名": "幸町小学校",
        "住所": "埼玉県川口市幸町3-8-33",
        "指定緊急避難場所との住所同一": "1",
        "その他市町村長が必要と認める事項": null,
        "受入対象者": null,
        "備考": ""
      }
    },
    {
      "type": "Feature",
      "geometry": {
        "type": "Point",
        "coordinates": [
          139.753735,
          35.820192
        ]
      },
      "properties": {
        "NO": 20538,
        "共通ID": "E1120300027111",
        "都道府県名及び市町村名": "埼玉県川口市",
        "施設・場所名": "新郷南小学校",
        "住所": "埼玉県川口市江戸3-12-1",
        "指定緊急避難場所との住所同一": "1",
        "その他市町村長が必要と認める事項": null,
        "受入対象者": null,
        "備考": ""
      }
    },
    {
      "type": "Feature",
      "geometry": {
        "type": "Point",
        "coordinates": [
          139.729152,
          35.867629
        ]
      },
      "properties": {
        "NO": 20539,
        "共通ID": "E1120300030111",
        "都道府県名及び市町村名": "埼玉県川口市",
        "施設・場所名": "差間小学校",
        "住所": "埼玉県川口市差間430",
        "指定緊急避難場所との住所同一": "1",
        "その他市町村長が必要と認める事項": null,
        "受入対象者": null,
        "備考": ""
      }
    },
    {
      "type": "Feature",
      "geometry": {
        "type": "Point",
        "coordinates": [
          139.738474,
          35.841348
        ]
      },
      "properties": {
        "NO": 20540,
        "共通ID": "E1120300034111",
        "都道府県名及び市町村名": "埼玉県川口市",
        "施設・場所名": "桜町小学校",
        "住所": "埼玉県川口市桜町2-12-10",
        "指定緊急避難場所との住所同一": "1",
        "その他市町村長が必要と認める事項": null,
        "受入対象者": null,
        "備考": ""
      }
    },
    {
      "type": "Feature",
      "geometry": {
        "type": "Point",
        "coordinates": [
          139.739893,
          35.836897
        ]
      },
      "properties": {
        "NO": 20541,
        "共通ID": "E1120300035121",
        "都道府県名及び市町村名": "埼玉県川口市",
        "施設・場所名": "鳩ヶ谷福祉センター（は～とふる鳩ヶ谷）",
        "住所": "埼玉県川口市桜町6-4-5",
        "指定緊急避難場所との住所同一": "",
        "その他市町村長が必要と認める事項": null,
        "受入対象者": "要配慮者",
        "備考": ""
      }
    },
    {
      "type": "Feature",
      "geometry": {
        "type": "Point",
        "coordinates": [
          139.743431,
          35.82162
        ]
      },
      "properties": {
        "NO": 20542,
        "共通ID": "E1120300036111",
        "都道府県名及び市町村名": "埼玉県川口市",
        "施設・場所名": "鳩ヶ谷スポーツセンター",
        "住所": "埼玉県川口市三ツ和3-21-1",
        "指定緊急避難場所との住所同一": "",
        "その他市町村長が必要と認める事項": null,
        "受入対象者": null,
        "備考": ""
      }
    },
    {
      "type": "Feature",
      "geometry": {
        "type": "Point",
        "coordinates": [
          139.698684,
          35.834521
        ]
      },
      "properties": {
        "NO": 20543,
        "共通ID": "E1120300037111",
        "都道府県名及び市町村名": "埼玉県川口市",
        "施設・場所名": "芝南小学校",
        "住所": "埼玉県川口市芝3-17-1",
        "指定緊急避難場所との住所同一": "1",
        "その他市町村長が必要と認める事項": null,
        "受入対象者": null,
        "備考": ""
      }
    },
    {
      "type": "Feature",
      "geometry": {
        "type": "Point",
        "coordinates": [
          139.692767,
          35.837604
        ]
      },
      "properties": {
        "NO": 20544,
        "共通ID": "E1120300039111",
        "都道府県名及び市町村名": "埼玉県川口市",
        "施設・場所名": "芝小学校",
        "住所": "埼玉県川口市芝5218",
        "指定緊急避難場所との住所同一": "1",
        "その他市町村長が必要と認める事項": null,
        "受入対象者": null,
        "備考": ""
      }
    },
    {
      "type": "Feature",
      "geometry": {
        "type": "Point",
        "coordinates": [
          139.688906,
          35.842298
        ]
      },
      "properties": {
        "NO": 20545,
        "共通ID": "E1120300040111",
        "都道府県名及び市町村名": "埼玉県川口市",
        "施設・場所名": "芝中学校",
        "住所": "埼玉県川口市芝6330",
        "指定緊急避難場所との住所同一": "1",
        "その他市町村長が必要と認める事項": null,
        "受入対象者": null,
        "備考": ""
      }
    },
    {
      "type": "Feature",
      "geometry": {
        "type": "Point",
        "coordinates": [
          139.685629,
          35.83116
        ]
      },
      "properties": {
        "NO": 20546,
        "共通ID": "E1120300042111",
        "都道府県名及び市町村名": "埼玉県川口市",
        "施設・場所名": "教育研究所芝園分室",
        "住所": "埼玉県川口市芝園町3-17",
        "指定緊急避難場所との住所同一": "1",
        "その他市町村長が必要と認める事項": null,
        "受入対象者": null,
        "備考": ""
      }
    },
    {
      "type": "Feature",
      "geometry": {
        "type": "Point",
        "coordinates": [
          139.682796,
          35.832021
        ]
      },
      "properties": {
        "NO": 20547,
        "共通ID": "E1120300043111",
        "都道府県名及び市町村名": "埼玉県川口市",
        "施設・場所名": "（旧）芝園中学校",
        "住所": "埼玉県川口市芝園町3-8",
        "指定緊急避難場所との住所同一": "1",
        "その他市町村長が必要と認める事項": null,
        "受入対象者": null,
        "備考": ""
      }
    },
    {
      "type": "Feature",
      "geometry": {
        "type": "Point",
        "coordinates": [
          139.697367,
          35.84365
        ]
      },
      "properties": {
        "NO": 20548,
        "共通ID": "E1120300044111",
        "都道府県名及び市町村名": "埼玉県川口市",
        "施設・場所名": "芝スポーツセンター",
        "住所": "埼玉県川口市芝高木2-12-52",
        "指定緊急避難場所との住所同一": "1",
        "その他市町村長が必要と認める事項": null,
        "受入対象者": null,
        "備考": ""
      }
    },
    {
      "type": "Feature",
      "geometry": {
        "type": "Point",
        "coordinates": [
          139.697545,
          35.843159
        ]
      },
      "properties": {
        "NO": 20549,
        "共通ID": "E1120300045111",
        "都道府県名及び市町村名": "埼玉県川口市",
        "施設・場所名": "芝中央小学校",
        "住所": "埼玉県川口市芝高木2-9-1",
        "指定緊急避難場所との住所同一": "1",
        "その他市町村長が必要と認める事項": null,
        "受入対象者": null,
        "備考": ""
      }
    },
    {
      "type": "Feature",
      "geometry": {
        "type": "Point",
        "coordinates": [
          139.683518,
          35.841381
        ]
      },
      "properties": {
        "NO": 20550,
        "共通ID": "E1120300046111",
        "都道府県名及び市町村名": "埼玉県川口市",
        "施設・場所名": "芝西小学校",
        "住所": "埼玉県川口市芝西2-20-3",
        "指定緊急避難場所との住所同一": "1",
        "その他市町村長が必要と認める事項": null,
        "受入対象者": null,
        "備考": ""
      }
    },
    {
      "type": "Feature",
      "geometry": {
        "type": "Point",
        "coordinates": [
          139.681435,
          35.838354
        ]
      },
      "properties": {
        "NO": 20551,
        "共通ID": "E1120300048111",
        "都道府県名及び市町村名": "埼玉県川口市",
        "施設・場所名": "芝西中学校",
        "住所": "埼玉県川口市芝塚原1-11-13",
        "指定緊急避難場所との住所同一": "1",
        "その他市町村長が必要と認める事項": null,
        "受入対象者": null,
        "備考": ""
      }
    },
    {
      "type": "Feature",
      "geometry": {
        "type": "Point",
        "coordinates": [
          139.700322,
          35.844715
        ]
      },
      "properties": {
        "NO": 20552,
        "共通ID": "E1120300049111",
        "都道府県名及び市町村名": "埼玉県川口市",
        "施設・場所名": "芝東中学校",
        "住所": "埼玉県川口市芝東町3-1",
        "指定緊急避難場所との住所同一": "1",
        "その他市町村長が必要と認める事項": null,
        "受入対象者": null,
        "備考": ""
      }
    },
    {
      "type": "Feature",
      "geometry": {
        "type": "Point",
        "coordinates": [
          139.687101,
          35.834577
        ]
      },
      "properties": {
        "NO": 20553,
        "共通ID": "E1120300050111",
        "都道府県名及び市町村名": "埼玉県川口市",
        "施設・場所名": "芝樋ノ爪小学校",
        "住所": "埼玉県川口市芝樋ノ爪2-10-48",
        "指定緊急避難場所との住所同一": "1",
        "その他市町村長が必要と認める事項": null,
        "受入対象者": null,
        "備考": ""
      }
    },
    {
      "type": "Feature",
      "geometry": {
        "type": "Point",
        "coordinates": [
          139.677352,
          35.83616
        ]
      },
      "properties": {
        "NO": 20554,
        "共通ID": "E1120300052111",
        "都道府県名及び市町村名": "埼玉県川口市",
        "施設・場所名": "芝富士小学校",
        "住所": "埼玉県川口市芝富士2-17-1",
        "指定緊急避難場所との住所同一": "1",
        "その他市町村長が必要と認める事項": null,
        "受入対象者": null,
        "備考": ""
      }
    },
    {
      "type": "Feature",
      "geometry": {
        "type": "Point",
        "coordinates": [
          139.723056,
          35.793666
        ]
      },
      "properties": {
        "NO": 20555,
        "共通ID": "E1120300053111",
        "都道府県名及び市町村名": "埼玉県川口市",
        "施設・場所名": "舟戸小学校",
        "住所": "埼玉県川口市舟戸町2-1",
        "指定緊急避難場所との住所同一": "1",
        "その他市町村長が必要と認める事項": null,
        "受入対象者": null,
        "備考": ""
      }
    },
    {
      "type": "Feature",
      "geometry": {
        "type": "Point",
        "coordinates": [
          139.72455,
          35.793318
        ]
      },
      "properties": {
        "NO": 20556,
        "共通ID": "E1120300054111",
        "都道府県名及び市町村名": "埼玉県川口市",
        "施設・場所名": "南中学校",
        "住所": "埼玉県川口市舟戸町2-3",
        "指定緊急避難場所との住所同一": "1",
        "その他市町村長が必要と認める事項": null,
        "受入対象者": null,
        "備考": ""
      }
    },
    {
      "type": "Feature",
      "geometry": {
        "type": "Point",
        "coordinates": [
          139.67974,
          35.847547
        ]
      },
      "properties": {
        "NO": 20557,
        "共通ID": "E1120300055111",
        "都道府県名及び市町村名": "埼玉県川口市",
        "施設・場所名": "小谷場中学校",
        "住所": "埼玉県川口市小谷場1156",
        "指定緊急避難場所との住所同一": "1",
        "その他市町村長が必要と認める事項": null,
        "受入対象者": null,
        "備考": ""
      }
    },
    {
      "type": "Feature",
      "geometry": {
        "type": "Point",
        "coordinates": [
          139.718571,
          35.822107
        ]
      },
      "properties": {
        "NO": 20558,
        "共通ID": "E1120300057111",
        "都道府県名及び市町村名": "埼玉県川口市",
        "施設・場所名": "上青木南小学校",
        "住所": "埼玉県川口市上青木1-6-43",
        "指定緊急避難場所との住所同一": "1",
        "その他市町村長が必要と認める事項": null,
        "受入対象者": null,
        "備考": ""
      }
    },
    {
      "type": "Feature",
      "geometry": {
        "type": "Point",
        "coordinates": [
          139.718266,
          35.826412
        ]
      },
      "properties": {
        "NO": 20559,
        "共通ID": "E1120300058111",
        "都道府県名及び市町村名": "埼玉県川口市",
        "施設・場所名": "市立川口総合高等学校",
        "住所": "埼玉県川口市上青木3-1-40",
        "指定緊急避難場所との住所同一": "1",
        "その他市町村長が必要と認める事項": null,
        "受入対象者": null,
        "備考": ""
      }
    },
    {
      "type": "Feature",
      "geometry": {
        "type": "Point",
        "coordinates": [
          139.716571,
          35.828606
        ]
      },
      "properties": {
        "NO": 20560,
        "共通ID": "E1120300061111",
        "都道府県名及び市町村名": "埼玉県川口市",
        "施設・場所名": "上青木小学校",
        "住所": "埼玉県川口市上青木西3-8-25",
        "指定緊急避難場所との住所同一": "1",
        "その他市町村長が必要と認める事項": null,
        "受入対象者": null,
        "備考": ""
      }
    },
    {
      "type": "Feature",
      "geometry": {
        "type": "Point",
        "coordinates": [
          139.716516,
          35.827606
        ]
      },
      "properties": {
        "NO": 20561,
        "共通ID": "E1120300062111",
        "都道府県名及び市町村名": "埼玉県川口市",
        "施設・場所名": "上青木中学校",
        "住所": "埼玉県川口市上青木西3-9-1",
        "指定緊急避難場所との住所同一": "1",
        "その他市町村長が必要と認める事項": null,
        "受入対象者": null,
        "備考": ""
      }
    },
    {
      "type": "Feature",
      "geometry": {
        "type": "Point",
        "coordinates": [
          139.730651,
          35.840195
        ]
      },
      "properties": {
        "NO": 20562,
        "共通ID": "E1120300064111",
        "都道府県名及び市町村名": "埼玉県川口市",
        "施設・場所名": "県立川口高等学校",
        "住所": "埼玉県川口市新井宿963",
        "指定緊急避難場所との住所同一": "1",
        "その他市町村長が必要と認める事項": null,
        "受入対象者": null,
        "備考": ""
      }
    },
    {
      "type": "Feature",
      "geometry": {
        "type": "Point",
        "coordinates": [
          139.774593,
          35.821554
        ]
      },
      "properties": {
        "NO": 20563,
        "共通ID": "E1120300065111",
        "都道府県名及び市町村名": "埼玉県川口市",
        "施設・場所名": "榛松中学校",
        "住所": "埼玉県川口市榛松2-10-1",
        "指定緊急避難場所との住所同一": "1",
        "その他市町村長が必要と認める事項": null,
        "受入対象者": null,
        "備考": ""
      }
    },
    {
      "type": "Feature",
      "geometry": {
        "type": "Point",
        "coordinates": [
          139.730504,
          35.854386
        ]
      },
      "properties": {
        "NO": 20564,
        "共通ID": "E1120300067111",
        "都道府県名及び市町村名": "埼玉県川口市",
        "施設・場所名": "県立川口青陵高等学校",
        "住所": "埼玉県川口市神戸520-1",
        "指定緊急避難場所との住所同一": "1",
        "その他市町村長が必要と認める事項": null,
        "受入対象者": null,
        "備考": ""
      }
    },
    {
      "type": "Feature",
      "geometry": {
        "type": "Point",
        "coordinates": [
          139.715488,
          35.813997
        ]
      },
      "properties": {
        "NO": 20565,
        "共通ID": "E1120300068111",
        "都道府県名及び市町村名": "埼玉県川口市",
        "施設・場所名": "青木北小学校",
        "住所": "埼玉県川口市西青木1-1-1",
        "指定緊急避難場所との住所同一": "1",
        "その他市町村長が必要と認める事項": null,
        "受入対象者": null,
        "備考": ""
      }
    },
    {
      "type": "Feature",
      "geometry": {
        "type": "Point",
        "coordinates": [
          139.711322,
          35.817191
        ]
      },
      "properties": {
        "NO": 20566,
        "共通ID": "E1120300069111",
        "都道府県名及び市町村名": "埼玉県川口市",
        "施設・場所名": "幸並中学校",
        "住所": "埼玉県川口市西青木2-3-53",
        "指定緊急避難場所との住所同一": "1",
        "その他市町村長が必要と認める事項": null,
        "受入対象者": null,
        "備考": ""
      }
    },
    {
      "type": "Feature",
      "geometry": {
        "type": "Point",
        "coordinates": [
          139.71456,
          35.821584
        ]
      },
      "properties": {
        "NO": 20567,
        "共通ID": "E1120300071111",
        "都道府県名及び市町村名": "埼玉県川口市",
        "施設・場所名": "体育武道センター",
        "住所": "埼玉県川口市西青木5-3-4",
        "指定緊急避難場所との住所同一": "",
        "その他市町村長が必要と認める事項": null,
        "受入対象者": null,
        "備考": ""
      }
    },
    {
      "type": "Feature",
      "geometry": {
        "type": "Point",
        "coordinates": [
          139.699406,
          35.811358
        ]
      },
      "properties": {
        "NO": 20568,
        "共通ID": "E1120300072111",
        "都道府県名及び市町村名": "埼玉県川口市",
        "施設・場所名": "仲町中学校",
        "住所": "埼玉県川口市西川口2-16-1",
        "指定緊急避難場所との住所同一": "1",
        "その他市町村長が必要と認める事項": null,
        "受入対象者": null,
        "備考": ""
      }
    },
    {
      "type": "Feature",
      "geometry": {
        "type": "Point",
        "coordinates": [
          139.703687,
          35.807463
        ]
      },
      "properties": {
        "NO": 20569,
        "共通ID": "E1120300074111",
        "都道府県名及び市町村名": "埼玉県川口市",
        "施設・場所名": "仲町小学校",
        "住所": "埼玉県川口市西川口5-6-1",
        "指定緊急避難場所との住所同一": "1",
        "その他市町村長が必要と認める事項": null,
        "受入対象者": null,
        "備考": ""
      }
    },
    {
      "type": "Feature",
      "geometry": {
        "type": "Point",
        "coordinates": [
          139.744068,
          35.856853
        ]
      },
      "properties": {
        "NO": 20570,
        "共通ID": "E1120300075111",
        "都道府県名及び市町村名": "埼玉県川口市",
        "施設・場所名": "戸塚西中学校",
        "住所": "埼玉県川口市西立野1000",
        "指定緊急避難場所との住所同一": "1",
        "その他市町村長が必要と認める事項": null,
        "受入対象者": null,
        "備考": ""
      }
    },
    {
      "type": "Feature",
      "geometry": {
        "type": "Point",
        "coordinates": [
          139.721821,
          35.816107
        ]
      },
      "properties": {
        "NO": 20571,
        "共通ID": "E1120300077111",
        "都道府県名及び市町村名": "埼玉県川口市",
        "施設・場所名": "青木中学校",
        "住所": "埼玉県川口市青木5-1-1",
        "指定緊急避難場所との住所同一": "1",
        "その他市町村長が必要と認める事項": null,
        "受入対象者": null,
        "備考": ""
      }
    },
    {
      "type": "Feature",
      "geometry": {
        "type": "Point",
        "coordinates": [
          139.740818,
          35.854492
        ]
      },
      "properties": {
        "NO": 20572,
        "共通ID": "E1120300079111",
        "都道府県名及び市町村名": "埼玉県川口市",
        "施設・場所名": "神根東小学校",
        "住所": "埼玉県川口市石神1440",
        "指定緊急避難場所との住所同一": "1",
        "その他市町村長が必要と認める事項": null,
        "受入対象者": null,
        "備考": ""
      }
    },
    {
      "type": "Feature",
      "geometry": {
        "type": "Point",
        "coordinates": [
          139.739957,
          35.85527
        ]
      },
      "properties": {
        "NO": 20573,
        "共通ID": "E1120300081111",
        "都道府県名及び市町村名": "埼玉県川口市",
        "施設・場所名": "神根中学校",
        "住所": "埼玉県川口市石神1515-1",
        "指定緊急避難場所との住所同一": "1",
        "その他市町村長が必要と認める事項": null,
        "受入対象者": null,
        "備考": ""
      }
    },
    {
      "type": "Feature",
      "geometry": {
        "type": "Point",
        "coordinates": [
          139.749293,
          35.833837
        ]
      },
      "properties": {
        "NO": 20574,
        "共通ID": "E1120300082121",
        "都道府県名及び市町村名": "埼玉県川口市",
        "施設・場所名": "川口市高齢者総合福祉センターサンテピア",
        "住所": "埼玉県川口市赤井1055",
        "指定緊急避難場所との住所同一": "",
        "その他市町村長が必要と認める事項": null,
        "受入対象者": "要配慮者",
        "備考": ""
      }
    },
    {
      "type": "Feature",
      "geometry": {
        "type": "Point",
        "coordinates": [
          139.749586,
          35.832882
        ]
      },
      "properties": {
        "NO": 20575,
        "共通ID": "E1120300083121",
        "都道府県名及び市町村名": "埼玉県川口市",
        "施設・場所名": "川口市心身障害福祉センターわかゆり学園",
        "住所": "埼玉県川口市赤井1227",
        "指定緊急避難場所との住所同一": "",
        "その他市町村長が必要と認める事項": null,
        "受入対象者": "要配慮者",
        "備考": ""
      }
    },
    {
      "type": "Feature",
      "geometry": {
        "type": "Point",
        "coordinates": [
          139.750552,
          35.833389
        ]
      },
      "properties": {
        "NO": 20576,
        "共通ID": "E1120300084121",
        "都道府県名及び市町村名": "埼玉県川口市",
        "施設・場所名": "埼玉県立川口特別支援学校",
        "住所": "埼玉県川口市赤井1234",
        "指定緊急避難場所との住所同一": "",
        "その他市町村長が必要と認める事項": null,
        "受入対象者": "要配慮者",
        "備考": ""
      }
    },
    {
      "type": "Feature",
      "geometry": {
        "type": "Point",
        "coordinates": [
          139.714599,
          35.835549
        ]
      },
      "properties": {
        "NO": 20577,
        "共通ID": "E1120300087111",
        "都道府県名及び市町村名": "埼玉県川口市",
        "施設・場所名": "前川東小学校",
        "住所": "埼玉県川口市前上町10-1",
        "指定緊急避難場所との住所同一": "1",
        "その他市町村長が必要と認める事項": null,
        "受入対象者": null,
        "備考": ""
      }
    },
    {
      "type": "Feature",
      "geometry": {
        "type": "Point",
        "coordinates": [
          139.707361,
          35.838367
        ]
      },
      "properties": {
        "NO": 20578,
        "共通ID": "E1120300089121",
        "都道府県名及び市町村名": "埼玉県川口市",
        "施設・場所名": "川口市老人福祉センター前川たたら荘",
        "住所": "埼玉県川口市前川4-12-12",
        "指定緊急避難場所との住所同一": "",
        "その他市町村長が必要と認める事項": null,
        "受入対象者": "要配慮者",
        "備考": ""
      }
    },
    {
      "type": "Feature",
      "geometry": {
        "type": "Point",
        "coordinates": [
          139.722377,
          35.810692
        ]
      },
      "properties": {
        "NO": 20579,
        "共通ID": "E1120300090111",
        "都道府県名及び市町村名": "埼玉県川口市",
        "施設・場所名": "青木中央小学校",
        "住所": "埼玉県川口市中青木2-21-5",
        "指定緊急避難場所との住所同一": "1",
        "その他市町村長が必要と認める事項": null,
        "受入対象者": null,
        "備考": ""
      }
    },
    {
      "type": "Feature",
      "geometry": {
        "type": "Point",
        "coordinates": [
          139.734404,
          35.806304
        ]
      },
      "properties": {
        "NO": 20580,
        "共通ID": "E1120300093111",
        "都道府県名及び市町村名": "埼玉県川口市",
        "施設・場所名": "十二月田小学校",
        "住所": "埼玉県川口市朝日1-11-1",
        "指定緊急避難場所との住所同一": "1",
        "その他市町村長が必要と認める事項": null,
        "受入対象者": null,
        "備考": ""
      }
    },
    {
      "type": "Feature",
      "geometry": {
        "type": "Point",
        "coordinates": [
          139.735709,
          35.80536
        ]
      },
      "properties": {
        "NO": 20581,
        "共通ID": "E1120300094111",
        "都道府県名及び市町村名": "埼玉県川口市",
        "施設・場所名": "十二月田中学校",
        "住所": "埼玉県川口市朝日1-11-3",
        "指定緊急避難場所との住所同一": "1",
        "その他市町村長が必要と認める事項": null,
        "受入対象者": null,
        "備考": ""
      }
    },
    {
      "type": "Feature",
      "geometry": {
        "type": "Point",
        "coordinates": [
          139.742181,
          35.809887
        ]
      },
      "properties": {
        "NO": 20582,
        "共通ID": "E1120300096111",
        "都道府県名及び市町村名": "埼玉県川口市",
        "施設・場所名": "朝日西小学校",
        "住所": "埼玉県川口市朝日4-17-12",
        "指定緊急避難場所との住所同一": "1",
        "その他市町村長が必要と認める事項": null,
        "受入対象者": null,
        "備考": ""
      }
    },
    {
      "type": "Feature",
      "geometry": {
        "type": "Point",
        "coordinates": [
          139.749207,
          35.806833
        ]
      },
      "properties": {
        "NO": 20583,
        "共通ID": "E1120300098111",
        "都道府県名及び市町村名": "埼玉県川口市",
        "施設・場所名": "朝日東小学校",
        "住所": "埼玉県川口市朝日5-15-1",
        "指定緊急避難場所との住所同一": "1",
        "その他市町村長が必要と認める事項": null,
        "受入対象者": null,
        "備考": ""
      }
    },
    {
      "type": "Feature",
      "geometry": {
        "type": "Point",
        "coordinates": [
          139.748652,
          35.80786
        ]
      },
      "properties": {
        "NO": 20584,
        "共通ID": "E1120300099111",
        "都道府県名及び市町村名": "埼玉県川口市",
        "施設・場所名": "市立川口高等学校",
        "住所": "埼玉県川口市朝日5-9-18",
        "指定緊急避難場所との住所同一": "1",
        "その他市町村長が必要と認める事項": null,
        "受入対象者": null,
        "備考": ""
      }
    },
    {
      "type": "Feature",
      "geometry": {
        "type": "Point",
        "coordinates": [
          139.761399,
          35.862047
        ]
      },
      "properties": {
        "NO": 20585,
        "共通ID": "E1120300101111",
        "都道府県名及び市町村名": "埼玉県川口市",
        "施設・場所名": "県立川口東高等学校",
        "住所": "埼玉県川口市長蔵3-1-1",
        "指定緊急避難場所との住所同一": "",
        "その他市町村長が必要と認める事項": null,
        "受入対象者": null,
        "備考": ""
      }
    },
    {
      "type": "Feature",
      "geometry": {
        "type": "Point",
        "coordinates": [
          139.747094,
          35.8796
        ]
      },
      "properties": {
        "NO": 20586,
        "共通ID": "E1120300103111",
        "都道府県名及び市町村名": "埼玉県川口市",
        "施設・場所名": "戸塚北小学校",
        "住所": "埼玉県川口市東川口3-12-1",
        "指定緊急避難場所との住所同一": "1",
        "その他市町村長が必要と認める事項": null,
        "受入対象者": null,
        "備考": ""
      }
    },
    {
      "type": "Feature",
      "geometry": {
        "type": "Point",
        "coordinates": [
          139.764761,
          35.828496
        ]
      },
      "properties": {
        "NO": 20587,
        "共通ID": "E1120300105111",
        "都道府県名及び市町村名": "埼玉県川口市",
        "施設・場所名": "新郷小学校",
        "住所": "埼玉県川口市東本郷1313",
        "指定緊急避難場所との住所同一": "1",
        "その他市町村長が必要と認める事項": null,
        "受入対象者": null,
        "備考": ""
      }
    },
    {
      "type": "Feature",
      "geometry": {
        "type": "Point",
        "coordinates": [
          139.756275,
          35.825355
        ]
      },
      "properties": {
        "NO": 20588,
        "共通ID": "E1120300106111",
        "都道府県名及び市町村名": "埼玉県川口市",
        "施設・場所名": "東中学校",
        "住所": "埼玉県川口市東本郷2-20-47",
        "指定緊急避難場所との住所同一": "1",
        "その他市町村長が必要と認める事項": null,
        "受入対象者": null,
        "備考": ""
      }
    },
    {
      "type": "Feature",
      "geometry": {
        "type": "Point",
        "coordinates": [
          139.7659,
          35.822887
        ]
      },
      "properties": {
        "NO": 20589,
        "共通ID": "E1120300107111",
        "都道府県名及び市町村名": "埼玉県川口市",
        "施設・場所名": "東本郷小学校",
        "住所": "埼玉県川口市東本郷630",
        "指定緊急避難場所との住所同一": "1",
        "その他市町村長が必要と認める事項": null,
        "受入対象者": null,
        "備考": ""
      }
    },
    {
      "type": "Feature",
      "geometry": {
        "type": "Point",
        "coordinates": [
          139.747791,
          35.799084
        ]
      },
      "properties": {
        "NO": 20590,
        "共通ID": "E1120300109111",
        "都道府県名及び市町村名": "埼玉県川口市",
        "施設・場所名": "元郷中学校",
        "住所": "埼玉県川口市東領家1-8-3",
        "指定緊急避難場所との住所同一": "1",
        "その他市町村長が必要と認める事項": null,
        "受入対象者": null,
        "備考": ""
      }
    },
    {
      "type": "Feature",
      "geometry": {
        "type": "Point",
        "coordinates": [
          139.750985,
          35.793807
        ]
      },
      "properties": {
        "NO": 20591,
        "共通ID": "E1120300112111",
        "都道府県名及び市町村名": "埼玉県川口市",
        "施設・場所名": "東領家小学校",
        "住所": "埼玉県川口市東領家3-5-9",
        "指定緊急避難場所との住所同一": "1",
        "その他市町村長が必要と認める事項": null,
        "受入対象者": null,
        "備考": ""
      }
    },
    {
      "type": "Feature",
      "geometry": {
        "type": "Point",
        "coordinates": [
          139.765363,
          35.868621
        ]
      },
      "properties": {
        "NO": 20592,
        "共通ID": "E1120300113111",
        "都道府県名及び市町村名": "埼玉県川口市",
        "施設・場所名": "戸塚綾瀬小学校",
        "住所": "埼玉県川口市藤兵衛新田239-1",
        "指定緊急避難場所との住所同一": "1",
        "その他市町村長が必要と認める事項": null,
        "受入対象者": null,
        "備考": ""
      }
    },
    {
      "type": "Feature",
      "geometry": {
        "type": "Point",
        "coordinates": [
          139.724986,
          35.847159
        ]
      },
      "properties": {
        "NO": 20593,
        "共通ID": "E1120300114111",
        "都道府県名及び市町村名": "埼玉県川口市",
        "施設・場所名": "神根小学校",
        "住所": "埼玉県川口市道合1111",
        "指定緊急避難場所との住所同一": "1",
        "その他市町村長が必要と認める事項": null,
        "受入対象者": null,
        "備考": ""
      }
    },
    {
      "type": "Feature",
      "geometry": {
        "type": "Point",
        "coordinates": [
          139.718388,
          35.852477
        ]
      },
      "properties": {
        "NO": 20594,
        "共通ID": "E1120300115121",
        "都道府県名及び市町村名": "埼玉県川口市",
        "施設・場所名": "川口市社会福祉センター",
        "住所": "埼玉県川口市道合1421",
        "指定緊急避難場所との住所同一": "",
        "その他市町村長が必要と認める事項": null,
        "受入対象者": "要配慮者",
        "備考": ""
      }
    },
    {
      "type": "Feature",
      "geometry": {
        "type": "Point",
        "coordinates": [
          139.715554,
          35.85461
        ]
      },
      "properties": {
        "NO": 20595,
        "共通ID": "E1120300116111",
        "都道府県名及び市町村名": "埼玉県川口市",
        "施設・場所名": "北中学校",
        "住所": "埼玉県川口市道合364-2",
        "指定緊急避難場所との住所同一": "1",
        "その他市町村長が必要と認める事項": null,
        "受入対象者": null,
        "備考": ""
      }
    },
    {
      "type": "Feature",
      "geometry": {
        "type": "Point",
        "coordinates": [
          139.708266,
          35.827911
        ]
      },
      "properties": {
        "NO": 20596,
        "共通ID": "E1120300118111",
        "都道府県名及び市町村名": "埼玉県川口市",
        "施設・場所名": "県立川口工業高等学校",
        "住所": "埼玉県川口市南前川1-10-1",
        "指定緊急避難場所との住所同一": "1",
        "その他市町村長が必要と認める事項": null,
        "受入対象者": null,
        "備考": ""
      }
    },
    {
      "type": "Feature",
      "geometry": {
        "type": "Point",
        "coordinates": [
          139.702698,
          35.80277
        ]
      },
      "properties": {
        "NO": 20597,
        "共通ID": "E1120300120121",
        "都道府県名及び市町村名": "埼玉県川口市",
        "施設・場所名": "川口市保健所地域保健センター",
        "住所": "埼玉県川口市南町1-9-20",
        "指定緊急避難場所との住所同一": "",
        "その他市町村長が必要と認める事項": null,
        "受入対象者": "要配慮者",
        "備考": ""
      }
    },
    {
      "type": "Feature",
      "geometry": {
        "type": "Point",
        "coordinates": [
          139.707253,
          35.804339
        ]
      },
      "properties": {
        "NO": 20598,
        "共通ID": "E1120300121111",
        "都道府県名及び市町村名": "埼玉県川口市",
        "施設・場所名": "飯仲小学校",
        "住所": "埼玉県川口市南町2-3-1",
        "指定緊急避難場所との住所同一": "1",
        "その他市町村長が必要と認める事項": null,
        "受入対象者": null,
        "備考": ""
      }
    },
    {
      "type": "Feature",
      "geometry": {
        "type": "Point",
        "coordinates": [
          139.742682,
          35.817499
        ]
      },
      "properties": {
        "NO": 20599,
        "共通ID": "E1120300123111",
        "都道府県名及び市町村名": "埼玉県川口市",
        "施設・場所名": "中居小学校",
        "住所": "埼玉県川口市南鳩ケ谷2-1-1",
        "指定緊急避難場所との住所同一": "",
        "その他市町村長が必要と認める事項": null,
        "受入対象者": null,
        "備考": ""
      }
    },
    {
      "type": "Feature",
      "geometry": {
        "type": "Point",
        "coordinates": [
          139.732627,
          35.814716
        ]
      },
      "properties": {
        "NO": 20600,
        "共通ID": "E1120300126111",
        "都道府県名及び市町村名": "埼玉県川口市",
        "施設・場所名": "南鳩ヶ谷小学校",
        "住所": "埼玉県川口市南鳩ケ谷5-20-1",
        "指定緊急避難場所との住所同一": "",
        "その他市町村長が必要と認める事項": null,
        "受入対象者": null,
        "備考": ""
      }
    },
    {
      "type": "Feature",
      "geometry": {
        "type": "Point",
        "coordinates": [
          139.735106,
          35.818478
        ]
      },
      "properties": {
        "NO": 20601,
        "共通ID": "E1120300127121",
        "都道府県名及び市町村名": "埼玉県川口市",
        "施設・場所名": "南鳩ヶ谷地域子育て支援センター（川口市立南鳩ヶ谷保育所内）",
        "住所": "埼玉県川口市南鳩ケ谷6-6-18",
        "指定緊急避難場所との住所同一": "",
        "その他市町村長が必要と認める事項": null,
        "受入対象者": "要配慮者",
        "備考": ""
      }
    },
    {
      "type": "Feature",
      "geometry": {
        "type": "Point",
        "coordinates": [
          139.732606,
          35.821591
        ]
      },
      "properties": {
        "NO": 20602,
        "共通ID": "E1120300129111",
        "都道府県名及び市町村名": "埼玉県川口市",
        "施設・場所名": "辻小学校",
        "住所": "埼玉県川口市南鳩ケ谷7-22-1",
        "指定緊急避難場所との住所同一": "",
        "その他市町村長が必要と認める事項": null,
        "受入対象者": null,
        "備考": ""
      }
    },
    {
      "type": "Feature",
      "geometry": {
        "type": "Point",
        "coordinates": [
          139.748421,
          35.818696
        ]
      },
      "properties": {
        "NO": 20603,
        "共通ID": "E1120300130111",
        "都道府県名及び市町村名": "埼玉県川口市",
        "施設・場所名": "八幡木中学校",
        "住所": "埼玉県川口市八幡木1-26-1",
        "指定緊急避難場所との住所同一": "1",
        "その他市町村長が必要と認める事項": null,
        "受入対象者": null,
        "備考": ""
      }
    },
    {
      "type": "Feature",
      "geometry": {
        "type": "Point",
        "coordinates": [
          139.738115,
          35.834966
        ]
      },
      "properties": {
        "NO": 20604,
        "共通ID": "E1120300131111",
        "都道府県名及び市町村名": "埼玉県川口市",
        "施設・場所名": "鳩ヶ谷武道センター",
        "住所": "埼玉県川口市鳩ケ谷本町1-12-19",
        "指定緊急避難場所との住所同一": "",
        "その他市町村長が必要と認める事項": null,
        "受入対象者": null,
        "備考": ""
      }
    },
    {
      "type": "Feature",
      "geometry": {
        "type": "Point",
        "coordinates": [
          139.737827,
          35.833184
        ]
      },
      "properties": {
        "NO": 20605,
        "共通ID": "E1120300133111",
        "都道府県名及び市町村名": "埼玉県川口市",
        "施設・場所名": "鳩ヶ谷小学校",
        "住所": "埼玉県川口市鳩ケ谷本町1-6-3",
        "指定緊急避難場所との住所同一": "",
        "その他市町村長が必要と認める事項": null,
        "受入対象者": null,
        "備考": ""
      }
    },
    {
      "type": "Feature",
      "geometry": {
        "type": "Point",
        "coordinates": [
          139.745221,
          35.832599
        ]
      },
      "properties": {
        "NO": 20606,
        "共通ID": "E1120300135111",
        "都道府県名及び市町村名": "埼玉県川口市",
        "施設・場所名": "鳩ヶ谷中学校",
        "住所": "埼玉県川口市鳩ケ谷本町4-8-5",
        "指定緊急避難場所との住所同一": "",
        "その他市町村長が必要と認める事項": null,
        "受入対象者": null,
        "備考": ""
      }
    },
    {
      "type": "Feature",
      "geometry": {
        "type": "Point",
        "coordinates": [
          139.704628,
          35.799305
        ]
      },
      "properties": {
        "NO": 20607,
        "共通ID": "E1120300136111",
        "都道府県名及び市町村名": "埼玉県川口市",
        "施設・場所名": "原町小学校",
        "住所": "埼玉県川口市飯原町6-50",
        "指定緊急避難場所との住所同一": "",
        "その他市町村長が必要と認める事項": null,
        "受入対象者": null,
        "備考": ""
      }
    },
    {
      "type": "Feature",
      "geometry": {
        "type": "Point",
        "coordinates": [
          139.711492,
          35.798597
        ]
      },
      "properties": {
        "NO": 20608,
        "共通ID": "E1120300137111",
        "都道府県名及び市町村名": "埼玉県川口市",
        "施設・場所名": "飯塚小学校",
        "住所": "埼玉県川口市飯塚2-11-1",
        "指定緊急避難場所との住所同一": "1",
        "その他市町村長が必要と認める事項": null,
        "受入対象者": null,
        "備考": ""
      }
    },
    {
      "type": "Feature",
      "geometry": {
        "type": "Point",
        "coordinates": [
          139.712673,
          35.801872
        ]
      },
      "properties": {
        "NO": 20609,
        "共通ID": "E1120300138121",
        "都道府県名及び市町村名": "埼玉県川口市",
        "施設・場所名": "川口市立西公民館",
        "住所": "埼玉県川口市飯塚2-3-3",
        "指定緊急避難場所との住所同一": "1",
        "その他市町村長が必要と認める事項": null,
        "受入対象者": "要配慮者",
        "備考": ""
      }
    },
    {
      "type": "Feature",
      "geometry": {
        "type": "Point",
        "coordinates": [
          139.711445,
          35.81217
        ]
      },
      "properties": {
        "NO": 20610,
        "共通ID": "E1120300139111",
        "都道府県名及び市町村名": "埼玉県川口市",
        "施設・場所名": "並木小学校",
        "住所": "埼玉県川口市並木1-24-1",
        "指定緊急避難場所との住所同一": "1",
        "その他市町村長が必要と認める事項": null,
        "受入対象者": null,
        "備考": ""
      }
    },
    {
      "type": "Feature",
      "geometry": {
        "type": "Point",
        "coordinates": [
          139.714516,
          35.812858
        ]
      },
      "properties": {
        "NO": 20611,
        "共通ID": "E1120300140111",
        "都道府県名及び市町村名": "埼玉県川口市",
        "施設・場所名": "市立県陽高等学校",
        "住所": "埼玉県川口市並木1-26-1",
        "指定緊急避難場所との住所同一": "1",
        "その他市町村長が必要と認める事項": null,
        "受入対象者": null,
        "備考": ""
      }
    },
    {
      "type": "Feature",
      "geometry": {
        "type": "Point",
        "coordinates": [
          139.776038,
          35.830025
        ]
      },
      "properties": {
        "NO": 20612,
        "共通ID": "E1120300142111",
        "都道府県名及び市町村名": "埼玉県川口市",
        "施設・場所名": "新郷東小学校",
        "住所": "埼玉県川口市峯361",
        "指定緊急避難場所との住所同一": "1",
        "その他市町村長が必要と認める事項": null,
        "受入対象者": null,
        "備考": ""
      }
    },
    {
      "type": "Feature",
      "geometry": {
        "type": "Point",
        "coordinates": [
          139.704764,
          35.842302
        ]
      },
      "properties": {
        "NO": 20613,
        "共通ID": "E1120300145111",
        "都道府県名及び市町村名": "埼玉県川口市",
        "施設・場所名": "前川小学校",
        "住所": "埼玉県川口市本前川2-11-1",
        "指定緊急避難場所との住所同一": "1",
        "その他市町村長が必要と認める事項": null,
        "受入対象者": null,
        "備考": ""
      }
    },
    {
      "type": "Feature",
      "geometry": {
        "type": "Point",
        "coordinates": [
          139.725066,
          35.799272
        ]
      },
      "properties": {
        "NO": 20614,
        "共通ID": "E1120300146111",
        "都道府県名及び市町村名": "埼玉県川口市",
        "施設・場所名": "本町小学校",
        "住所": "埼玉県川口市本町2-4-6",
        "指定緊急避難場所との住所同一": "1",
        "その他市町村長が必要と認める事項": null,
        "受入対象者": null,
        "備考": ""
      }
    },
    {
      "type": "Feature",
      "geometry": {
        "type": "Point",
        "coordinates": [
          139.721183,
          35.801389
        ]
      },
      "properties": {
        "NO": 20615,
        "共通ID": "E1120300147121",
        "都道府県名及び市町村名": "埼玉県川口市",
        "施設・場所名": "川口市立中央ふれあい館",
        "住所": "埼玉県川口市本町4-5-26",
        "指定緊急避難場所との住所同一": "1",
        "その他市町村長が必要と認める事項": null,
        "受入対象者": "要配慮者",
        "備考": ""
      }
    },
    {
      "type": "Feature",
      "geometry": {
        "type": "Point",
        "coordinates": [
          139.714237,
          35.859491
        ]
      },
      "properties": {
        "NO": 20616,
        "共通ID": "E1120300148111",
        "都道府県名及び市町村名": "埼玉県川口市",
        "施設・場所名": "県立川口北高等学校",
        "住所": "埼玉県川口市木曽呂1477",
        "指定緊急避難場所との住所同一": "1",
        "その他市町村長が必要と認める事項": null,
        "受入対象者": null,
        "備考": ""
      }
    },
    {
      "type": "Feature",
      "geometry": {
        "type": "Point",
        "coordinates": [
          139.724736,
          35.860046
        ]
      },
      "properties": {
        "NO": 20617,
        "共通ID": "E1120300149111",
        "都道府県名及び市町村名": "埼玉県川口市",
        "施設・場所名": "木曽呂小学校",
        "住所": "埼玉県川口市木曽呂382-2",
        "指定緊急避難場所との住所同一": "1",
        "その他市町村長が必要と認める事項": null,
        "受入対象者": null,
        "備考": ""
      }
    },
    {
      "type": "Feature",
      "geometry": {
        "type": "Point",
        "coordinates": [
          139.700738,
          35.856435
        ]
      },
      "properties": {
        "NO": 20618,
        "共通ID": "E1120300150111",
        "都道府県名及び市町村名": "埼玉県川口市",
        "施設・場所名": "柳崎小学校",
        "住所": "埼玉県川口市柳崎4-4-1",
        "指定緊急避難場所との住所同一": "1",
        "その他市町村長が必要と認める事項": null,
        "受入対象者": null,
        "備考": ""
      }
    },
    {
      "type": "Feature",
      "geometry": {
        "type": "Point",
        "coordinates": [
          139.726832,
          35.837371
        ]
      },
      "properties": {
        "NO": 20619,
        "共通ID": "E1120300152111",
        "都道府県名及び市町村名": "埼玉県川口市",
        "施設・場所名": "県立鳩ヶ谷高等学校",
        "住所": "埼玉県川口市里225-1",
        "指定緊急避難場所との住所同一": "1",
        "その他市町村長が必要と認める事項": null,
        "受入対象者": null,
        "備考": ""
      }
    },
    {
      "type": "Feature",
      "geometry": {
        "type": "Point",
        "coordinates": [
          139.73165,
          35.837596
        ]
      },
      "properties": {
        "NO": 20620,
        "共通ID": "E1120300153111",
        "都道府県名及び市町村名": "埼玉県川口市",
        "施設・場所名": "里中学校",
        "住所": "埼玉県川口市里621",
        "指定緊急避難場所との住所同一": "1",
        "その他市町村長が必要と認める事項": null,
        "受入対象者": null,
        "備考": ""
      }
    },
    {
      "type": "Feature",
      "geometry": {
        "type": "Point",
        "coordinates": [
          139.73298,
          35.836404
        ]
      },
      "properties": {
        "NO": 20621,
        "共通ID": "E1120300154111",
        "都道府県名及び市町村名": "埼玉県川口市",
        "施設・場所名": "里小学校",
        "住所": "埼玉県川口市里645-1",
        "指定緊急避難場所との住所同一": "1",
        "その他市町村長が必要と認める事項": null,
        "受入対象者": null,
        "備考": ""
      }
    },
    {
      "type": "Feature",
      "geometry": {
        "type": "Point",
        "coordinates": [
          139.740459,
          35.793307
        ]
      },
      "properties": {
        "NO": 20622,
        "共通ID": "E1120300155111",
        "都道府県名及び市町村名": "埼玉県川口市",
        "施設・場所名": "領家中学校",
        "住所": "埼玉県川口市領家2-11-15",
        "指定緊急避難場所との住所同一": "1",
        "その他市町村長が必要と認める事項": null,
        "受入対象者": null,
        "備考": ""
      }
    },
    {
      "type": "Feature",
      "geometry": {
        "type": "Point",
        "coordinates": [
          139.748986,
          35.791669
        ]
      },
      "properties": {
        "NO": 20623,
        "共通ID": "E1120300156111",
        "都道府県名及び市町村名": "埼玉県川口市",
        "施設・場所名": "領家小学校",
        "住所": "埼玉県川口市領家3-14-1",
        "指定緊急避難場所との住所同一": "1",
        "その他市町村長が必要と認める事項": null,
        "受入対象者": null,
        "備考": ""
      }
    }
  ]
}