{
  "type": "FeatureCollection",
  "name": "112071",
  "features": [
    {
      "type": "Feature",
      "geometry": {
        "type": "Point",
        "coordinates": [
          139.084502,
          35.910766
        ]
      },
      "properties": {
        "NO": 20676,
        "共通ID": "E1120700002111",
        "都道府県名及び市町村名": "埼玉県秩父市",
        "施設・場所名": "渓流荘",
        "住所": "埼玉県秩父市浦山1540",
        "指定緊急避難場所との住所同一": "1",
        "その他市町村長が必要と認める事項": null,
        "受入対象者": null,
        "備考": ""
      }
    },
    {
      "type": "Feature",
      "geometry": {
        "type": "Point",
        "coordinates": [
          139.068899,
          35.97338
        ]
      },
      "properties": {
        "NO": 20677,
        "共通ID": "E1120700003111",
        "都道府県名及び市町村名": "埼玉県秩父市",
        "施設・場所名": "影森小学校",
        "住所": "埼玉県秩父市下影森1104",
        "指定緊急避難場所との住所同一": "1",
        "その他市町村長が必要と認める事項": null,
        "受入対象者": null,
        "備考": ""
      }
    },
    {
      "type": "Feature",
      "geometry": {
        "type": "Point",
        "coordinates": [
          139.066801,
          35.972613
        ]
      },
      "properties": {
        "NO": 20678,
        "共通ID": "E1120700004111",
        "都道府県名及び市町村名": "埼玉県秩父市",
        "施設・場所名": "影森公民館",
        "住所": "埼玉県秩父市下影森184",
        "指定緊急避難場所との住所同一": "",
        "その他市町村長が必要と認める事項": null,
        "受入対象者": null,
        "備考": ""
      }
    },
    {
      "type": "Feature",
      "geometry": {
        "type": "Point",
        "coordinates": [
          139.073183,
          35.98139
        ]
      },
      "properties": {
        "NO": 20679,
        "共通ID": "E1120700005111",
        "都道府県名及び市町村名": "埼玉県秩父市",
        "施設・場所名": "スポーツ健康センター",
        "住所": "埼玉県秩父市下影森924-1",
        "指定緊急避難場所との住所同一": "",
        "その他市町村長が必要と認める事項": null,
        "受入対象者": null,
        "備考": ""
      }
    },
    {
      "type": "Feature",
      "geometry": {
        "type": "Point",
        "coordinates": [
          139.034274,
          36.03166
        ]
      },
      "properties": {
        "NO": 20680,
        "共通ID": "E1120700006111",
        "都道府県名及び市町村名": "埼玉県秩父市",
        "施設・場所名": "上の原集落センター",
        "住所": "埼玉県秩父市下吉田2808",
        "指定緊急避難場所との住所同一": "",
        "その他市町村長が必要と認める事項": null,
        "受入対象者": null,
        "備考": ""
      }
    },
    {
      "type": "Feature",
      "geometry": {
        "type": "Point",
        "coordinates": [
          139.034263,
          36.041483
        ]
      },
      "properties": {
        "NO": 20681,
        "共通ID": "E1120700007111",
        "都道府県名及び市町村名": "埼玉県秩父市",
        "施設・場所名": "吉田小学校",
        "住所": "埼玉県秩父市下吉田3833",
        "指定緊急避難場所との住所同一": "1",
        "その他市町村長が必要と認める事項": null,
        "受入対象者": null,
        "備考": ""
      }
    },
    {
      "type": "Feature",
      "geometry": {
        "type": "Point",
        "coordinates": [
          139.043589,
          36.038557
        ]
      },
      "properties": {
        "NO": 20682,
        "共通ID": "E1120700008111",
        "都道府県名及び市町村名": "埼玉県秩父市",
        "施設・場所名": "吉田取方総合運動公園",
        "住所": "埼玉県秩父市下吉田427",
        "指定緊急避難場所との住所同一": "1",
        "その他市町村長が必要と認める事項": null,
        "受入対象者": null,
        "備考": ""
      }
    },
    {
      "type": "Feature",
      "geometry": {
        "type": "Point",
        "coordinates": [
          139.022792,
          36.041269
        ]
      },
      "properties": {
        "NO": 20683,
        "共通ID": "E1120700009111",
        "都道府県名及び市町村名": "埼玉県秩父市",
        "施設・場所名": "吉田中学校",
        "住所": "埼玉県秩父市下吉田6402",
        "指定緊急避難場所との住所同一": "1",
        "その他市町村長が必要と認める事項": null,
        "受入対象者": null,
        "備考": ""
      }
    },
    {
      "type": "Feature",
      "geometry": {
        "type": "Point",
        "coordinates": [
          139.024236,
          36.043544
        ]
      },
      "properties": {
        "NO": 20684,
        "共通ID": "E1120700010111",
        "都道府県名及び市町村名": "埼玉県秩父市",
        "施設・場所名": "やまなみ会館",
        "住所": "埼玉県秩父市下吉田6557-1",
        "指定緊急避難場所との住所同一": "1",
        "その他市町村長が必要と認める事項": null,
        "受入対象者": null,
        "備考": ""
      }
    },
    {
      "type": "Feature",
      "geometry": {
        "type": "Point",
        "coordinates": [
          139.023833,
          36.043484
        ]
      },
      "properties": {
        "NO": 20685,
        "共通ID": "E1120700011111",
        "都道府県名及び市町村名": "埼玉県秩父市",
        "施設・場所名": "吉田公民館",
        "住所": "埼玉県秩父市下吉田6569-1",
        "指定緊急避難場所との住所同一": "",
        "その他市町村長が必要と認める事項": null,
        "受入対象者": null,
        "備考": ""
      }
    },
    {
      "type": "Feature",
      "geometry": {
        "type": "Point",
        "coordinates": [
          139.029802,
          36.064502
        ]
      },
      "properties": {
        "NO": 20686,
        "共通ID": "E1120700013111",
        "都道府県名及び市町村名": "埼玉県秩父市",
        "施設・場所名": "阿熊集落センター",
        "住所": "埼玉県秩父市吉田阿熊966",
        "指定緊急避難場所との住所同一": "1",
        "その他市町村長が必要と認める事項": null,
        "受入対象者": null,
        "備考": ""
      }
    },
    {
      "type": "Feature",
      "geometry": {
        "type": "Point",
        "coordinates": [
          139.046007,
          36.050435
        ]
      },
      "properties": {
        "NO": 20687,
        "共通ID": "E1120700014121",
        "都道府県名及び市町村名": "埼玉県秩父市",
        "施設・場所名": "特別養護老人ホーム　白砂恵慈園",
        "住所": "埼玉県秩父市吉田久長186-1",
        "指定緊急避難場所との住所同一": "",
        "その他市町村長が必要と認める事項": "左記のうち、事前に市が特定し、環境調整を事前に行った者",
        "受入対象者": "高齢者及び身体等に障がいのある者とその介護者（家族等を含む）",
        "備考": ""
      }
    },
    {
      "type": "Feature",
      "geometry": {
        "type": "Point",
        "coordinates": [
          139.047681,
          36.054904
        ]
      },
      "properties": {
        "NO": 20688,
        "共通ID": "E1120700015111",
        "都道府県名及び市町村名": "埼玉県秩父市",
        "施設・場所名": "久長農村集落センター",
        "住所": "埼玉県秩父市吉田久長424",
        "指定緊急避難場所との住所同一": "1",
        "その他市町村長が必要と認める事項": null,
        "受入対象者": null,
        "備考": ""
      }
    },
    {
      "type": "Feature",
      "geometry": {
        "type": "Point",
        "coordinates": [
          138.985033,
          36.074141
        ]
      },
      "properties": {
        "NO": 20689,
        "共通ID": "E1120700016111",
        "都道府県名及び市町村名": "埼玉県秩父市",
        "施設・場所名": "石間交流学習館",
        "住所": "埼玉県秩父市吉田石間2620-1",
        "指定緊急避難場所との住所同一": "1",
        "その他市町村長が必要と認める事項": null,
        "受入対象者": null,
        "備考": ""
      }
    },
    {
      "type": "Feature",
      "geometry": {
        "type": "Point",
        "coordinates": [
          138.972704,
          36.114832
        ]
      },
      "properties": {
        "NO": 20690,
        "共通ID": "E1120700017111",
        "都道府県名及び市町村名": "埼玉県秩父市",
        "施設・場所名": "旧吉田小学校太田部分校",
        "住所": "埼玉県秩父市吉田太田部664-2",
        "指定緊急避難場所との住所同一": "1",
        "その他市町村長が必要と認める事項": null,
        "受入対象者": null,
        "備考": ""
      }
    },
    {
      "type": "Feature",
      "geometry": {
        "type": "Point",
        "coordinates": [
          139.052555,
          35.972261
        ]
      },
      "properties": {
        "NO": 20691,
        "共通ID": "E1120700018111",
        "都道府県名及び市町村名": "埼玉県秩父市",
        "施設・場所名": "久那公民館",
        "住所": "埼玉県秩父市久那2183-1",
        "指定緊急避難場所との住所同一": "1",
        "その他市町村長が必要と認める事項": null,
        "受入対象者": null,
        "備考": ""
      }
    },
    {
      "type": "Feature",
      "geometry": {
        "type": "Point",
        "coordinates": [
          139.052286,
          35.972835
        ]
      },
      "properties": {
        "NO": 20692,
        "共通ID": "E1120700018112",
        "都道府県名及び市町村名": "埼玉県秩父市",
        "施設・場所名": "久那小学校",
        "住所": "埼玉県秩父市久那2183-1",
        "指定緊急避難場所との住所同一": "1",
        "その他市町村長が必要と認める事項": null,
        "受入対象者": null,
        "備考": ""
      }
    },
    {
      "type": "Feature",
      "geometry": {
        "type": "Point",
        "coordinates": [
          139.081375,
          36.00656
        ]
      },
      "properties": {
        "NO": 20693,
        "共通ID": "E1120700019111",
        "都道府県名及び市町村名": "埼玉県秩父市",
        "施設・場所名": "西小学校",
        "住所": "埼玉県秩父市金室町9-46",
        "指定緊急避難場所との住所同一": "1",
        "その他市町村長が必要と認める事項": null,
        "受入対象者": null,
        "備考": ""
      }
    },
    {
      "type": "Feature",
      "geometry": {
        "type": "Point",
        "coordinates": [
          139.085837,
          35.991571
        ]
      },
      "properties": {
        "NO": 20694,
        "共通ID": "E1120700020111",
        "都道府県名及び市町村名": "埼玉県秩父市",
        "施設・場所名": "秩父宮記念市民会館",
        "住所": "埼玉県秩父市熊木町8-15",
        "指定緊急避難場所との住所同一": "1",
        "その他市町村長が必要と認める事項": null,
        "受入対象者": null,
        "備考": ""
      }
    },
    {
      "type": "Feature",
      "geometry": {
        "type": "Point",
        "coordinates": [
          139.054346,
          35.9532
        ]
      },
      "properties": {
        "NO": 20695,
        "共通ID": "E1120700021111",
        "都道府県名及び市町村名": "埼玉県秩父市",
        "施設・場所名": "浦山ダムうららぴあ",
        "住所": "埼玉県秩父市荒川久那4041",
        "指定緊急避難場所との住所同一": "1",
        "その他市町村長が必要と認める事項": null,
        "受入対象者": null,
        "備考": ""
      }
    },
    {
      "type": "Feature",
      "geometry": {
        "type": "Point",
        "coordinates": [
          139.031927,
          35.957474
        ]
      },
      "properties": {
        "NO": 20696,
        "共通ID": "E1120700023111",
        "都道府県名及び市町村名": "埼玉県秩父市",
        "施設・場所名": "荒川東小学校",
        "住所": "埼玉県秩父市荒川上田野1755",
        "指定緊急避難場所との住所同一": "1",
        "その他市町村長が必要と認める事項": null,
        "受入対象者": null,
        "備考": ""
      }
    },
    {
      "type": "Feature",
      "geometry": {
        "type": "Point",
        "coordinates": [
          139.051427,
          35.967135
        ]
      },
      "properties": {
        "NO": 20697,
        "共通ID": "E1120700024111",
        "都道府県名及び市町村名": "埼玉県秩父市",
        "施設・場所名": "荒川総合運動公園",
        "住所": "埼玉県秩父市荒川上田野250",
        "指定緊急避難場所との住所同一": "1",
        "その他市町村長が必要と認める事項": null,
        "受入対象者": null,
        "備考": ""
      }
    },
    {
      "type": "Feature",
      "geometry": {
        "type": "Point",
        "coordinates": [
          139.041785,
          35.958994
        ]
      },
      "properties": {
        "NO": 20698,
        "共通ID": "E1120700026121",
        "都道府県名及び市町村名": "埼玉県秩父市",
        "施設・場所名": "地域密着型特別養護老人ホーム　楓の森",
        "住所": "埼玉県秩父市荒川上田野766-1",
        "指定緊急避難場所との住所同一": "",
        "その他市町村長が必要と認める事項": "左記のうち、事前に市が特定し、環境調整を事前に行った者",
        "受入対象者": "高齢者及び身体等に障がいのある者とその介護者（家族等を含む）",
        "備考": ""
      }
    },
    {
      "type": "Feature",
      "geometry": {
        "type": "Point",
        "coordinates": [
          139.026122,
          35.954984
        ]
      },
      "properties": {
        "NO": 20699,
        "共通ID": "E1120700027111",
        "都道府県名及び市町村名": "埼玉県秩父市",
        "施設・場所名": "荒川中学校",
        "住所": "埼玉県秩父市荒川日野23",
        "指定緊急避難場所との住所同一": "1",
        "その他市町村長が必要と認める事項": null,
        "受入対象者": null,
        "備考": ""
      }
    },
    {
      "type": "Feature",
      "geometry": {
        "type": "Point",
        "coordinates": [
          139.023965,
          35.954571
        ]
      },
      "properties": {
        "NO": 20700,
        "共通ID": "E1120700028111",
        "都道府県名及び市町村名": "埼玉県秩父市",
        "施設・場所名": "荒川農村環境改善センター",
        "住所": "埼玉県秩父市荒川日野70-1",
        "指定緊急避難場所との住所同一": "1",
        "その他市町村長が必要と認める事項": null,
        "受入対象者": null,
        "備考": ""
      }
    },
    {
      "type": "Feature",
      "geometry": {
        "type": "Point",
        "coordinates": [
          139.024373,
          35.95489
        ]
      },
      "properties": {
        "NO": 20701,
        "共通ID": "E1120700029111",
        "都道府県名及び市町村名": "埼玉県秩父市",
        "施設・場所名": "荒川公民館",
        "住所": "埼玉県秩父市荒川日野76-1",
        "指定緊急避難場所との住所同一": "1",
        "その他市町村長が必要と認める事項": null,
        "受入対象者": null,
        "備考": ""
      }
    },
    {
      "type": "Feature",
      "geometry": {
        "type": "Point",
        "coordinates": [
          138.977847,
          35.966585
        ]
      },
      "properties": {
        "NO": 20702,
        "共通ID": "E1120700032111",
        "都道府県名及び市町村名": "埼玉県秩父市",
        "施設・場所名": "荒川西小学校",
        "住所": "埼玉県秩父市荒川贄川840",
        "指定緊急避難場所との住所同一": "1",
        "その他市町村長が必要と認める事項": null,
        "受入対象者": null,
        "備考": ""
      }
    },
    {
      "type": "Feature",
      "geometry": {
        "type": "Point",
        "coordinates": [
          138.923862,
          35.927251
        ]
      },
      "properties": {
        "NO": 20703,
        "共通ID": "E1120700033111",
        "都道府県名及び市町村名": "埼玉県秩父市",
        "施設・場所名": "旧大滝小学校三峰分校",
        "住所": "埼玉県秩父市三峰214-2",
        "指定緊急避難場所との住所同一": "1",
        "その他市町村長が必要と認める事項": null,
        "受入対象者": null,
        "備考": ""
      }
    },
    {
      "type": "Feature",
      "geometry": {
        "type": "Point",
        "coordinates": [
          139.104034,
          36.016394
        ]
      },
      "properties": {
        "NO": 20704,
        "共通ID": "E1120700034121",
        "都道府県名及び市町村名": "埼玉県秩父市",
        "施設・場所名": "障がい者支援施設さやか　さやか事業所",
        "住所": "埼玉県秩父市山田1199-2",
        "指定緊急避難場所との住所同一": "",
        "その他市町村長が必要と認める事項": "左記のうち、事前に市が特定し、環境調整を事前に行った者",
        "受入対象者": "高齢者及び身体等に障がいのある者とその介護者（家族等を含む）",
        "備考": ""
      }
    },
    {
      "type": "Feature",
      "geometry": {
        "type": "Point",
        "coordinates": [
          139.112775,
          36.021052
        ]
      },
      "properties": {
        "NO": 20705,
        "共通ID": "E1120700035111",
        "都道府県名及び市町村名": "埼玉県秩父市",
        "施設・場所名": "高篠公民館",
        "住所": "埼玉県秩父市山田2589-1",
        "指定緊急避難場所との住所同一": "",
        "その他市町村長が必要と認める事項": null,
        "受入対象者": null,
        "備考": ""
      }
    },
    {
      "type": "Feature",
      "geometry": {
        "type": "Point",
        "coordinates": [
          139.114501,
          36.021787
        ]
      },
      "properties": {
        "NO": 20706,
        "共通ID": "E1120700036111",
        "都道府県名及び市町村名": "埼玉県秩父市",
        "施設・場所名": "高篠小学校",
        "住所": "埼玉県秩父市山田2619",
        "指定緊急避難場所との住所同一": "1",
        "その他市町村長が必要と認める事項": null,
        "受入対象者": null,
        "備考": ""
      }
    },
    {
      "type": "Feature",
      "geometry": {
        "type": "Point",
        "coordinates": [
          139.111698,
          36.018606
        ]
      },
      "properties": {
        "NO": 20707,
        "共通ID": "E1120700037111",
        "都道府県名及び市町村名": "埼玉県秩父市",
        "施設・場所名": "高篠中学校",
        "住所": "埼玉県秩父市山田2647",
        "指定緊急避難場所との住所同一": "1",
        "その他市町村長が必要と認める事項": null,
        "受入対象者": null,
        "備考": ""
      }
    },
    {
      "type": "Feature",
      "geometry": {
        "type": "Point",
        "coordinates": [
          139.082623,
          36.024244
        ]
      },
      "properties": {
        "NO": 20708,
        "共通ID": "E1120700039121",
        "都道府県名及び市町村名": "埼玉県秩父市",
        "施設・場所名": "自立支援施設　武甲の森",
        "住所": "埼玉県秩父市寺尾1449",
        "指定緊急避難場所との住所同一": "",
        "その他市町村長が必要と認める事項": "左記のうち、事前に市が特定し、環境調整を事前に行った者",
        "受入対象者": "高齢者及び身体等に障がいのある者とその介護者（家族等を含む）",
        "備考": ""
      }
    },
    {
      "type": "Feature",
      "geometry": {
        "type": "Point",
        "coordinates": [
          139.081237,
          36.019984
        ]
      },
      "properties": {
        "NO": 20709,
        "共通ID": "E1120700040111",
        "都道府県名及び市町村名": "埼玉県秩父市",
        "施設・場所名": "尾田蒔公民館",
        "住所": "埼玉県秩父市寺尾1941-1",
        "指定緊急避難場所との住所同一": "",
        "その他市町村長が必要と認める事項": null,
        "受入対象者": null,
        "備考": ""
      }
    },
    {
      "type": "Feature",
      "geometry": {
        "type": "Point",
        "coordinates": [
          139.080349,
          36.018913
        ]
      },
      "properties": {
        "NO": 20710,
        "共通ID": "E1120700041111",
        "都道府県名及び市町村名": "埼玉県秩父市",
        "施設・場所名": "尾田蒔中学校",
        "住所": "埼玉県秩父市寺尾2006",
        "指定緊急避難場所との住所同一": "1",
        "その他市町村長が必要と認める事項": null,
        "受入対象者": null,
        "備考": ""
      }
    },
    {
      "type": "Feature",
      "geometry": {
        "type": "Point",
        "coordinates": [
          139.078775,
          36.017654
        ]
      },
      "properties": {
        "NO": 20711,
        "共通ID": "E1120700042111",
        "都道府県名及び市町村名": "埼玉県秩父市",
        "施設・場所名": "尾田蒔小学校",
        "住所": "埼玉県秩父市寺尾2375",
        "指定緊急避難場所との住所同一": "1",
        "その他市町村長が必要と認める事項": null,
        "受入対象者": null,
        "備考": ""
      }
    },
    {
      "type": "Feature",
      "geometry": {
        "type": "Point",
        "coordinates": [
          139.078981,
          36.02558
        ]
      },
      "properties": {
        "NO": 20712,
        "共通ID": "E1120700043121",
        "都道府県名及び市町村名": "埼玉県秩父市",
        "施設・場所名": "介護老人保健施設　エスポワール秩父",
        "住所": "埼玉県秩父市寺尾2744",
        "指定緊急避難場所との住所同一": "",
        "その他市町村長が必要と認める事項": "左記のうち、事前に市が特定し、環境調整を事前に行った者",
        "受入対象者": "高齢者及び身体等に障がいのある者とその介護者（家族等を含む）",
        "備考": ""
      }
    },
    {
      "type": "Feature",
      "geometry": {
        "type": "Point",
        "coordinates": [
          139.080204,
          36.028534
        ]
      },
      "properties": {
        "NO": 20713,
        "共通ID": "E1120700044121",
        "都道府県名及び市町村名": "埼玉県秩父市",
        "施設・場所名": "障がい者支援施設さやか　ふらわあ事業所",
        "住所": "埼玉県秩父市寺尾2825",
        "指定緊急避難場所との住所同一": "",
        "その他市町村長が必要と認める事項": "左記のうち、事前に市が特定し、環境調整を事前に行った者",
        "受入対象者": "高齢者及び身体等に障がいのある者とその介護者（家族等を含む）",
        "備考": ""
      }
    },
    {
      "type": "Feature",
      "geometry": {
        "type": "Point",
        "coordinates": [
          139.069647,
          36.005288
        ]
      },
      "properties": {
        "NO": 20714,
        "共通ID": "E1120700045121",
        "都道府県名及び市町村名": "埼玉県秩父市",
        "施設・場所名": "特別養護老人ホーム　杏子苑",
        "住所": "埼玉県秩父市寺尾3900-1",
        "指定緊急避難場所との住所同一": "",
        "その他市町村長が必要と認める事項": "左記のうち、事前に市が特定し、環境調整を事前に行った者",
        "受入対象者": "高齢者及び身体等に障がいのある者とその介護者（家族等を含む）",
        "備考": ""
      }
    },
    {
      "type": "Feature",
      "geometry": {
        "type": "Point",
        "coordinates": [
          139.082704,
          36.032374
        ]
      },
      "properties": {
        "NO": 20715,
        "共通ID": "E1120700046121",
        "都道府県名及び市町村名": "埼玉県秩父市",
        "施設・場所名": "特別養護老人ホーム　偕楽苑",
        "住所": "埼玉県秩父市蒔田1977",
        "指定緊急避難場所との住所同一": "",
        "その他市町村長が必要と認める事項": "左記のうち、事前に市が特定し、環境調整を事前に行った者",
        "受入対象者": "高齢者及び身体等に障がいのある者とその介護者（家族等を含む）",
        "備考": ""
      }
    },
    {
      "type": "Feature",
      "geometry": {
        "type": "Point",
        "coordinates": [
          139.067975,
          35.975259
        ]
      },
      "properties": {
        "NO": 20716,
        "共通ID": "E1120700047111",
        "都道府県名及び市町村名": "埼玉県秩父市",
        "施設・場所名": "影森中学校",
        "住所": "埼玉県秩父市上影森53",
        "指定緊急避難場所との住所同一": "1",
        "その他市町村長が必要と認める事項": null,
        "受入対象者": null,
        "備考": ""
      }
    },
    {
      "type": "Feature",
      "geometry": {
        "type": "Point",
        "coordinates": [
          138.979922,
          36.055665
        ]
      },
      "properties": {
        "NO": 20717,
        "共通ID": "E1120700048111",
        "都道府県名及び市町村名": "埼玉県秩父市",
        "施設・場所名": "上吉田運動公園",
        "住所": "埼玉県秩父市上吉田3352-1",
        "指定緊急避難場所との住所同一": "1",
        "その他市町村長が必要と認める事項": null,
        "受入対象者": null,
        "備考": ""
      }
    },
    {
      "type": "Feature",
      "geometry": {
        "type": "Point",
        "coordinates": [
          138.968016,
          36.059689
        ]
      },
      "properties": {
        "NO": 20718,
        "共通ID": "E1120700049111",
        "都道府県名及び市町村名": "埼玉県秩父市",
        "施設・場所名": "吉田元気村",
        "住所": "埼玉県秩父市上吉田4942-1",
        "指定緊急避難場所との住所同一": "1",
        "その他市町村長が必要と認める事項": null,
        "受入対象者": null,
        "備考": ""
      }
    },
    {
      "type": "Feature",
      "geometry": {
        "type": "Point",
        "coordinates": [
          138.996727,
          36.043714
        ]
      },
      "properties": {
        "NO": 20719,
        "共通ID": "E1120700050111",
        "都道府県名及び市町村名": "埼玉県秩父市",
        "施設・場所名": "上吉田生活改善センター",
        "住所": "埼玉県秩父市上吉田613-1",
        "指定緊急避難場所との住所同一": "",
        "その他市町村長が必要と認める事項": null,
        "受入対象者": null,
        "備考": ""
      }
    },
    {
      "type": "Feature",
      "geometry": {
        "type": "Point",
        "coordinates": [
          139.09287,
          36.002966
        ]
      },
      "properties": {
        "NO": 20720,
        "共通ID": "E1120700051111",
        "都道府県名及び市町村名": "埼玉県秩父市",
        "施設・場所名": "秩父第一小学校",
        "住所": "埼玉県秩父市上宮地町36-11",
        "指定緊急避難場所との住所同一": "1",
        "その他市町村長が必要と認める事項": null,
        "受入対象者": null,
        "備考": ""
      }
    },
    {
      "type": "Feature",
      "geometry": {
        "type": "Point",
        "coordinates": [
          139.076444,
          35.990785
        ]
      },
      "properties": {
        "NO": 20721,
        "共通ID": "E1120700053111",
        "都道府県名及び市町村名": "埼玉県秩父市",
        "施設・場所名": "花の木小学校",
        "住所": "埼玉県秩父市上町2-21-37",
        "指定緊急避難場所との住所同一": "1",
        "その他市町村長が必要と認める事項": null,
        "受入対象者": null,
        "備考": ""
      }
    },
    {
      "type": "Feature",
      "geometry": {
        "type": "Point",
        "coordinates": [
          139.07527,
          35.991958
        ]
      },
      "properties": {
        "NO": 20722,
        "共通ID": "E1120700054111",
        "都道府県名及び市町村名": "埼玉県秩父市",
        "施設・場所名": "秩父高等学校体育館",
        "住所": "埼玉県秩父市上町2-23-4",
        "指定緊急避難場所との住所同一": "",
        "その他市町村長が必要と認める事項": null,
        "受入対象者": null,
        "備考": ""
      }
    },
    {
      "type": "Feature",
      "geometry": {
        "type": "Point",
        "coordinates": [
          139.07422,
          35.98653
        ]
      },
      "properties": {
        "NO": 20723,
        "共通ID": "E1120700055111",
        "都道府県名及び市町村名": "埼玉県秩父市",
        "施設・場所名": "秩父第二中学校",
        "住所": "埼玉県秩父市上町3-13-48",
        "指定緊急避難場所との住所同一": "1",
        "その他市町村長が必要と認める事項": null,
        "受入対象者": null,
        "備考": ""
      }
    },
    {
      "type": "Feature",
      "geometry": {
        "type": "Point",
        "coordinates": [
          139.065262,
          36.053248
        ]
      },
      "properties": {
        "NO": 20724,
        "共通ID": "E1120700056111",
        "都道府県名及び市町村名": "埼玉県秩父市",
        "施設・場所名": "大田中学校",
        "住所": "埼玉県秩父市太田1661",
        "指定緊急避難場所との住所同一": "1",
        "その他市町村長が必要と認める事項": null,
        "受入対象者": null,
        "備考": ""
      }
    },
    {
      "type": "Feature",
      "geometry": {
        "type": "Point",
        "coordinates": [
          139.066208,
          36.053046
        ]
      },
      "properties": {
        "NO": 20725,
        "共通ID": "E1120700056112",
        "都道府県名及び市町村名": "埼玉県秩父市",
        "施設・場所名": "大田小学校",
        "住所": "埼玉県秩父市太田1661",
        "指定緊急避難場所との住所同一": "1",
        "その他市町村長が必要と認める事項": null,
        "受入対象者": null,
        "備考": ""
      }
    },
    {
      "type": "Feature",
      "geometry": {
        "type": "Point",
        "coordinates": [
          139.066775,
          36.054964
        ]
      },
      "properties": {
        "NO": 20726,
        "共通ID": "E1120700057111",
        "都道府県名及び市町村名": "埼玉県秩父市",
        "施設・場所名": "大田公民館",
        "住所": "埼玉県秩父市太田1749",
        "指定緊急避難場所との住所同一": "",
        "その他市町村長が必要と認める事項": null,
        "受入対象者": null,
        "備考": ""
      }
    },
    {
      "type": "Feature",
      "geometry": {
        "type": "Point",
        "coordinates": [
          139.099475,
          36.005961
        ]
      },
      "properties": {
        "NO": 20727,
        "共通ID": "E1120700059121",
        "都道府県名及び市町村名": "埼玉県秩父市",
        "施設・場所名": "埼玉県立秩父特別支援学校",
        "住所": "埼玉県秩父市大宮6576-1",
        "指定緊急避難場所との住所同一": "",
        "その他市町村長が必要と認める事項": null,
        "受入対象者": "在校生、卒業生及びその家族",
        "備考": ""
      }
    },
    {
      "type": "Feature",
      "geometry": {
        "type": "Point",
        "coordinates": [
          138.883963,
          35.944742
        ]
      },
      "properties": {
        "NO": 20728,
        "共通ID": "E1120700060111",
        "都道府県名及び市町村名": "埼玉県秩父市",
        "施設・場所名": "旧上中尾小学校",
        "住所": "埼玉県秩父市大滝1535",
        "指定緊急避難場所との住所同一": "",
        "その他市町村長が必要と認める事項": null,
        "受入対象者": null,
        "備考": ""
      }
    },
    {
      "type": "Feature",
      "geometry": {
        "type": "Point",
        "coordinates": [
          138.916351,
          35.954533
        ]
      },
      "properties": {
        "NO": 20729,
        "共通ID": "E1120700061111",
        "都道府県名及び市町村名": "埼玉県秩父市",
        "施設・場所名": "旧大滝小学校",
        "住所": "埼玉県秩父市大滝1999",
        "指定緊急避難場所との住所同一": "",
        "その他市町村長が必要と認める事項": null,
        "受入対象者": null,
        "備考": ""
      }
    },
    {
      "type": "Feature",
      "geometry": {
        "type": "Point",
        "coordinates": [
          138.936401,
          35.952031
        ]
      },
      "properties": {
        "NO": 20730,
        "共通ID": "E1120700062111",
        "都道府県名及び市町村名": "埼玉県秩父市",
        "施設・場所名": "大滝公民館",
        "住所": "埼玉県秩父市大滝4058",
        "指定緊急避難場所との住所同一": "1",
        "その他市町村長が必要と認める事項": null,
        "受入対象者": null,
        "備考": ""
      }
    },
    {
      "type": "Feature",
      "geometry": {
        "type": "Point",
        "coordinates": [
          138.936208,
          35.952163
        ]
      },
      "properties": {
        "NO": 20731,
        "共通ID": "E1120700062112",
        "都道府県名及び市町村名": "埼玉県秩父市",
        "施設・場所名": "大滝総合支所（旧大滝中学校）",
        "住所": "埼玉県秩父市大滝4058",
        "指定緊急避難場所との住所同一": "1",
        "その他市町村長が必要と認める事項": null,
        "受入対象者": null,
        "備考": ""
      }
    },
    {
      "type": "Feature",
      "geometry": {
        "type": "Point",
        "coordinates": [
          138.968969,
          35.946751
        ]
      },
      "properties": {
        "NO": 20732,
        "共通ID": "E1120700063111",
        "都道府県名及び市町村名": "埼玉県秩父市",
        "施設・場所名": "光の村養護学校（旧光岩小学校）",
        "住所": "埼玉県秩父市大滝4783",
        "指定緊急避難場所との住所同一": "",
        "その他市町村長が必要と認める事項": null,
        "受入対象者": null,
        "備考": ""
      }
    },
    {
      "type": "Feature",
      "geometry": {
        "type": "Point",
        "coordinates": [
          139.100104,
          36.030009
        ]
      },
      "properties": {
        "NO": 20733,
        "共通ID": "E1120700065111",
        "都道府県名及び市町村名": "埼玉県秩父市",
        "施設・場所名": "文化体育センター",
        "住所": "埼玉県秩父市大野原1470",
        "指定緊急避難場所との住所同一": "",
        "その他市町村長が必要と認める事項": null,
        "受入対象者": null,
        "備考": ""
      }
    },
    {
      "type": "Feature",
      "geometry": {
        "type": "Point",
        "coordinates": [
          139.092099,
          36.021397
        ]
      },
      "properties": {
        "NO": 20734,
        "共通ID": "E1120700066111",
        "都道府県名及び市町村名": "埼玉県秩父市",
        "施設・場所名": "秩父農工科学高等学校",
        "住所": "埼玉県秩父市大野原2000",
        "指定緊急避難場所との住所同一": "",
        "その他市町村長が必要と認める事項": null,
        "受入対象者": null,
        "備考": ""
      }
    },
    {
      "type": "Feature",
      "geometry": {
        "type": "Point",
        "coordinates": [
          139.101144,
          36.032787
        ]
      },
      "properties": {
        "NO": 20735,
        "共通ID": "E1120700067111",
        "都道府県名及び市町村名": "埼玉県秩父市",
        "施設・場所名": "原谷公民館",
        "住所": "埼玉県秩父市大野原2991",
        "指定緊急避難場所との住所同一": "1",
        "その他市町村長が必要と認める事項": null,
        "受入対象者": null,
        "備考": ""
      }
    },
    {
      "type": "Feature",
      "geometry": {
        "type": "Point",
        "coordinates": [
          139.100768,
          36.032549
        ]
      },
      "properties": {
        "NO": 20736,
        "共通ID": "E1120700067112",
        "都道府県名及び市町村名": "埼玉県秩父市",
        "施設・場所名": "原谷小学校",
        "住所": "埼玉県秩父市大野原2991",
        "指定緊急避難場所との住所同一": "1",
        "その他市町村長が必要と認める事項": null,
        "受入対象者": null,
        "備考": ""
      }
    },
    {
      "type": "Feature",
      "geometry": {
        "type": "Point",
        "coordinates": [
          139.09965,
          36.025972
        ]
      },
      "properties": {
        "NO": 20737,
        "共通ID": "E1120700068121",
        "都道府県名及び市町村名": "埼玉県秩父市",
        "施設・場所名": "特別養護老人ホーム　愛宕の杜",
        "住所": "埼玉県秩父市大野原786",
        "指定緊急避難場所との住所同一": "",
        "その他市町村長が必要と認める事項": "左記のうち、事前に市が特定し、環境調整を事前に行った者",
        "受入対象者": "高齢者及び身体等に障がいのある者とその介護者（家族等を含む）",
        "備考": ""
      }
    },
    {
      "type": "Feature",
      "geometry": {
        "type": "Point",
        "coordinates": [
          139.08994,
          36.01375
        ]
      },
      "properties": {
        "NO": 20738,
        "共通ID": "E1120700069111",
        "都道府県名及び市町村名": "埼玉県秩父市",
        "施設・場所名": "秩父第一中学校",
        "住所": "埼玉県秩父市滝の上町9-22",
        "指定緊急避難場所との住所同一": "1",
        "その他市町村長が必要と認める事項": null,
        "受入対象者": null,
        "備考": ""
      }
    },
    {
      "type": "Feature",
      "geometry": {
        "type": "Point",
        "coordinates": [
          139.073879,
          36.000182
        ]
      },
      "properties": {
        "NO": 20739,
        "共通ID": "E1120700070121",
        "都道府県名及び市町村名": "埼玉県秩父市",
        "施設・場所名": "介護老人保健施設　うらら",
        "住所": "埼玉県秩父市中村町3-6-24",
        "指定緊急避難場所との住所同一": "",
        "その他市町村長が必要と認める事項": "左記のうち、事前に市が特定し、環境調整を事前に行った者",
        "受入対象者": "高齢者及び身体等に障がいのある者とその介護者（家族等を含む）",
        "備考": ""
      }
    },
    {
      "type": "Feature",
      "geometry": {
        "type": "Point",
        "coordinates": [
          138.8004,
          35.994144
        ]
      },
      "properties": {
        "NO": 20740,
        "共通ID": "E1120700071111",
        "都道府県名及び市町村名": "埼玉県秩父市",
        "施設・場所名": "こまどり荘",
        "住所": "埼玉県秩父市中津川447",
        "指定緊急避難場所との住所同一": "1",
        "その他市町村長が必要と認める事項": null,
        "受入対象者": null,
        "備考": ""
      }
    },
    {
      "type": "Feature",
      "geometry": {
        "type": "Point",
        "coordinates": [
          139.080263,
          35.982768
        ]
      },
      "properties": {
        "NO": 20741,
        "共通ID": "E1120700072121",
        "都道府県名及び市町村名": "埼玉県秩父市",
        "施設・場所名": "シニアホーム　武甲の郷",
        "住所": "埼玉県秩父市日野田町2-14-5",
        "指定緊急避難場所との住所同一": "",
        "その他市町村長が必要と認める事項": "左記のうち、事前に市が特定し、環境調整を事前に行った者",
        "受入対象者": "高齢者及び身体等に障がいのある者とその介護者（家族等を含む）",
        "備考": ""
      }
    },
    {
      "type": "Feature",
      "geometry": {
        "type": "Point",
        "coordinates": [
          139.084624,
          35.985588
        ]
      },
      "properties": {
        "NO": 20742,
        "共通ID": "E1120700073111",
        "都道府県名及び市町村名": "埼玉県秩父市",
        "施設・場所名": "南小学校",
        "住所": "埼玉県秩父市野坂町2-14-29",
        "指定緊急避難場所との住所同一": "1",
        "その他市町村長が必要と認める事項": null,
        "受入対象者": null,
        "備考": ""
      }
    },
    {
      "type": "Feature",
      "geometry": {
        "type": "Point",
        "coordinates": [
          139.065674,
          35.983068
        ]
      },
      "properties": {
        "NO": 20743,
        "共通ID": "E1120700075122",
        "都道府県名及び市町村名": "埼玉県秩父市",
        "施設・場所名": "特別養護老人ホーム　和泉の森",
        "住所": "埼玉県秩父市和泉町16",
        "指定緊急避難場所との住所同一": "",
        "その他市町村長が必要と認める事項": "事前に市が特定し、環境調整を事前に行った者",
        "受入対象者": "高齢者及び身体等に障がいがある者とその介護者（家族等も含む）",
        "備考": ""
      }
    },
    {
      "type": "Feature",
      "geometry": {
        "type": "Point",
        "coordinates": [
          139.065065,
          35.982803
        ]
      },
      "properties": {
        "NO": 20744,
        "共通ID": "E1120700074121",
        "都道府県名及び市町村名": "埼玉県秩父市",
        "施設・場所名": "特別養護老人ホーム　桜の園",
        "住所": "埼玉県秩父市和泉町18",
        "指定緊急避難場所との住所同一": "",
        "その他市町村長が必要と認める事項": "左記のうち、事前に市が特定し、環境調整を事前に行った者",
        "受入対象者": "高齢者及び身体等に障がいのある者とその介護者（家族等を含む）",
        "備考": ""
      }
    }
  ]
}