{
  "type": "FeatureCollection",
  "name": "112143",
  "features": [
    {
      "type": "Feature",
      "geometry": {
        "type": "Point",
        "coordinates": [
          139.798752,
          35.977956
        ]
      },
      "properties": {
        "NO": 21005,
        "共通ID": "E1121400002111",
        "都道府県名及び市町村名": "埼玉県春日部市",
        "施設・場所名": "春日部市立葛飾中学校",
        "住所": "埼玉県春日部市永沼2250-1",
        "指定緊急避難場所との住所同一": "1",
        "その他市町村長が必要と認める事項": null,
        "受入対象者": null,
        "備考": ""
      }
    },
    {
      "type": "Feature",
      "geometry": {
        "type": "Point",
        "coordinates": [
          139.795289,
          35.992141
        ]
      },
      "properties": {
        "NO": 21006,
        "共通ID": "E1121400003111",
        "都道府県名及び市町村名": "埼玉県春日部市",
        "施設・場所名": "春日部市立南桜井小学校",
        "住所": "埼玉県春日部市下柳3",
        "指定緊急避難場所との住所同一": "1",
        "その他市町村長が必要と認める事項": null,
        "受入対象者": null,
        "備考": ""
      }
    },
    {
      "type": "Feature",
      "geometry": {
        "type": "Point",
        "coordinates": [
          139.777814,
          35.986203
        ]
      },
      "properties": {
        "NO": 21007,
        "共通ID": "E1121400004111",
        "都道府県名及び市町村名": "埼玉県春日部市",
        "施設・場所名": "春日部市立牛島小学校",
        "住所": "埼玉県春日部市牛島1080",
        "指定緊急避難場所との住所同一": "1",
        "その他市町村長が必要と認める事項": null,
        "受入対象者": null,
        "備考": ""
      }
    },
    {
      "type": "Feature",
      "geometry": {
        "type": "Point",
        "coordinates": [
          139.772893,
          35.98564
        ]
      },
      "properties": {
        "NO": 21008,
        "共通ID": "E1121400005111",
        "都道府県名及び市町村名": "埼玉県春日部市",
        "施設・場所名": "幸松市民センター",
        "住所": "埼玉県春日部市牛島667-1",
        "指定緊急避難場所との住所同一": "1",
        "その他市町村長が必要と認める事項": "",
        "受入対象者": "",
        "備考": ""
      }
    },
    {
      "type": "Feature",
      "geometry": {
        "type": "Point",
        "coordinates": [
          139.80537,
          35.991974
        ]
      },
      "properties": {
        "NO": 21009,
        "共通ID": "E1121400006111",
        "都道府県名及び市町村名": "埼玉県春日部市",
        "施設・場所名": "埼玉県立庄和高等学校",
        "住所": "埼玉県春日部市金崎583",
        "指定緊急避難場所との住所同一": "1",
        "その他市町村長が必要と認める事項": null,
        "受入対象者": null,
        "備考": ""
      }
    },
    {
      "type": "Feature",
      "geometry": {
        "type": "Point",
        "coordinates": [
          139.803758,
          35.989984
        ]
      },
      "properties": {
        "NO": 21010,
        "共通ID": "E1121400007111",
        "都道府県名及び市町村名": "埼玉県春日部市",
        "施設・場所名": "春日部市庄和体育館",
        "住所": "埼玉県春日部市金崎616",
        "指定緊急避難場所との住所同一": "1",
        "その他市町村長が必要と認める事項": null,
        "受入対象者": null,
        "備考": ""
      }
    },
    {
      "type": "Feature",
      "geometry": {
        "type": "Point",
        "coordinates": [
          139.756648,
          35.988852
        ]
      },
      "properties": {
        "NO": 21011,
        "共通ID": "E1121400008111",
        "都道府県名及び市町村名": "埼玉県春日部市",
        "施設・場所名": "春日部市幸松第二公民館",
        "住所": "埼玉県春日部市小渕73-1",
        "指定緊急避難場所との住所同一": "1",
        "その他市町村長が必要と認める事項": null,
        "受入対象者": null,
        "備考": ""
      }
    },
    {
      "type": "Feature",
      "geometry": {
        "type": "Point",
        "coordinates": [
          139.749229,
          35.998453
        ]
      },
      "properties": {
        "NO": 21012,
        "共通ID": "E1121400009111",
        "都道府県名及び市町村名": "埼玉県春日部市",
        "施設・場所名": "春日部市立小渕小学校",
        "住所": "埼玉県春日部市小渕905-1",
        "指定緊急避難場所との住所同一": "1",
        "その他市町村長が必要と認める事項": null,
        "受入対象者": null,
        "備考": ""
      }
    },
    {
      "type": "Feature",
      "geometry": {
        "type": "Point",
        "coordinates": [
          139.805016,
          36.018914
        ]
      },
      "properties": {
        "NO": 21013,
        "共通ID": "E1121400010111",
        "都道府県名及び市町村名": "埼玉県春日部市",
        "施設・場所名": "春日部市立江戸川小中学校",
        "住所": "埼玉県春日部市上吉妻1",
        "指定緊急避難場所との住所同一": "1",
        "その他市町村長が必要と認める事項": null,
        "受入対象者": null,
        "備考": ""
      }
    },
    {
      "type": "Feature",
      "geometry": {
        "type": "Point",
        "coordinates": [
          139.741082,
          35.962242
        ]
      },
      "properties": {
        "NO": 21014,
        "共通ID": "E1121400011111",
        "都道府県名及び市町村名": "埼玉県春日部市",
        "施設・場所名": "春日部市立大増中学校",
        "住所": "埼玉県春日部市上大増新田140",
        "指定緊急避難場所との住所同一": "1",
        "その他市町村長が必要と認める事項": null,
        "受入対象者": null,
        "備考": ""
      }
    },
    {
      "type": "Feature",
      "geometry": {
        "type": "Point",
        "coordinates": [
          139.72457,
          35.966436
        ]
      },
      "properties": {
        "NO": 21015,
        "共通ID": "E1121400013111",
        "都道府県名及び市町村名": "埼玉県春日部市",
        "施設・場所名": "豊春市民センター",
        "住所": "埼玉県春日部市上蛭田101-2",
        "指定緊急避難場所との住所同一": "1",
        "その他市町村長が必要と認める事項": "",
        "受入対象者": "",
        "備考": ""
      }
    },
    {
      "type": "Feature",
      "geometry": {
        "type": "Point",
        "coordinates": [
          139.725511,
          35.976963
        ]
      },
      "properties": {
        "NO": 21016,
        "共通ID": "E1121400014111",
        "都道府県名及び市町村名": "埼玉県春日部市",
        "施設・場所名": "春日部市立宮川小学校",
        "住所": "埼玉県春日部市新方袋1090",
        "指定緊急避難場所との住所同一": "1",
        "その他市町村長が必要と認める事項": null,
        "受入対象者": null,
        "備考": ""
      }
    },
    {
      "type": "Feature",
      "geometry": {
        "type": "Point",
        "coordinates": [
          139.800094,
          36.012021
        ]
      },
      "properties": {
        "NO": 21017,
        "共通ID": "E1121400015111",
        "都道府県名及び市町村名": "埼玉県春日部市",
        "施設・場所名": "（旧）春日部市立富多小学校",
        "住所": "埼玉県春日部市神間872",
        "指定緊急避難場所との住所同一": "1",
        "その他市町村長が必要と認める事項": null,
        "受入対象者": null,
        "備考": ""
      }
    },
    {
      "type": "Feature",
      "geometry": {
        "type": "Point",
        "coordinates": [
          139.805759,
          35.985059
        ]
      },
      "properties": {
        "NO": 21018,
        "共通ID": "E1121400016111",
        "都道府県名及び市町村名": "埼玉県春日部市",
        "施設・場所名": "子供の町",
        "住所": "埼玉県春日部市西金野井337",
        "指定緊急避難場所との住所同一": "1",
        "その他市町村長が必要と認める事項": null,
        "受入対象者": null,
        "備考": ""
      }
    },
    {
      "type": "Feature",
      "geometry": {
        "type": "Point",
        "coordinates": [
          139.809694,
          36.031946
        ]
      },
      "properties": {
        "NO": 21019,
        "共通ID": "E1121400017111",
        "都道府県名及び市町村名": "埼玉県春日部市",
        "施設・場所名": "大凧文化交流センター",
        "住所": "埼玉県春日部市西宝珠花593",
        "指定緊急避難場所との住所同一": "1",
        "その他市町村長が必要と認める事項": "",
        "受入対象者": "",
        "備考": ""
      }
    },
    {
      "type": "Feature",
      "geometry": {
        "type": "Point",
        "coordinates": [
          139.794118,
          35.953756
        ]
      },
      "properties": {
        "NO": 21020,
        "共通ID": "E1121400018111",
        "都道府県名及び市町村名": "埼玉県春日部市",
        "施設・場所名": "春日部市薬師沼憩いの家",
        "住所": "埼玉県春日部市赤沼475",
        "指定緊急避難場所との住所同一": "1",
        "その他市町村長が必要と認める事項": null,
        "受入対象者": null,
        "備考": ""
      }
    },
    {
      "type": "Feature",
      "geometry": {
        "type": "Point",
        "coordinates": [
          139.770435,
          35.942881
        ]
      },
      "properties": {
        "NO": 21021,
        "共通ID": "E1121400019111",
        "都道府県名及び市町村名": "埼玉県春日部市",
        "施設・場所名": "武里大枝市民センター",
        "住所": "埼玉県春日部市大枝８９武里団地2-1",
        "指定緊急避難場所との住所同一": "1",
        "その他市町村長が必要と認める事項": "",
        "受入対象者": "",
        "備考": ""
      }
    },
    {
      "type": "Feature",
      "geometry": {
        "type": "Point",
        "coordinates": [
          139.771003,
          35.943702
        ]
      },
      "properties": {
        "NO": 21022,
        "共通ID": "E1121400019112",
        "都道府県名及び市町村名": "埼玉県春日部市",
        "施設・場所名": "春日部市立武里南小学校",
        "住所": "埼玉県春日部市大枝８９武里団地2-1",
        "指定緊急避難場所との住所同一": "1",
        "その他市町村長が必要と認める事項": null,
        "受入対象者": null,
        "備考": ""
      }
    },
    {
      "type": "Feature",
      "geometry": {
        "type": "Point",
        "coordinates": [
          139.767317,
          35.943354
        ]
      },
      "properties": {
        "NO": 21023,
        "共通ID": "E1121400020111",
        "都道府県名及び市町村名": "埼玉県春日部市",
        "施設・場所名": "春日部市健康福祉センター",
        "住所": "埼玉県春日部市大枝８９武里団地7-4",
        "指定緊急避難場所との住所同一": "1",
        "その他市町村長が必要と認める事項": null,
        "受入対象者": null,
        "備考": ""
      }
    },
    {
      "type": "Feature",
      "geometry": {
        "type": "Point",
        "coordinates": [
          139.76621,
          35.94376
        ]
      },
      "properties": {
        "NO": 21024,
        "共通ID": "E1121400021111",
        "都道府県名及び市町村名": "埼玉県春日部市",
        "施設・場所名": "春日部市武里南地区公民館",
        "住所": "埼玉県春日部市大枝８９武里団地7-5",
        "指定緊急避難場所との住所同一": "1",
        "その他市町村長が必要と認める事項": null,
        "受入対象者": null,
        "備考": ""
      }
    },
    {
      "type": "Feature",
      "geometry": {
        "type": "Point",
        "coordinates": [
          139.750257,
          35.966494
        ]
      },
      "properties": {
        "NO": 21025,
        "共通ID": "E1121400022111",
        "都道府県名及び市町村名": "埼玉県春日部市",
        "施設・場所名": "春日部市民武道館",
        "住所": "埼玉県春日部市大沼2-107",
        "指定緊急避難場所との住所同一": "1",
        "その他市町村長が必要と認める事項": null,
        "受入対象者": null,
        "備考": ""
      }
    },
    {
      "type": "Feature",
      "geometry": {
        "type": "Point",
        "coordinates": [
          139.756946,
          35.966226
        ]
      },
      "properties": {
        "NO": 21026,
        "共通ID": "E1121400023111",
        "都道府県名及び市町村名": "埼玉県春日部市",
        "施設・場所名": "春日部市立上沖小学校",
        "住所": "埼玉県春日部市大沼5-44",
        "指定緊急避難場所との住所同一": "1",
        "その他市町村長が必要と認める事項": null,
        "受入対象者": null,
        "備考": ""
      }
    },
    {
      "type": "Feature",
      "geometry": {
        "type": "Point",
        "coordinates": [
          139.750638,
          35.96468
        ]
      },
      "properties": {
        "NO": 21027,
        "共通ID": "E1121400024111",
        "都道府県名及び市町村名": "埼玉県春日部市",
        "施設・場所名": "春日部市立大沼中学校",
        "住所": "埼玉県春日部市大沼6-75",
        "指定緊急避難場所との住所同一": "1",
        "その他市町村長が必要と認める事項": null,
        "受入対象者": null,
        "備考": ""
      }
    },
    {
      "type": "Feature",
      "geometry": {
        "type": "Point",
        "coordinates": [
          139.763515,
          35.943851
        ]
      },
      "properties": {
        "NO": 21028,
        "共通ID": "E1121400026111",
        "都道府県名及び市町村名": "埼玉県春日部市",
        "施設・場所名": "春日部市谷中小記念館",
        "住所": "埼玉県春日部市大場656",
        "指定緊急避難場所との住所同一": "1",
        "その他市町村長が必要と認める事項": null,
        "受入対象者": null,
        "備考": ""
      }
    },
    {
      "type": "Feature",
      "geometry": {
        "type": "Point",
        "coordinates": [
          139.764632,
          35.946944
        ]
      },
      "properties": {
        "NO": 21029,
        "共通ID": "E1121400027111",
        "都道府県名及び市町村名": "埼玉県春日部市",
        "施設・場所名": "春日部市立武里西小学校",
        "住所": "埼玉県春日部市大場822-1",
        "指定緊急避難場所との住所同一": "1",
        "その他市町村長が必要と認める事項": null,
        "受入対象者": null,
        "備考": ""
      }
    },
    {
      "type": "Feature",
      "geometry": {
        "type": "Point",
        "coordinates": [
          139.804367,
          35.983185
        ]
      },
      "properties": {
        "NO": 21030,
        "共通ID": "E1121400028111",
        "都道府県名及び市町村名": "埼玉県春日部市",
        "施設・場所名": "春日部市庄和市民センター正風館",
        "住所": "埼玉県春日部市大衾307-1",
        "指定緊急避難場所との住所同一": "1",
        "その他市町村長が必要と認める事項": null,
        "受入対象者": null,
        "備考": ""
      }
    },
    {
      "type": "Feature",
      "geometry": {
        "type": "Point",
        "coordinates": [
          139.809023,
          35.984743
        ]
      },
      "properties": {
        "NO": 21031,
        "共通ID": "E1121400029111",
        "都道府県名及び市町村名": "埼玉県春日部市",
        "施設・場所名": "春日部市立桜川小学校",
        "住所": "埼玉県春日部市大衾496-1",
        "指定緊急避難場所との住所同一": "1",
        "その他市町村長が必要と認める事項": null,
        "受入対象者": null,
        "備考": ""
      }
    },
    {
      "type": "Feature",
      "geometry": {
        "type": "Point",
        "coordinates": [
          139.749379,
          35.952156
        ]
      },
      "properties": {
        "NO": 21032,
        "共通ID": "E1121400031111",
        "都道府県名及び市町村名": "埼玉県春日部市",
        "施設・場所名": "（旧）春日部市立谷原中学校",
        "住所": "埼玉県春日部市谷原新田1507",
        "指定緊急避難場所との住所同一": "1",
        "その他市町村長が必要と認める事項": null,
        "受入対象者": null,
        "備考": ""
      }
    },
    {
      "type": "Feature",
      "geometry": {
        "type": "Point",
        "coordinates": [
          139.746544,
          35.975135
        ]
      },
      "properties": {
        "NO": 21033,
        "共通ID": "E1121400033111",
        "都道府県名及び市町村名": "埼玉県春日部市",
        "施設・場所名": "春日部市立八木崎小学校",
        "住所": "埼玉県春日部市中央4-1",
        "指定緊急避難場所との住所同一": "1",
        "その他市町村長が必要と認める事項": null,
        "受入対象者": null,
        "備考": ""
      }
    },
    {
      "type": "Feature",
      "geometry": {
        "type": "Point",
        "coordinates": [
          139.786028,
          35.960091
        ]
      },
      "properties": {
        "NO": 21034,
        "共通ID": "E1121400034111",
        "都道府県名及び市町村名": "埼玉県春日部市",
        "施設・場所名": "春日部市立豊野小学校",
        "住所": "埼玉県春日部市銚子口1087",
        "指定緊急避難場所との住所同一": "1",
        "その他市町村長が必要と認める事項": null,
        "受入対象者": null,
        "備考": ""
      }
    },
    {
      "type": "Feature",
      "geometry": {
        "type": "Point",
        "coordinates": [
          139.785479,
          35.964693
        ]
      },
      "properties": {
        "NO": 21035,
        "共通ID": "E1121400035111",
        "都道府県名及び市町村名": "埼玉県春日部市",
        "施設・場所名": "春日部市立豊野中学校",
        "住所": "埼玉県春日部市銚子口130",
        "指定緊急避難場所との住所同一": "1",
        "その他市町村長が必要と認める事項": null,
        "受入対象者": null,
        "備考": ""
      }
    },
    {
      "type": "Feature",
      "geometry": {
        "type": "Point",
        "coordinates": [
          139.78918,
          35.957492
        ]
      },
      "properties": {
        "NO": 21036,
        "共通ID": "E1121400036111",
        "都道府県名及び市町村名": "埼玉県春日部市",
        "施設・場所名": "豊野市民センター",
        "住所": "埼玉県春日部市銚子口999",
        "指定緊急避難場所との住所同一": "1",
        "その他市町村長が必要と認める事項": "",
        "受入対象者": "",
        "備考": ""
      }
    },
    {
      "type": "Feature",
      "geometry": {
        "type": "Point",
        "coordinates": [
          139.82228,
          35.972826
        ]
      },
      "properties": {
        "NO": 21037,
        "共通ID": "E1121400037111",
        "都道府県名及び市町村名": "埼玉県春日部市",
        "施設・場所名": "春日部市立中野小学校",
        "住所": "埼玉県春日部市東中野654",
        "指定緊急避難場所との住所同一": "1",
        "その他市町村長が必要と認める事項": null,
        "受入対象者": null,
        "備考": ""
      }
    },
    {
      "type": "Feature",
      "geometry": {
        "type": "Point",
        "coordinates": [
          139.778881,
          35.975331
        ]
      },
      "properties": {
        "NO": 21038,
        "共通ID": "E1121400038111",
        "都道府県名及び市町村名": "埼玉県春日部市",
        "施設・場所名": "春日部市藤塚公民館",
        "住所": "埼玉県春日部市藤塚1670-1",
        "指定緊急避難場所との住所同一": "1",
        "その他市町村長が必要と認める事項": null,
        "受入対象者": null,
        "備考": ""
      }
    },
    {
      "type": "Feature",
      "geometry": {
        "type": "Point",
        "coordinates": [
          139.781412,
          35.962651
        ]
      },
      "properties": {
        "NO": 21039,
        "共通ID": "E1121400039111",
        "都道府県名及び市町村名": "埼玉県春日部市",
        "施設・場所名": "春日部市立藤塚小学校",
        "住所": "埼玉県春日部市藤塚82-2",
        "指定緊急避難場所との住所同一": "1",
        "その他市町村長が必要と認める事項": null,
        "受入対象者": null,
        "備考": ""
      }
    },
    {
      "type": "Feature",
      "geometry": {
        "type": "Point",
        "coordinates": [
          139.731381,
          35.967804
        ]
      },
      "properties": {
        "NO": 21040,
        "共通ID": "E1121400040111",
        "都道府県名及び市町村名": "埼玉県春日部市",
        "施設・場所名": "春日部市立豊春小学校",
        "住所": "埼玉県春日部市道順川戸37-1",
        "指定緊急避難場所との住所同一": "1",
        "その他市町村長が必要と認める事項": null,
        "受入対象者": null,
        "備考": ""
      }
    },
    {
      "type": "Feature",
      "geometry": {
        "type": "Point",
        "coordinates": [
          139.728171,
          35.984226
        ]
      },
      "properties": {
        "NO": 21041,
        "共通ID": "E1121400041111",
        "都道府県名及び市町村名": "埼玉県春日部市",
        "施設・場所名": "春日部市内牧南公民館",
        "住所": "埼玉県春日部市内牧1498",
        "指定緊急避難場所との住所同一": "1",
        "その他市町村長が必要と認める事項": null,
        "受入対象者": null,
        "備考": ""
      }
    },
    {
      "type": "Feature",
      "geometry": {
        "type": "Point",
        "coordinates": [
          139.727061,
          35.994166
        ]
      },
      "properties": {
        "NO": 21042,
        "共通ID": "E1121400042111",
        "都道府県名及び市町村名": "埼玉県春日部市",
        "施設・場所名": "春日部市立内牧小学校",
        "住所": "埼玉県春日部市内牧2415-2",
        "指定緊急避難場所との住所同一": "1",
        "その他市町村長が必要と認める事項": null,
        "受入対象者": null,
        "備考": ""
      }
    },
    {
      "type": "Feature",
      "geometry": {
        "type": "Point",
        "coordinates": [
          139.722943,
          35.996555
        ]
      },
      "properties": {
        "NO": 21043,
        "共通ID": "E1121400044111",
        "都道府県名及び市町村名": "埼玉県春日部市",
        "施設・場所名": "共栄大学",
        "住所": "埼玉県春日部市内牧4158",
        "指定緊急避難場所との住所同一": "",
        "その他市町村長が必要と認める事項": "",
        "受入対象者": "",
        "備考": ""
      }
    },
    {
      "type": "Feature",
      "geometry": {
        "type": "Point",
        "coordinates": [
          139.726747,
          35.994808
        ]
      },
      "properties": {
        "NO": 21044,
        "共通ID": "E1121400045111",
        "都道府県名及び市町村名": "埼玉県春日部市",
        "施設・場所名": "内牧市民センター",
        "住所": "埼玉県春日部市内牧4398",
        "指定緊急避難場所との住所同一": "1",
        "その他市町村長が必要と認める事項": "",
        "受入対象者": "",
        "備考": ""
      }
    },
    {
      "type": "Feature",
      "geometry": {
        "type": "Point",
        "coordinates": [
          139.755345,
          35.97828
        ]
      },
      "properties": {
        "NO": 21045,
        "共通ID": "E1121400047111",
        "都道府県名及び市町村名": "埼玉県春日部市",
        "施設・場所名": "東部地域振興ふれあい拠点施設「ふれあいキューブ」",
        "住所": "埼玉県春日部市南1-1-7",
        "指定緊急避難場所との住所同一": "1",
        "その他市町村長が必要と認める事項": null,
        "受入対象者": null,
        "備考": ""
      }
    },
    {
      "type": "Feature",
      "geometry": {
        "type": "Point",
        "coordinates": [
          139.758882,
          35.975618
        ]
      },
      "properties": {
        "NO": 21046,
        "共通ID": "E1121400046111",
        "都道府県名及び市町村名": "埼玉県春日部市",
        "施設・場所名": "春日部市粕壁南公民館",
        "住所": "埼玉県春日部市南1-12-23",
        "指定緊急避難場所との住所同一": "1",
        "その他市町村長が必要と認める事項": null,
        "受入対象者": null,
        "備考": ""
      }
    },
    {
      "type": "Feature",
      "geometry": {
        "type": "Point",
        "coordinates": [
          139.760793,
          35.965904
        ]
      },
      "properties": {
        "NO": 21047,
        "共通ID": "E1121400048111",
        "都道府県名及び市町村名": "埼玉県春日部市",
        "施設・場所名": "春日部市大池憩いの家",
        "住所": "埼玉県春日部市南5-7-13",
        "指定緊急避難場所との住所同一": "1",
        "その他市町村長が必要と認める事項": null,
        "受入対象者": null,
        "備考": ""
      }
    },
    {
      "type": "Feature",
      "geometry": {
        "type": "Point",
        "coordinates": [
          139.726966,
          35.973716
        ]
      },
      "properties": {
        "NO": 21048,
        "共通ID": "E1121400050111",
        "都道府県名及び市町村名": "埼玉県春日部市",
        "施設・場所名": "春日部市立豊春中学校",
        "住所": "埼玉県春日部市南中曽根107-2",
        "指定緊急避難場所との住所同一": "1",
        "その他市町村長が必要と認める事項": null,
        "受入対象者": null,
        "備考": ""
      }
    },
    {
      "type": "Feature",
      "geometry": {
        "type": "Point",
        "coordinates": [
          139.738485,
          35.96579
        ]
      },
      "properties": {
        "NO": 21049,
        "共通ID": "E1121400051111",
        "都道府県名及び市町村名": "埼玉県春日部市",
        "施設・場所名": "春日部市立立野小学校",
        "住所": "埼玉県春日部市南中曽根1074",
        "指定緊急避難場所との住所同一": "1",
        "その他市町村長が必要と認める事項": null,
        "受入対象者": null,
        "備考": ""
      }
    },
    {
      "type": "Feature",
      "geometry": {
        "type": "Point",
        "coordinates": [
          139.745948,
          35.990033
        ]
      },
      "properties": {
        "NO": 21050,
        "共通ID": "E1121400052111",
        "都道府県名及び市町村名": "埼玉県春日部市",
        "施設・場所名": "埼玉県立春日部工業高等学校",
        "住所": "埼玉県春日部市梅田本町1-1-1",
        "指定緊急避難場所との住所同一": "1",
        "その他市町村長が必要と認める事項": null,
        "受入対象者": null,
        "備考": ""
      }
    },
    {
      "type": "Feature",
      "geometry": {
        "type": "Point",
        "coordinates": [
          139.747241,
          35.984816
        ]
      },
      "properties": {
        "NO": 21051,
        "共通ID": "E1121400053111",
        "都道府県名及び市町村名": "埼玉県春日部市",
        "施設・場所名": "春日部市立春日部中学校",
        "住所": "埼玉県春日部市粕壁4-4-15",
        "指定緊急避難場所との住所同一": "1",
        "その他市町村長が必要と認める事項": null,
        "受入対象者": null,
        "備考": ""
      }
    },
    {
      "type": "Feature",
      "geometry": {
        "type": "Point",
        "coordinates": [
          139.741576,
          35.979232
        ]
      },
      "properties": {
        "NO": 21052,
        "共通ID": "E1121400054111",
        "都道府県名及び市町村名": "埼玉県春日部市",
        "施設・場所名": "埼玉県立春日部高等学校",
        "住所": "埼玉県春日部市粕壁5539",
        "指定緊急避難場所との住所同一": "1",
        "その他市町村長が必要と認める事項": null,
        "受入対象者": null,
        "備考": ""
      }
    },
    {
      "type": "Feature",
      "geometry": {
        "type": "Point",
        "coordinates": [
          139.742882,
          35.977217
        ]
      },
      "properties": {
        "NO": 21053,
        "共通ID": "E1121400056111",
        "都道府県名及び市町村名": "埼玉県春日部市",
        "施設・場所名": "粕壁市民センター",
        "住所": "埼玉県春日部市粕壁6918-1",
        "指定緊急避難場所との住所同一": "1",
        "その他市町村長が必要と認める事項": "",
        "受入対象者": "",
        "備考": ""
      }
    },
    {
      "type": "Feature",
      "geometry": {
        "type": "Point",
        "coordinates": [
          139.760212,
          35.981926
        ]
      },
      "properties": {
        "NO": 21054,
        "共通ID": "E1121400057111",
        "都道府県名及び市町村名": "埼玉県春日部市",
        "施設・場所名": "春日部市民文化会館",
        "住所": "埼玉県春日部市粕壁東2-8-61",
        "指定緊急避難場所との住所同一": "1",
        "その他市町村長が必要と認める事項": null,
        "受入対象者": null,
        "備考": ""
      }
    },
    {
      "type": "Feature",
      "geometry": {
        "type": "Point",
        "coordinates": [
          139.759212,
          35.97895
        ]
      },
      "properties": {
        "NO": 21055,
        "共通ID": "E1121400058111",
        "都道府県名及び市町村名": "埼玉県春日部市",
        "施設・場所名": "春日部市立粕壁小学校",
        "住所": "埼玉県春日部市粕壁東3-2-19",
        "指定緊急避難場所との住所同一": "1",
        "その他市町村長が必要と認める事項": null,
        "受入対象者": null,
        "備考": ""
      }
    },
    {
      "type": "Feature",
      "geometry": {
        "type": "Point",
        "coordinates": [
          139.766983,
          35.979574
        ]
      },
      "properties": {
        "NO": 21056,
        "共通ID": "E1121400059111",
        "都道府県名及び市町村名": "埼玉県春日部市",
        "施設・場所名": "埼玉県立春日部女子高等学校",
        "住所": "埼玉県春日部市粕壁東6-1-1",
        "指定緊急避難場所との住所同一": "1",
        "その他市町村長が必要と認める事項": null,
        "受入対象者": null,
        "備考": ""
      }
    },
    {
      "type": "Feature",
      "geometry": {
        "type": "Point",
        "coordinates": [
          139.758871,
          35.956237
        ]
      },
      "properties": {
        "NO": 21057,
        "共通ID": "E1121400060111",
        "都道府県名及び市町村名": "埼玉県春日部市",
        "施設・場所名": "春日部市立武里中学校",
        "住所": "埼玉県春日部市薄谷3",
        "指定緊急避難場所との住所同一": "1",
        "その他市町村長が必要と認める事項": null,
        "受入対象者": null,
        "備考": ""
      }
    },
    {
      "type": "Feature",
      "geometry": {
        "type": "Point",
        "coordinates": [
          139.761423,
          35.986231
        ]
      },
      "properties": {
        "NO": 21058,
        "共通ID": "E1121400079111",
        "都道府県名及び市町村名": "埼玉県春日部市",
        "施設・場所名": "春日部市立幸松小学校",
        "住所": "埼玉県春日部市八丁目353-1",
        "指定緊急避難場所との住所同一": "1",
        "その他市町村長が必要と認める事項": "",
        "受入対象者": "",
        "備考": ""
      }
    },
    {
      "type": "Feature",
      "geometry": {
        "type": "Point",
        "coordinates": [
          139.810146,
          35.968418
        ]
      },
      "properties": {
        "NO": 21059,
        "共通ID": "E1121400062111",
        "都道府県名及び市町村名": "埼玉県春日部市",
        "施設・場所名": "春日部市立飯沼中学校",
        "住所": "埼玉県春日部市飯沼180",
        "指定緊急避難場所との住所同一": "1",
        "その他市町村長が必要と認める事項": null,
        "受入対象者": null,
        "備考": ""
      }
    },
    {
      "type": "Feature",
      "geometry": {
        "type": "Point",
        "coordinates": [
          139.767098,
          35.984035
        ]
      },
      "properties": {
        "NO": 21060,
        "共通ID": "E1121400063111",
        "都道府県名及び市町村名": "埼玉県春日部市",
        "施設・場所名": "春日部市立東中学校",
        "住所": "埼玉県春日部市樋堀181-1",
        "指定緊急避難場所との住所同一": "1",
        "その他市町村長が必要と認める事項": null,
        "受入対象者": null,
        "備考": ""
      }
    },
    {
      "type": "Feature",
      "geometry": {
        "type": "Point",
        "coordinates": [
          139.768457,
          35.988686
        ]
      },
      "properties": {
        "NO": 21061,
        "共通ID": "E1121400065111",
        "都道府県名及び市町村名": "埼玉県春日部市",
        "施設・場所名": "埼玉県立春日部東高等学校",
        "住所": "埼玉県春日部市樋籠363",
        "指定緊急避難場所との住所同一": "1",
        "その他市町村長が必要と認める事項": null,
        "受入対象者": null,
        "備考": ""
      }
    },
    {
      "type": "Feature",
      "geometry": {
        "type": "Point",
        "coordinates": [
          139.766053,
          35.958839
        ]
      },
      "properties": {
        "NO": 21062,
        "共通ID": "E1121400066111",
        "都道府県名及び市町村名": "埼玉県春日部市",
        "施設・場所名": "春日部市武里市民センター",
        "住所": "埼玉県春日部市備後西1-13-2",
        "指定緊急避難場所との住所同一": "1",
        "その他市町村長が必要と認める事項": null,
        "受入対象者": null,
        "備考": ""
      }
    },
    {
      "type": "Feature",
      "geometry": {
        "type": "Point",
        "coordinates": [
          139.768193,
          35.954055
        ]
      },
      "properties": {
        "NO": 21063,
        "共通ID": "E1121400067111",
        "都道府県名及び市町村名": "埼玉県春日部市",
        "施設・場所名": "春日部市立備後小学校",
        "住所": "埼玉県春日部市備後西3-2-1",
        "指定緊急避難場所との住所同一": "1",
        "その他市町村長が必要と認める事項": null,
        "受入対象者": null,
        "備考": ""
      }
    },
    {
      "type": "Feature",
      "geometry": {
        "type": "Point",
        "coordinates": [
          139.762029,
          35.95523
        ]
      },
      "properties": {
        "NO": 21064,
        "共通ID": "E1121400068111",
        "都道府県名及び市町村名": "埼玉県春日部市",
        "施設・場所名": "春日部市立武里小学校",
        "住所": "埼玉県春日部市備後西5-5-2",
        "指定緊急避難場所との住所同一": "1",
        "その他市町村長が必要と認める事項": null,
        "受入対象者": null,
        "備考": ""
      }
    },
    {
      "type": "Feature",
      "geometry": {
        "type": "Point",
        "coordinates": [
          139.773123,
          35.95218
        ]
      },
      "properties": {
        "NO": 21065,
        "共通ID": "E1121400069111",
        "都道府県名及び市町村名": "埼玉県春日部市",
        "施設・場所名": "春日部市立正善小学校",
        "住所": "埼玉県春日部市備後東6-2-1",
        "指定緊急避難場所との住所同一": "1",
        "その他市町村長が必要と認める事項": null,
        "受入対象者": null,
        "備考": ""
      }
    },
    {
      "type": "Feature",
      "geometry": {
        "type": "Point",
        "coordinates": [
          139.772148,
          35.952947
        ]
      },
      "properties": {
        "NO": 21066,
        "共通ID": "E1121400070111",
        "都道府県名及び市町村名": "埼玉県春日部市",
        "施設・場所名": "春日部市武里東公民館",
        "住所": "埼玉県春日部市備後東7-38-16",
        "指定緊急避難場所との住所同一": "1",
        "その他市町村長が必要と認める事項": null,
        "受入対象者": null,
        "備考": ""
      }
    },
    {
      "type": "Feature",
      "geometry": {
        "type": "Point",
        "coordinates": [
          139.758198,
          35.95057
        ]
      },
      "properties": {
        "NO": 21067,
        "共通ID": "E1121400071111",
        "都道府県名及び市町村名": "埼玉県春日部市",
        "施設・場所名": "春日部市立春日部南中学校",
        "住所": "埼玉県春日部市武里中野746",
        "指定緊急避難場所との住所同一": "1",
        "その他市町村長が必要と認める事項": null,
        "受入対象者": null,
        "備考": ""
      }
    },
    {
      "type": "Feature",
      "geometry": {
        "type": "Point",
        "coordinates": [
          139.804623,
          35.973769
        ]
      },
      "properties": {
        "NO": 21068,
        "共通ID": "E1121400077111",
        "都道府県名及び市町村名": "埼玉県春日部市",
        "施設・場所名": "庄和南公民館",
        "住所": "埼玉県春日部市米崎357",
        "指定緊急避難場所との住所同一": "1",
        "その他市町村長が必要と認める事項": "",
        "受入対象者": "",
        "備考": ""
      }
    },
    {
      "type": "Feature",
      "geometry": {
        "type": "Point",
        "coordinates": [
          139.810979,
          35.973182
        ]
      },
      "properties": {
        "NO": 21069,
        "共通ID": "E1121400072111",
        "都道府県名及び市町村名": "埼玉県春日部市",
        "施設・場所名": "春日部市立川辺小学校",
        "住所": "埼玉県春日部市米島756",
        "指定緊急避難場所との住所同一": "1",
        "その他市町村長が必要と認める事項": null,
        "受入対象者": null,
        "備考": ""
      }
    },
    {
      "type": "Feature",
      "geometry": {
        "type": "Point",
        "coordinates": [
          139.736182,
          35.968763
        ]
      },
      "properties": {
        "NO": 21070,
        "共通ID": "E1121400073111",
        "都道府県名及び市町村名": "埼玉県春日部市",
        "施設・場所名": "春日部市豊春第二公民館",
        "住所": "埼玉県春日部市豊町5-14-1",
        "指定緊急避難場所との住所同一": "1",
        "その他市町村長が必要と認める事項": null,
        "受入対象者": null,
        "備考": ""
      }
    },
    {
      "type": "Feature",
      "geometry": {
        "type": "Point",
        "coordinates": [
          139.768677,
          35.974285
        ]
      },
      "properties": {
        "NO": 21071,
        "共通ID": "E1121400074111",
        "都道府県名及び市町村名": "埼玉県春日部市",
        "施設・場所名": "春日部市男女共同参画推進センター",
        "住所": "埼玉県春日部市緑町3-3-17",
        "指定緊急避難場所との住所同一": "1",
        "その他市町村長が必要と認める事項": null,
        "受入対象者": null,
        "備考": ""
      }
    },
    {
      "type": "Feature",
      "geometry": {
        "type": "Point",
        "coordinates": [
          139.772199,
          35.970479
        ]
      },
      "properties": {
        "NO": 21072,
        "共通ID": "E1121400075111",
        "都道府県名及び市町村名": "埼玉県春日部市",
        "施設・場所名": "春日部市立緑小学校",
        "住所": "埼玉県春日部市緑町5-4-1",
        "指定緊急避難場所との住所同一": "1",
        "その他市町村長が必要と認める事項": null,
        "受入対象者": null,
        "備考": ""
      }
    },
    {
      "type": "Feature",
      "geometry": {
        "type": "Point",
        "coordinates": [
          139.771646,
          35.966566
        ]
      },
      "properties": {
        "NO": 21073,
        "共通ID": "E1121400076111",
        "都道府県名及び市町村名": "埼玉県春日部市",
        "施設・場所名": "春日部市立緑中学校",
        "住所": "埼玉県春日部市緑町5-9-38",
        "指定緊急避難場所との住所同一": "1",
        "その他市町村長が必要と認める事項": null,
        "受入対象者": null,
        "備考": ""
      }
    }
  ]
}