{
  "type": "FeatureCollection",
  "name": "112348",
  "features": [
    {
      "type": "Feature",
      "geometry": {
        "type": "Point",
        "coordinates": [
          139.845728,
          35.800517
        ]
      },
      "properties": {
        "NO": 21865,
        "共通ID": "E1123400001111",
        "都道府県名及び市町村名": "埼玉県八潮市",
        "施設・場所名": "潮止中学校",
        "住所": "埼玉県八潮市大字古新田530",
        "指定緊急避難場所との住所同一": "1",
        "その他市町村長が必要と認める事項": "",
        "受入対象者": "",
        "備考": ""
      }
    },
    {
      "type": "Feature",
      "geometry": {
        "type": "Point",
        "coordinates": [
          139.854565,
          35.798089
        ]
      },
      "properties": {
        "NO": 21866,
        "共通ID": "E1123400004111",
        "都道府県名及び市町村名": "埼玉県八潮市",
        "施設・場所名": "中川小学校",
        "住所": "埼玉県八潮市大字大瀬1516",
        "指定緊急避難場所との住所同一": "1",
        "その他市町村長が必要と認める事項": "",
        "受入対象者": "",
        "備考": ""
      }
    },
    {
      "type": "Feature",
      "geometry": {
        "type": "Point",
        "coordinates": [
          139.838012,
          35.835949
        ]
      },
      "properties": {
        "NO": 21867,
        "共通ID": "E1123400007111",
        "都道府県名及び市町村名": "埼玉県八潮市",
        "施設・場所名": "八條小学校",
        "住所": "埼玉県八潮市大字鶴ケ曽根1",
        "指定緊急避難場所との住所同一": "1",
        "その他市町村長が必要と認める事項": "",
        "受入対象者": "",
        "備考": ""
      }
    },
    {
      "type": "Feature",
      "geometry": {
        "type": "Point",
        "coordinates": [
          139.836583,
          35.829995
        ]
      },
      "properties": {
        "NO": 21868,
        "共通ID": "E1123400009121",
        "都道府県名及び市町村名": "埼玉県八潮市",
        "施設・場所名": "特別養護老人ホーム杜の家やしお",
        "住所": "埼玉県八潮市大字鶴ケ曽根567-1",
        "指定緊急避難場所との住所同一": "",
        "その他市町村長が必要と認める事項": "",
        "受入対象者": "・視覚障害者 ・聴覚・平衡機能障害、音声・言語・そしゃく機能障害者 ・肢体不自由者 ・内部障害者 ・知的障害者 ・精神障害者（発達障害、高次脳機能障害を含む） ・難病患者",
        "備考": ""
      }
    },
    {
      "type": "Feature",
      "geometry": {
        "type": "Point",
        "coordinates": [
          139.834604,
          35.830601
        ]
      },
      "properties": {
        "NO": 21869,
        "共通ID": "E1123400010111",
        "都道府県名及び市町村名": "埼玉県八潮市",
        "施設・場所名": "八潮高校",
        "住所": "埼玉県八潮市大字鶴ケ曽根650",
        "指定緊急避難場所との住所同一": "1",
        "その他市町村長が必要と認める事項": "",
        "受入対象者": "",
        "備考": ""
      }
    },
    {
      "type": "Feature",
      "geometry": {
        "type": "Point",
        "coordinates": [
          139.820914,
          35.826432
        ]
      },
      "properties": {
        "NO": 21870,
        "共通ID": "E1123400011111",
        "都道府県名及び市町村名": "埼玉県八潮市",
        "施設・場所名": "資料館",
        "住所": "埼玉県八潮市大字南後谷763-50",
        "指定緊急避難場所との住所同一": "",
        "その他市町村長が必要と認める事項": "",
        "受入対象者": "",
        "備考": ""
      }
    },
    {
      "type": "Feature",
      "geometry": {
        "type": "Point",
        "coordinates": [
          139.860554,
          35.81165
        ]
      },
      "properties": {
        "NO": 21871,
        "共通ID": "E1123400012121",
        "都道府県名及び市町村名": "埼玉県八潮市",
        "施設・場所名": "八潮市高齢者福祉施設やしお苑",
        "住所": "埼玉県八潮市大字南川崎210-1",
        "指定緊急避難場所との住所同一": "",
        "その他市町村長が必要と認める事項": "",
        "受入対象者": "・視覚障害者 ・聴覚・平衡機能障害、音声・言語・そしゃく機能障害者 ・肢体不自由者 ・内部障害者 ・知的障害者 ・精神障害者（発達障害、高次脳機能障害を含む） ・難病患者",
        "備考": ""
      }
    },
    {
      "type": "Feature",
      "geometry": {
        "type": "Point",
        "coordinates": [
          139.858234,
          35.814402
        ]
      },
      "properties": {
        "NO": 21872,
        "共通ID": "E1123400013111",
        "都道府県名及び市町村名": "埼玉県八潮市",
        "施設・場所名": "八潮南高校",
        "住所": "埼玉県八潮市大字南川崎519-1",
        "指定緊急避難場所との住所同一": "1",
        "その他市町村長が必要と認める事項": "",
        "受入対象者": "",
        "備考": ""
      }
    },
    {
      "type": "Feature",
      "geometry": {
        "type": "Point",
        "coordinates": [
          139.852516,
          35.814801
        ]
      },
      "properties": {
        "NO": 21873,
        "共通ID": "E1123400014111",
        "都道府県名及び市町村名": "埼玉県八潮市",
        "施設・場所名": "潮止小学校",
        "住所": "埼玉県八潮市大字南川崎822",
        "指定緊急避難場所との住所同一": "1",
        "その他市町村長が必要と認める事項": "",
        "受入対象者": "",
        "備考": ""
      }
    },
    {
      "type": "Feature",
      "geometry": {
        "type": "Point",
        "coordinates": [
          139.83311,
          35.851209
        ]
      },
      "properties": {
        "NO": 21874,
        "共通ID": "E1123400016111",
        "都道府県名及び市町村名": "埼玉県八潮市",
        "施設・場所名": "八條北小学校",
        "住所": "埼玉県八潮市大字八條1150",
        "指定緊急避難場所との住所同一": "1",
        "その他市町村長が必要と認める事項": "",
        "受入対象者": "",
        "備考": ""
      }
    },
    {
      "type": "Feature",
      "geometry": {
        "type": "Point",
        "coordinates": [
          139.834752,
          35.837228
        ]
      },
      "properties": {
        "NO": 21875,
        "共通ID": "E1123400018111",
        "都道府県名及び市町村名": "埼玉県八潮市",
        "施設・場所名": "八條公民館",
        "住所": "埼玉県八潮市大字八條2753-46",
        "指定緊急避難場所との住所同一": "",
        "その他市町村長が必要と認める事項": "",
        "受入対象者": "",
        "備考": ""
      }
    },
    {
      "type": "Feature",
      "geometry": {
        "type": "Point",
        "coordinates": [
          139.831827,
          35.854349
        ]
      },
      "properties": {
        "NO": 21876,
        "共通ID": "E1123400019111",
        "都道府県名及び市町村名": "埼玉県八潮市",
        "施設・場所名": "八條中学校",
        "住所": "埼玉県八潮市大字八條555",
        "指定緊急避難場所との住所同一": "1",
        "その他市町村長が必要と認める事項": "",
        "受入対象者": "",
        "備考": ""
      }
    },
    {
      "type": "Feature",
      "geometry": {
        "type": "Point",
        "coordinates": [
          139.832947,
          35.856329
        ]
      },
      "properties": {
        "NO": 21877,
        "共通ID": "E1123400020111",
        "都道府県名及び市町村名": "埼玉県八潮市",
        "施設・場所名": "コミュニティセンター",
        "住所": "埼玉県八潮市大字八條665",
        "指定緊急避難場所との住所同一": "",
        "その他市町村長が必要と認める事項": "",
        "受入対象者": "",
        "備考": ""
      }
    },
    {
      "type": "Feature",
      "geometry": {
        "type": "Point",
        "coordinates": [
          139.846519,
          35.811974
        ]
      },
      "properties": {
        "NO": 21878,
        "共通ID": "E1123400022111",
        "都道府県名及び市町村名": "埼玉県八潮市",
        "施設・場所名": "老人福祉センター寿楽荘",
        "住所": "埼玉県八潮市大字木曽根322",
        "指定緊急避難場所との住所同一": "",
        "その他市町村長が必要と認める事項": "",
        "受入対象者": "",
        "備考": ""
      }
    },
    {
      "type": "Feature",
      "geometry": {
        "type": "Point",
        "coordinates": [
          139.822179,
          35.822799
        ]
      },
      "properties": {
        "NO": 21879,
        "共通ID": "E1123400023111",
        "都道府県名及び市町村名": "埼玉県八潮市",
        "施設・場所名": "柳之宮小学校",
        "住所": "埼玉県八潮市大字柳之宮140",
        "指定緊急避難場所との住所同一": "1",
        "その他市町村長が必要と認める事項": "",
        "受入対象者": "",
        "備考": ""
      }
    },
    {
      "type": "Feature",
      "geometry": {
        "type": "Point",
        "coordinates": [
          139.835267,
          35.803999
        ]
      },
      "properties": {
        "NO": 21880,
        "共通ID": "E1123400024111",
        "都道府県名及び市町村名": "埼玉県八潮市",
        "施設・場所名": "大曽根小学校",
        "住所": "埼玉県八潮市大字垳527",
        "指定緊急避難場所との住所同一": "1",
        "その他市町村長が必要と認める事項": "",
        "受入対象者": "",
        "備考": ""
      }
    },
    {
      "type": "Feature",
      "geometry": {
        "type": "Point",
        "coordinates": [
          139.849477,
          35.809335
        ]
      },
      "properties": {
        "NO": 21881,
        "共通ID": "E1123400025111",
        "都道府県名及び市町村名": "埼玉県八潮市",
        "施設・場所名": "大瀬小学校",
        "住所": "埼玉県八潮市大瀬3-9-1",
        "指定緊急避難場所との住所同一": "1",
        "その他市町村長が必要と認める事項": "",
        "受入対象者": "",
        "備考": ""
      }
    },
    {
      "type": "Feature",
      "geometry": {
        "type": "Point",
        "coordinates": [
          139.837299,
          35.822811
        ]
      },
      "properties": {
        "NO": 21882,
        "共通ID": "E1123400027111",
        "都道府県名及び市町村名": "埼玉県八潮市",
        "施設・場所名": "八潮中学校",
        "住所": "埼玉県八潮市中央1-1-2",
        "指定緊急避難場所との住所同一": "1",
        "その他市町村長が必要と認める事項": "",
        "受入対象者": "",
        "備考": ""
      }
    },
    {
      "type": "Feature",
      "geometry": {
        "type": "Point",
        "coordinates": [
          139.830173,
          35.817928
        ]
      },
      "properties": {
        "NO": 21883,
        "共通ID": "E1123400029111",
        "都道府県名及び市町村名": "埼玉県八潮市",
        "施設・場所名": "八幡公民館",
        "住所": "埼玉県八潮市中央3-32-11",
        "指定緊急避難場所との住所同一": "",
        "その他市町村長が必要と認める事項": "",
        "受入対象者": "",
        "備考": ""
      }
    },
    {
      "type": "Feature",
      "geometry": {
        "type": "Point",
        "coordinates": [
          139.828154,
          35.818128
        ]
      },
      "properties": {
        "NO": 21884,
        "共通ID": "E1123400030111",
        "都道府県名及び市町村名": "埼玉県八潮市",
        "施設・場所名": "八幡小学校",
        "住所": "埼玉県八潮市中央4-21-16",
        "指定緊急避難場所との住所同一": "1",
        "その他市町村長が必要と認める事項": "",
        "受入対象者": "",
        "備考": ""
      }
    },
    {
      "type": "Feature",
      "geometry": {
        "type": "Point",
        "coordinates": [
          139.837728,
          35.809433
        ]
      },
      "properties": {
        "NO": 21885,
        "共通ID": "E1123400032111",
        "都道府県名及び市町村名": "埼玉県八潮市",
        "施設・場所名": "大原中学校",
        "住所": "埼玉県八潮市八潮5-9-1",
        "指定緊急避難場所との住所同一": "1",
        "その他市町村長が必要と認める事項": "",
        "受入対象者": "",
        "備考": ""
      }
    },
    {
      "type": "Feature",
      "geometry": {
        "type": "Point",
        "coordinates": [
          139.831097,
          35.814115
        ]
      },
      "properties": {
        "NO": 21886,
        "共通ID": "E1123400033111",
        "都道府県名及び市町村名": "埼玉県八潮市",
        "施設・場所名": "大原小学校",
        "住所": "埼玉県八潮市八潮7-42-1",
        "指定緊急避難場所との住所同一": "1",
        "その他市町村長が必要と認める事項": "",
        "受入対象者": "",
        "備考": ""
      }
    },
    {
      "type": "Feature",
      "geometry": {
        "type": "Point",
        "coordinates": [
          139.828992,
          35.827636
        ]
      },
      "properties": {
        "NO": 21887,
        "共通ID": "E1123400034111",
        "都道府県名及び市町村名": "埼玉県八潮市",
        "施設・場所名": "松之木小学校",
        "住所": "埼玉県八潮市緑町3-9-1",
        "指定緊急避難場所との住所同一": "1",
        "その他市町村長が必要と認める事項": "",
        "受入対象者": "",
        "備考": ""
      }
    },
    {
      "type": "Feature",
      "geometry": {
        "type": "Point",
        "coordinates": [
          139.828699,
          35.822537
        ]
      },
      "properties": {
        "NO": 21888,
        "共通ID": "E1123400035111",
        "都道府県名及び市町村名": "埼玉県八潮市",
        "施設・場所名": "八幡中学校",
        "住所": "埼玉県八潮市緑町4-19-1",
        "指定緊急避難場所との住所同一": "1",
        "その他市町村長が必要と認める事項": "",
        "受入対象者": "",
        "備考": ""
      }
    }
  ]
}