{
  "type": "FeatureCollection",
  "name": "112437",
  "features": [
    {
      "type": "Feature",
      "geometry": {
        "type": "Point",
        "coordinates": [
          139.854549,
          35.89564
        ]
      },
      "properties": {
        "NO": 22090,
        "共通ID": "E1124300001111",
        "都道府県名及び市町村名": "埼玉県吉川市",
        "施設・場所名": "吉川市民交流センターおあしす",
        "住所": "埼玉県吉川市きよみ野1-1",
        "指定緊急避難場所との住所同一": "1",
        "その他市町村長が必要と認める事項": null,
        "受入対象者": null,
        "備考": ""
      }
    },
    {
      "type": "Feature",
      "geometry": {
        "type": "Point",
        "coordinates": [
          139.841575,
          35.93112
        ]
      },
      "properties": {
        "NO": 22091,
        "共通ID": "E1124300002111",
        "都道府県名及び市町村名": "埼玉県吉川市",
        "施設・場所名": "吉川市旭地区センター",
        "住所": "埼玉県吉川市旭6-4",
        "指定緊急避難場所との住所同一": "1",
        "その他市町村長が必要と認める事項": null,
        "受入対象者": null,
        "備考": ""
      }
    },
    {
      "type": "Feature",
      "geometry": {
        "type": "Point",
        "coordinates": [
          139.882956,
          35.885934
        ]
      },
      "properties": {
        "NO": 22092,
        "共通ID": "E1124300003111",
        "都道府県名及び市町村名": "埼玉県吉川市",
        "施設・場所名": "吉川市立三輪野江小学校",
        "住所": "埼玉県吉川市加藤641",
        "指定緊急避難場所との住所同一": "1",
        "その他市町村長が必要と認める事項": null,
        "受入対象者": null,
        "備考": ""
      }
    },
    {
      "type": "Feature",
      "geometry": {
        "type": "Point",
        "coordinates": [
          139.858907,
          35.892147
        ]
      },
      "properties": {
        "NO": 22093,
        "共通ID": "E1124300023111",
        "都道府県名及び市町村名": "埼玉県吉川市",
        "施設・場所名": "吉川市老人福祉センター",
        "住所": "埼玉県吉川市吉川964",
        "指定緊急避難場所との住所同一": "",
        "その他市町村長が必要と認める事項": null,
        "受入対象者": null,
        "備考": ""
      }
    },
    {
      "type": "Feature",
      "geometry": {
        "type": "Point",
        "coordinates": [
          139.845453,
          35.893155
        ]
      },
      "properties": {
        "NO": 22094,
        "共通ID": "E1124300004111",
        "都道府県名及び市町村名": "埼玉県吉川市",
        "施設・場所名": "吉川市立関小学校",
        "住所": "埼玉県吉川市吉川団地1-10",
        "指定緊急避難場所との住所同一": "1",
        "その他市町村長が必要と認める事項": null,
        "受入対象者": null,
        "備考": ""
      }
    },
    {
      "type": "Feature",
      "geometry": {
        "type": "Point",
        "coordinates": [
          139.86514,
          35.874021
        ]
      },
      "properties": {
        "NO": 22095,
        "共通ID": "E1124300005111",
        "都道府県名及び市町村名": "埼玉県吉川市",
        "施設・場所名": "埼玉県立吉川美南高等学校",
        "住所": "埼玉県吉川市高久600",
        "指定緊急避難場所との住所同一": "1",
        "その他市町村長が必要と認める事項": null,
        "受入対象者": null,
        "備考": ""
      }
    },
    {
      "type": "Feature",
      "geometry": {
        "type": "Point",
        "coordinates": [
          139.858057,
          35.876048
        ]
      },
      "properties": {
        "NO": 22096,
        "共通ID": "E1124300006111",
        "都道府県名及び市町村名": "埼玉県吉川市",
        "施設・場所名": "吉川市立北谷小学校",
        "住所": "埼玉県吉川市高富857",
        "指定緊急避難場所との住所同一": "1",
        "その他市町村長が必要と認める事項": null,
        "受入対象者": null,
        "備考": ""
      }
    },
    {
      "type": "Feature",
      "geometry": {
        "type": "Point",
        "coordinates": [
          139.858292,
          35.903606
        ]
      },
      "properties": {
        "NO": 22097,
        "共通ID": "E1124300007111",
        "都道府県名及び市町村名": "埼玉県吉川市",
        "施設・場所名": "吉川市総合体育館",
        "住所": "埼玉県吉川市上笹塚1-58-1",
        "指定緊急避難場所との住所同一": "1",
        "その他市町村長が必要と認める事項": null,
        "受入対象者": null,
        "備考": ""
      }
    },
    {
      "type": "Feature",
      "geometry": {
        "type": "Point",
        "coordinates": [
          139.864861,
          35.904183
        ]
      },
      "properties": {
        "NO": 22098,
        "共通ID": "E1124300008111",
        "都道府県名及び市町村名": "埼玉県吉川市",
        "施設・場所名": "吉川市立東中学校",
        "住所": "埼玉県吉川市上笹塚3-104-1",
        "指定緊急避難場所との住所同一": "1",
        "その他市町村長が必要と認める事項": null,
        "受入対象者": null,
        "備考": ""
      }
    },
    {
      "type": "Feature",
      "geometry": {
        "type": "Point",
        "coordinates": [
          139.835744,
          35.898453
        ]
      },
      "properties": {
        "NO": 22099,
        "共通ID": "E1124300024121",
        "都道府県名及び市町村名": "埼玉県吉川市",
        "施設・場所名": "複合型施設　吉川いろ彩",
        "住所": "埼玉県吉川市大字須賀246",
        "指定緊急避難場所との住所同一": "",
        "その他市町村長が必要と認める事項": "",
        "受入対象者": "利用者及びその家族等",
        "備考": ""
      }
    },
    {
      "type": "Feature",
      "geometry": {
        "type": "Point",
        "coordinates": [
          139.851918,
          35.890269
        ]
      },
      "properties": {
        "NO": 22100,
        "共通ID": "E1124300009111",
        "都道府県名及び市町村名": "埼玉県吉川市",
        "施設・場所名": "吉川市立中央中学校",
        "住所": "埼玉県吉川市中央2-21-1",
        "指定緊急避難場所との住所同一": "1",
        "その他市町村長が必要と認める事項": null,
        "受入対象者": null,
        "備考": ""
      }
    },
    {
      "type": "Feature",
      "geometry": {
        "type": "Point",
        "coordinates": [
          139.856612,
          35.891546
        ]
      },
      "properties": {
        "NO": 22101,
        "共通ID": "E1124300010111",
        "都道府県名及び市町村名": "埼玉県吉川市",
        "施設・場所名": "吉川市立栄小学校",
        "住所": "埼玉県吉川市中央3-26-1",
        "指定緊急避難場所との住所同一": "1",
        "その他市町村長が必要と認める事項": null,
        "受入対象者": null,
        "備考": ""
      }
    },
    {
      "type": "Feature",
      "geometry": {
        "type": "Point",
        "coordinates": [
          139.846797,
          35.866877
        ]
      },
      "properties": {
        "NO": 22102,
        "共通ID": "E1124300012111",
        "都道府県名及び市町村名": "埼玉県吉川市",
        "施設・場所名": "吉川市立中曽根小学校",
        "住所": "埼玉県吉川市中曽根2-4",
        "指定緊急避難場所との住所同一": "1",
        "その他市町村長が必要と認める事項": null,
        "受入対象者": null,
        "備考": ""
      }
    },
    {
      "type": "Feature",
      "geometry": {
        "type": "Point",
        "coordinates": [
          139.851547,
          35.918097
        ]
      },
      "properties": {
        "NO": 22103,
        "共通ID": "E1124300013111",
        "都道府県名及び市町村名": "埼玉県吉川市",
        "施設・場所名": "吉川市立旭小学校",
        "住所": "埼玉県吉川市南広島1940",
        "指定緊急避難場所との住所同一": "1",
        "その他市町村長が必要と認める事項": null,
        "受入対象者": null,
        "備考": ""
      }
    },
    {
      "type": "Feature",
      "geometry": {
        "type": "Point",
        "coordinates": [
          139.85155,
          35.863714
        ]
      },
      "properties": {
        "NO": 22104,
        "共通ID": "E1124300014111",
        "都道府県名及び市町村名": "埼玉県吉川市",
        "施設・場所名": "吉川市立美南小学校　（吉川市美南地区公民館含む）",
        "住所": "埼玉県吉川市美南4-17-3",
        "指定緊急避難場所との住所同一": "1",
        "その他市町村長が必要と認める事項": null,
        "受入対象者": null,
        "備考": ""
      }
    },
    {
      "type": "Feature",
      "geometry": {
        "type": "Point",
        "coordinates": [
          139.849056,
          35.868929
        ]
      },
      "properties": {
        "NO": 22105,
        "共通ID": "E1124300015111",
        "都道府県名及び市町村名": "埼玉県吉川市",
        "施設・場所名": "吉川中学校",
        "住所": "埼玉県吉川市美南5-17-1",
        "指定緊急避難場所との住所同一": "1",
        "その他市町村長が必要と認める事項": null,
        "受入対象者": null,
        "備考": ""
      }
    },
    {
      "type": "Feature",
      "geometry": {
        "type": "Point",
        "coordinates": [
          139.847468,
          35.868648
        ]
      },
      "properties": {
        "NO": 22106,
        "共通ID": "E1124300016111",
        "都道府県名及び市町村名": "埼玉県吉川市",
        "施設・場所名": "吉川市児童館ワンダーランド",
        "住所": "埼玉県吉川市美南5-3-1",
        "指定緊急避難場所との住所同一": "1",
        "その他市町村長が必要と認める事項": null,
        "受入対象者": null,
        "備考": ""
      }
    },
    {
      "type": "Feature",
      "geometry": {
        "type": "Point",
        "coordinates": [
          139.839109,
          35.884242
        ]
      },
      "properties": {
        "NO": 22107,
        "共通ID": "E1124300017111",
        "都道府県名及び市町村名": "埼玉県吉川市",
        "施設・場所名": "吉川市立吉川小学校　（吉川市平沼地区公民館含む）",
        "住所": "埼玉県吉川市平沼73",
        "指定緊急避難場所との住所同一": "1",
        "その他市町村長が必要と認める事項": null,
        "受入対象者": null,
        "備考": ""
      }
    },
    {
      "type": "Feature",
      "geometry": {
        "type": "Point",
        "coordinates": [
          139.851414,
          35.879454
        ]
      },
      "properties": {
        "NO": 22108,
        "共通ID": "E1124300018111",
        "都道府県名及び市町村名": "埼玉県吉川市",
        "施設・場所名": "吉川市中央公民館",
        "住所": "埼玉県吉川市保577",
        "指定緊急避難場所との住所同一": "1",
        "その他市町村長が必要と認める事項": null,
        "受入対象者": null,
        "備考": ""
      }
    },
    {
      "type": "Feature",
      "geometry": {
        "type": "Point",
        "coordinates": [
          139.852002,
          35.882631
        ]
      },
      "properties": {
        "NO": 22109,
        "共通ID": "E1124300019111",
        "都道府県名及び市町村名": "埼玉県吉川市",
        "施設・場所名": "吉川市立南中学校",
        "住所": "埼玉県吉川市保672",
        "指定緊急避難場所との住所同一": "1",
        "その他市町村長が必要と認める事項": null,
        "受入対象者": null,
        "備考": ""
      }
    },
    {
      "type": "Feature",
      "geometry": {
        "type": "Point",
        "coordinates": [
          139.841806,
          35.875099
        ]
      },
      "properties": {
        "NO": 22110,
        "共通ID": "E1124300025121",
        "都道府県名及び市町村名": "埼玉県吉川市",
        "施設・場所名": "愛・グループホーム木売／愛・小規模多機能木売",
        "住所": "埼玉県吉川市木売2-10-1",
        "指定緊急避難場所との住所同一": "",
        "その他市町村長が必要と認める事項": "",
        "受入対象者": "利用者及びその家族等",
        "備考": ""
      }
    }
  ]
}