{
  "type": "FeatureCollection",
  "name": "113263",
  "features": [
    {
      "type": "Feature",
      "geometry": {
        "type": "Point",
        "coordinates": [
          139.300528,
          35.935397
        ]
      },
      "properties": {
        "NO": 22171,
        "共通ID": "E1132600001121",
        "都道府県名及び市町村名": "埼玉県毛呂山町",
        "施設・場所名": "光の家療育センター　第２光の家",
        "住所": "埼玉県毛呂山町阿諏訪100-1",
        "指定緊急避難場所との住所同一": "1",
        "その他市町村長が必要と認める事項": null,
        "受入対象者": "要配慮者",
        "備考": ""
      }
    },
    {
      "type": "Feature",
      "geometry": {
        "type": "Point",
        "coordinates": [
          139.342499,
          35.937717
        ]
      },
      "properties": {
        "NO": 22172,
        "共通ID": "E1132600002111",
        "都道府県名及び市町村名": "埼玉県毛呂山町",
        "施設・場所名": "（学）山口学院埼玉平成中学校",
        "住所": "埼玉県毛呂山町下川原375",
        "指定緊急避難場所との住所同一": "1",
        "その他市町村長が必要と認める事項": null,
        "受入対象者": null,
        "備考": ""
      }
    },
    {
      "type": "Feature",
      "geometry": {
        "type": "Point",
        "coordinates": [
          139.315556,
          35.952234
        ]
      },
      "properties": {
        "NO": 22173,
        "共通ID": "E1132600003111",
        "都道府県名及び市町村名": "埼玉県毛呂山町",
        "施設・場所名": "泉野小学校",
        "住所": "埼玉県毛呂山町岩井353",
        "指定緊急避難場所との住所同一": "1",
        "その他市町村長が必要と認める事項": null,
        "受入対象者": null,
        "備考": ""
      }
    },
    {
      "type": "Feature",
      "geometry": {
        "type": "Point",
        "coordinates": [
          139.312608,
          35.945899
        ]
      },
      "properties": {
        "NO": 22174,
        "共通ID": "E1132600004111",
        "都道府県名及び市町村名": "埼玉県毛呂山町",
        "施設・場所名": "中央公民館",
        "住所": "埼玉県毛呂山町岩井西1-15-1",
        "指定緊急避難場所との住所同一": "1",
        "その他市町村長が必要と認める事項": null,
        "受入対象者": null,
        "備考": ""
      }
    },
    {
      "type": "Feature",
      "geometry": {
        "type": "Point",
        "coordinates": [
          139.312361,
          35.940301
        ]
      },
      "properties": {
        "NO": 22175,
        "共通ID": "E1132600006111",
        "都道府県名及び市町村名": "埼玉県毛呂山町",
        "施設・場所名": "毛呂山中学校",
        "住所": "埼玉県毛呂山町岩井西4-12-1",
        "指定緊急避難場所との住所同一": "1",
        "その他市町村長が必要と認める事項": null,
        "受入対象者": null,
        "備考": ""
      }
    },
    {
      "type": "Feature",
      "geometry": {
        "type": "Point",
        "coordinates": [
          139.311036,
          35.941035
        ]
      },
      "properties": {
        "NO": 22176,
        "共通ID": "E1132600007111",
        "都道府県名及び市町村名": "埼玉県毛呂山町",
        "施設・場所名": "毛呂山小学校",
        "住所": "埼玉県毛呂山町岩井西4-2-1",
        "指定緊急避難場所との住所同一": "1",
        "その他市町村長が必要と認める事項": null,
        "受入対象者": null,
        "備考": ""
      }
    },
    {
      "type": "Feature",
      "geometry": {
        "type": "Point",
        "coordinates": [
          139.310251,
          35.942199
        ]
      },
      "properties": {
        "NO": 22177,
        "共通ID": "E1132600008111",
        "都道府県名及び市町村名": "埼玉県毛呂山町",
        "施設・場所名": "ウィズもろやま（福祉会館）",
        "住所": "埼玉県毛呂山町岩井西5-16-1",
        "指定緊急避難場所との住所同一": "1",
        "その他市町村長が必要と認める事項": null,
        "受入対象者": null,
        "備考": ""
      }
    },
    {
      "type": "Feature",
      "geometry": {
        "type": "Point",
        "coordinates": [
          139.342643,
          35.939011
        ]
      },
      "properties": {
        "NO": 22178,
        "共通ID": "E1132600009111",
        "都道府県名及び市町村名": "埼玉県毛呂山町",
        "施設・場所名": "（学）山口学院埼玉平成高等学校",
        "住所": "埼玉県毛呂山町市場333-1",
        "指定緊急避難場所との住所同一": "1",
        "その他市町村長が必要と認める事項": null,
        "受入対象者": null,
        "備考": ""
      }
    },
    {
      "type": "Feature",
      "geometry": {
        "type": "Point",
        "coordinates": [
          139.336324,
          35.94045
        ]
      },
      "properties": {
        "NO": 22179,
        "共通ID": "E1132600010111",
        "都道府県名及び市町村名": "埼玉県毛呂山町",
        "施設・場所名": "光山小学校",
        "住所": "埼玉県毛呂山町市場475",
        "指定緊急避難場所との住所同一": "1",
        "その他市町村長が必要と認める事項": null,
        "受入対象者": null,
        "備考": ""
      }
    },
    {
      "type": "Feature",
      "geometry": {
        "type": "Point",
        "coordinates": [
          139.343258,
          35.957294
        ]
      },
      "properties": {
        "NO": 22180,
        "共通ID": "E1132600012121",
        "都道府県名及び市町村名": "埼玉県毛呂山町",
        "施設・場所名": "埼玉県立毛呂山特別支援学校",
        "住所": "埼玉県毛呂山町川角1024-1",
        "指定緊急避難場所との住所同一": "1",
        "その他市町村長が必要と認める事項": null,
        "受入対象者": "要配慮者",
        "備考": ""
      }
    },
    {
      "type": "Feature",
      "geometry": {
        "type": "Point",
        "coordinates": [
          139.335717,
          35.949485
        ]
      },
      "properties": {
        "NO": 22181,
        "共通ID": "E1132600013111",
        "都道府県名及び市町村名": "埼玉県毛呂山町",
        "施設・場所名": "川角小学校",
        "住所": "埼玉県毛呂山町川角1271",
        "指定緊急避難場所との住所同一": "1",
        "その他市町村長が必要と認める事項": null,
        "受入対象者": null,
        "備考": ""
      }
    },
    {
      "type": "Feature",
      "geometry": {
        "type": "Point",
        "coordinates": [
          139.337597,
          35.943821
        ]
      },
      "properties": {
        "NO": 22182,
        "共通ID": "E1132600014111",
        "都道府県名及び市町村名": "埼玉県毛呂山町",
        "施設・場所名": "川角中学校",
        "住所": "埼玉県毛呂山町川角264",
        "指定緊急避難場所との住所同一": "1",
        "その他市町村長が必要と認める事項": null,
        "受入対象者": null,
        "備考": ""
      }
    },
    {
      "type": "Feature",
      "geometry": {
        "type": "Point",
        "coordinates": [
          139.309081,
          35.922158
        ]
      },
      "properties": {
        "NO": 22183,
        "共通ID": "E1132600016111",
        "都道府県名及び市町村名": "埼玉県毛呂山町",
        "施設・場所名": "総合公園",
        "住所": "埼玉県毛呂山町大谷木443",
        "指定緊急避難場所との住所同一": "1",
        "その他市町村長が必要と認める事項": null,
        "受入対象者": null,
        "備考": ""
      }
    },
    {
      "type": "Feature",
      "geometry": {
        "type": "Point",
        "coordinates": [
          139.346377,
          35.955669
        ]
      },
      "properties": {
        "NO": 22184,
        "共通ID": "E1132600017111",
        "都道府県名及び市町村名": "埼玉県毛呂山町",
        "施設・場所名": "歴史民俗資料館",
        "住所": "埼玉県毛呂山町大類535",
        "指定緊急避難場所との住所同一": "1",
        "その他市町村長が必要と認める事項": null,
        "受入対象者": null,
        "備考": ""
      }
    }
  ]
}