{
  "type": "FeatureCollection",
  "name": "114642",
  "features": [
    {
      "type": "Feature",
      "geometry": {
        "type": "Point",
        "coordinates": [
          139.706202,
          36.054049
        ]
      },
      "properties": {
        "NO": 22450,
        "共通ID": "E1146400002111",
        "都道府県名及び市町村名": "埼玉県杉戸町",
        "施設・場所名": "高野台小学校",
        "住所": "埼玉県杉戸町高野台西5-16",
        "指定緊急避難場所との住所同一": "1",
        "その他市町村長が必要と認める事項": null,
        "受入対象者": null,
        "備考": ""
      }
    },
    {
      "type": "Feature",
      "geometry": {
        "type": "Point",
        "coordinates": [
          139.709339,
          36.048657
        ]
      },
      "properties": {
        "NO": 22451,
        "共通ID": "E1146400004111",
        "都道府県名及び市町村名": "埼玉県杉戸町",
        "施設・場所名": "西小学校",
        "住所": "埼玉県杉戸町高野台南5-1-1",
        "指定緊急避難場所との住所同一": "1",
        "その他市町村長が必要と認める事項": null,
        "受入対象者": null,
        "備考": ""
      }
    },
    {
      "type": "Feature",
      "geometry": {
        "type": "Point",
        "coordinates": [
          139.791669,
          36.042149
        ]
      },
      "properties": {
        "NO": 22452,
        "共通ID": "E1146400009111",
        "都道府県名及び市町村名": "埼玉県杉戸町",
        "施設・場所名": "泉小学校",
        "住所": "埼玉県杉戸町大字宮前1",
        "指定緊急避難場所との住所同一": "1",
        "その他市町村長が必要と認める事項": null,
        "受入対象者": null,
        "備考": ""
      }
    },
    {
      "type": "Feature",
      "geometry": {
        "type": "Point",
        "coordinates": [
          139.746495,
          36.034729
        ]
      },
      "properties": {
        "NO": 22453,
        "共通ID": "E1146400011111",
        "都道府県名及び市町村名": "埼玉県杉戸町",
        "施設・場所名": "杉戸第二小学校",
        "住所": "埼玉県杉戸町大字倉松600-1",
        "指定緊急避難場所との住所同一": "1",
        "その他市町村長が必要と認める事項": null,
        "受入対象者": null,
        "備考": ""
      }
    },
    {
      "type": "Feature",
      "geometry": {
        "type": "Point",
        "coordinates": [
          139.760259,
          36.015552
        ]
      },
      "properties": {
        "NO": 22454,
        "共通ID": "E1146400016111",
        "都道府県名及び市町村名": "埼玉県杉戸町",
        "施設・場所名": "杉戸第三小学校",
        "住所": "埼玉県杉戸町大字堤根2777",
        "指定緊急避難場所との住所同一": "1",
        "その他市町村長が必要と認める事項": null,
        "受入対象者": null,
        "備考": ""
      }
    },
    {
      "type": "Feature",
      "geometry": {
        "type": "Point",
        "coordinates": [
          139.731561,
          36.034191
        ]
      },
      "properties": {
        "NO": 22455,
        "共通ID": "E1146400023111",
        "都道府県名及び市町村名": "埼玉県杉戸町",
        "施設・場所名": "杉戸小学校",
        "住所": "埼玉県杉戸町内田2-9-28",
        "指定緊急避難場所との住所同一": "1",
        "その他市町村長が必要と認める事項": null,
        "受入対象者": null,
        "備考": ""
      }
    }
  ]
}