{
  "type": "FeatureCollection",
  "name": "122025",
  "features": [
    {
      "type": "Feature",
      "geometry": {
        "type": "Point",
        "coordinates": [
          140.730647,
          35.742664
        ]
      },
      "properties": {
        "NO": 22742,
        "共通ID": "E1220200001111",
        "都道府県名及び市町村名": "千葉県銚子市",
        "施設・場所名": "さるだ学集館（旧猿田小学校）",
        "住所": "千葉県銚子市猿田町1179-2",
        "指定緊急避難場所との住所同一": "1",
        "その他市町村長が必要と認める事項": "",
        "受入対象者": "",
        "備考": ""
      }
    },
    {
      "type": "Feature",
      "geometry": {
        "type": "Point",
        "coordinates": [
          140.792398,
          35.746156
        ]
      },
      "properties": {
        "NO": 22743,
        "共通ID": "E1220200004111",
        "都道府県名及び市町村名": "千葉県銚子市",
        "施設・場所名": "海上小学校",
        "住所": "千葉県銚子市垣根町1-370",
        "指定緊急避難場所との住所同一": "1",
        "その他市町村長が必要と認める事項": "",
        "受入対象者": "",
        "備考": ""
      }
    },
    {
      "type": "Feature",
      "geometry": {
        "type": "Point",
        "coordinates": [
          140.85752,
          35.701849
        ]
      },
      "properties": {
        "NO": 22744,
        "共通ID": "E1220200005111",
        "都道府県名及び市町村名": "千葉県銚子市",
        "施設・場所名": "高神小学校",
        "住所": "千葉県銚子市犬吠埼10222-1",
        "指定緊急避難場所との住所同一": "1",
        "その他市町村長が必要と認める事項": "",
        "受入対象者": "",
        "備考": ""
      }
    },
    {
      "type": "Feature",
      "geometry": {
        "type": "Point",
        "coordinates": [
          140.860339,
          35.701413
        ]
      },
      "properties": {
        "NO": 22745,
        "共通ID": "E1220200006111",
        "都道府県名及び市町村名": "千葉県銚子市",
        "施設・場所名": "第二中学校",
        "住所": "千葉県銚子市犬吠埼10292-49",
        "指定緊急避難場所との住所同一": "1",
        "その他市町村長が必要と認める事項": "",
        "受入対象者": "",
        "備考": ""
      }
    },
    {
      "type": "Feature",
      "geometry": {
        "type": "Point",
        "coordinates": [
          140.718749,
          35.794092
        ]
      },
      "properties": {
        "NO": 22746,
        "共通ID": "E1220200010111",
        "都道府県名及び市町村名": "千葉県銚子市",
        "施設・場所名": "豊里地区コミュニティセンター",
        "住所": "千葉県銚子市笹本町359-1",
        "指定緊急避難場所との住所同一": "",
        "その他市町村長が必要と認める事項": "",
        "受入対象者": "",
        "備考": ""
      }
    },
    {
      "type": "Feature",
      "geometry": {
        "type": "Point",
        "coordinates": [
          140.718935,
          35.793487
        ]
      },
      "properties": {
        "NO": 22747,
        "共通ID": "E1220200011111",
        "都道府県名及び市町村名": "千葉県銚子市",
        "施設・場所名": "豊里小学校",
        "住所": "千葉県銚子市笹本町360",
        "指定緊急避難場所との住所同一": "1",
        "その他市町村長が必要と認める事項": "",
        "受入対象者": "",
        "備考": ""
      }
    },
    {
      "type": "Feature",
      "geometry": {
        "type": "Point",
        "coordinates": [
          140.784127,
          35.707518
        ]
      },
      "properties": {
        "NO": 22748,
        "共通ID": "E1220200014111",
        "都道府県名及び市町村名": "千葉県銚子市",
        "施設・場所名": "県立銚子特別支援学校",
        "住所": "千葉県銚子市三崎町3-94-1",
        "指定緊急避難場所との住所同一": "1",
        "その他市町村長が必要と認める事項": "",
        "受入対象者": "",
        "備考": ""
      }
    },
    {
      "type": "Feature",
      "geometry": {
        "type": "Point",
        "coordinates": [
          140.827327,
          35.734212
        ]
      },
      "properties": {
        "NO": 22749,
        "共通ID": "E1220200055111",
        "都道府県名及び市町村名": "千葉県銚子市",
        "施設・場所名": "勤労コミュニティセンター",
        "住所": "千葉県銚子市若宮町1-1",
        "指定緊急避難場所との住所同一": "",
        "その他市町村長が必要と認める事項": "",
        "受入対象者": "",
        "備考": ""
      }
    },
    {
      "type": "Feature",
      "geometry": {
        "type": "Point",
        "coordinates": [
          140.826996,
          35.733452
        ]
      },
      "properties": {
        "NO": 22750,
        "共通ID": "E1220200054111",
        "都道府県名及び市町村名": "千葉県銚子市",
        "施設・場所名": "保健福祉センター",
        "住所": "千葉県銚子市若宮町4-8",
        "指定緊急避難場所との住所同一": "",
        "その他市町村長が必要と認める事項": "",
        "受入対象者": "",
        "備考": ""
      }
    },
    {
      "type": "Feature",
      "geometry": {
        "type": "Point",
        "coordinates": [
          140.814002,
          35.724781
        ]
      },
      "properties": {
        "NO": 22751,
        "共通ID": "E1220200017111",
        "都道府県名及び市町村名": "千葉県銚子市",
        "施設・場所名": "市立銚子高校",
        "住所": "千葉県銚子市春日町2689",
        "指定緊急避難場所との住所同一": "1",
        "その他市町村長が必要と認める事項": "",
        "受入対象者": "",
        "備考": ""
      }
    },
    {
      "type": "Feature",
      "geometry": {
        "type": "Point",
        "coordinates": [
          140.822956,
          35.724644
        ]
      },
      "properties": {
        "NO": 22752,
        "共通ID": "E1220200018111",
        "都道府県名及び市町村名": "千葉県銚子市",
        "施設・場所名": "春日小学校",
        "住所": "千葉県銚子市春日町287",
        "指定緊急避難場所との住所同一": "1",
        "その他市町村長が必要と認める事項": "",
        "受入対象者": "",
        "備考": ""
      }
    },
    {
      "type": "Feature",
      "geometry": {
        "type": "Point",
        "coordinates": [
          140.751788,
          35.77068
        ]
      },
      "properties": {
        "NO": 22753,
        "共通ID": "E1220200019111",
        "都道府県名及び市町村名": "千葉県銚子市",
        "施設・場所名": "椎柴小学校",
        "住所": "千葉県銚子市小船木町1-385",
        "指定緊急避難場所との住所同一": "1",
        "その他市町村長が必要と認める事項": "",
        "受入対象者": "",
        "備考": ""
      }
    },
    {
      "type": "Feature",
      "geometry": {
        "type": "Point",
        "coordinates": [
          140.856694,
          35.720868
        ]
      },
      "properties": {
        "NO": 22754,
        "共通ID": "E1220200020111",
        "都道府県名及び市町村名": "千葉県銚子市",
        "施設・場所名": "市民センター",
        "住所": "千葉県銚子市小畑新町7756",
        "指定緊急避難場所との住所同一": "",
        "その他市町村長が必要と認める事項": "",
        "受入対象者": "",
        "備考": ""
      }
    },
    {
      "type": "Feature",
      "geometry": {
        "type": "Point",
        "coordinates": [
          140.792416,
          35.743827
        ]
      },
      "properties": {
        "NO": 22755,
        "共通ID": "E1220200021111",
        "都道府県名及び市町村名": "千葉県銚子市",
        "施設・場所名": "海上地区コミュニティセンター",
        "住所": "千葉県銚子市松岸町2-188-1",
        "指定緊急避難場所との住所同一": "",
        "その他市町村長が必要と認める事項": "",
        "受入対象者": "",
        "備考": ""
      }
    },
    {
      "type": "Feature",
      "geometry": {
        "type": "Point",
        "coordinates": [
          140.848945,
          35.731381
        ]
      },
      "properties": {
        "NO": 22756,
        "共通ID": "E1220200026111",
        "都道府県名及び市町村名": "千葉県銚子市",
        "施設・場所名": "清水小学校",
        "住所": "千葉県銚子市清水町2894",
        "指定緊急避難場所との住所同一": "1",
        "その他市町村長が必要と認める事項": "",
        "受入対象者": "",
        "備考": ""
      }
    },
    {
      "type": "Feature",
      "geometry": {
        "type": "Point",
        "coordinates": [
          140.82797,
          35.71742
        ]
      },
      "properties": {
        "NO": 22757,
        "共通ID": "E1220200028111",
        "都道府県名及び市町村名": "千葉県銚子市",
        "施設・場所名": "スポーツコミュニティセンター",
        "住所": "千葉県銚子市西小川町5000",
        "指定緊急避難場所との住所同一": "",
        "その他市町村長が必要と認める事項": "",
        "受入対象者": "",
        "備考": ""
      }
    },
    {
      "type": "Feature",
      "geometry": {
        "type": "Point",
        "coordinates": [
          140.766151,
          35.758428
        ]
      },
      "properties": {
        "NO": 22758,
        "共通ID": "E1220200029111",
        "都道府県名及び市町村名": "千葉県銚子市",
        "施設・場所名": "船木小学校",
        "住所": "千葉県銚子市船木町140",
        "指定緊急避難場所との住所同一": "1",
        "その他市町村長が必要と認める事項": "",
        "受入対象者": "",
        "備考": ""
      }
    },
    {
      "type": "Feature",
      "geometry": {
        "type": "Point",
        "coordinates": [
          140.843514,
          35.728571
        ]
      },
      "properties": {
        "NO": 22759,
        "共通ID": "E1220200030111",
        "都道府県名及び市町村名": "千葉県銚子市",
        "施設・場所名": "市体育館",
        "住所": "千葉県銚子市前宿町1140",
        "指定緊急避難場所との住所同一": "",
        "その他市町村長が必要と認める事項": "",
        "受入対象者": "",
        "備考": ""
      }
    },
    {
      "type": "Feature",
      "geometry": {
        "type": "Point",
        "coordinates": [
          140.844603,
          35.728818
        ]
      },
      "properties": {
        "NO": 22760,
        "共通ID": "E1220200031111",
        "都道府県名及び市町村名": "千葉県銚子市",
        "施設・場所名": "飯沼小学校",
        "住所": "千葉県銚子市前宿町1200",
        "指定緊急避難場所との住所同一": "1",
        "その他市町村長が必要と認める事項": "",
        "受入対象者": "",
        "備考": ""
      }
    },
    {
      "type": "Feature",
      "geometry": {
        "type": "Point",
        "coordinates": [
          140.826336,
          35.720114
        ]
      },
      "properties": {
        "NO": 22761,
        "共通ID": "E1220200033111",
        "都道府県名及び市町村名": "千葉県銚子市",
        "施設・場所名": "県立銚子商業高校",
        "住所": "千葉県銚子市台町1781",
        "指定緊急避難場所との住所同一": "1",
        "その他市町村長が必要と認める事項": "",
        "受入対象者": "",
        "備考": ""
      }
    },
    {
      "type": "Feature",
      "geometry": {
        "type": "Point",
        "coordinates": [
          140.800387,
          35.738077
        ]
      },
      "properties": {
        "NO": 22762,
        "共通ID": "E1220200036111",
        "都道府県名及び市町村名": "千葉県銚子市",
        "施設・場所名": "銚子西中学校",
        "住所": "千葉県銚子市長塚町3-620",
        "指定緊急避難場所との住所同一": "1",
        "その他市町村長が必要と認める事項": "",
        "受入対象者": "",
        "備考": ""
      }
    },
    {
      "type": "Feature",
      "geometry": {
        "type": "Point",
        "coordinates": [
          140.822624,
          35.730984
        ]
      },
      "properties": {
        "NO": 22763,
        "共通ID": "E1220200039111",
        "都道府県名及び市町村名": "千葉県銚子市",
        "施設・場所名": "銚子中学校",
        "住所": "千葉県銚子市唐子町31-2",
        "指定緊急避難場所との住所同一": "1",
        "その他市町村長が必要と認める事項": "",
        "受入対象者": "",
        "備考": ""
      }
    },
    {
      "type": "Feature",
      "geometry": {
        "type": "Point",
        "coordinates": [
          140.830813,
          35.72945
        ]
      },
      "properties": {
        "NO": 22764,
        "共通ID": "E1220200040111",
        "都道府県名及び市町村名": "千葉県銚子市",
        "施設・場所名": "双葉小学校",
        "住所": "千葉県銚子市東芝町8-5",
        "指定緊急避難場所との住所同一": "1",
        "その他市町村長が必要と認める事項": "",
        "受入対象者": "",
        "備考": ""
      }
    },
    {
      "type": "Feature",
      "geometry": {
        "type": "Point",
        "coordinates": [
          140.837863,
          35.726393
        ]
      },
      "properties": {
        "NO": 22765,
        "共通ID": "E1220200041111",
        "都道府県名及び市町村名": "千葉県銚子市",
        "施設・場所名": "第三中学校",
        "住所": "千葉県銚子市東小川町2348",
        "指定緊急避難場所との住所同一": "1",
        "その他市町村長が必要と認める事項": "",
        "受入対象者": "",
        "備考": ""
      }
    },
    {
      "type": "Feature",
      "geometry": {
        "type": "Point",
        "coordinates": [
          140.839429,
          35.723161
        ]
      },
      "properties": {
        "NO": 22766,
        "共通ID": "E1220200042111",
        "都道府県名及び市町村名": "千葉県銚子市",
        "施設・場所名": "県立銚子高校",
        "住所": "千葉県銚子市南小川町943",
        "指定緊急避難場所との住所同一": "1",
        "その他市町村長が必要と認める事項": "",
        "受入対象者": "",
        "備考": ""
      }
    },
    {
      "type": "Feature",
      "geometry": {
        "type": "Point",
        "coordinates": [
          140.742329,
          35.707224
        ]
      },
      "properties": {
        "NO": 22767,
        "共通ID": "E1220200044111",
        "都道府県名及び市町村名": "千葉県銚子市",
        "施設・場所名": "ジオパーク・芸術センター",
        "住所": "千葉県銚子市八木町1777-1",
        "指定緊急避難場所との住所同一": "1",
        "その他市町村長が必要と認める事項": "",
        "受入対象者": "",
        "備考": ""
      }
    },
    {
      "type": "Feature",
      "geometry": {
        "type": "Point",
        "coordinates": [
          140.811894,
          35.73302
        ]
      },
      "properties": {
        "NO": 22768,
        "共通ID": "E1220200046111",
        "都道府県名及び市町村名": "千葉県銚子市",
        "施設・場所名": "本城小学校",
        "住所": "千葉県銚子市本城町4-226",
        "指定緊急避難場所との住所同一": "1",
        "その他市町村長が必要と認める事項": "",
        "受入対象者": "",
        "備考": ""
      }
    },
    {
      "type": "Feature",
      "geometry": {
        "type": "Point",
        "coordinates": [
          140.844379,
          35.735461
        ]
      },
      "properties": {
        "NO": 22769,
        "共通ID": "E1220200047111",
        "都道府県名及び市町村名": "千葉県銚子市",
        "施設・場所名": "東部地区コミュニティセンター",
        "住所": "千葉県銚子市本町1594",
        "指定緊急避難場所との住所同一": "",
        "その他市町村長が必要と認める事項": "",
        "受入対象者": "",
        "備考": ""
      }
    },
    {
      "type": "Feature",
      "geometry": {
        "type": "Point",
        "coordinates": [
          140.855609,
          35.734451
        ]
      },
      "properties": {
        "NO": 22770,
        "共通ID": "E1220200050111",
        "都道府県名及び市町村名": "千葉県銚子市",
        "施設・場所名": "第一中学校",
        "住所": "千葉県銚子市明神町1-1",
        "指定緊急避難場所との住所同一": "1",
        "その他市町村長が必要と認める事項": "",
        "受入対象者": "",
        "備考": ""
      }
    },
    {
      "type": "Feature",
      "geometry": {
        "type": "Point",
        "coordinates": [
          140.854856,
          35.733471
        ]
      },
      "properties": {
        "NO": 22771,
        "共通ID": "E1220200050112",
        "都道府県名及び市町村名": "千葉県銚子市",
        "施設・場所名": "明神小学校",
        "住所": "千葉県銚子市明神町1-1",
        "指定緊急避難場所との住所同一": "1",
        "その他市町村長が必要と認める事項": "",
        "受入対象者": "",
        "備考": ""
      }
    },
    {
      "type": "Feature",
      "geometry": {
        "type": "Point",
        "coordinates": [
          140.748973,
          35.761939
        ]
      },
      "properties": {
        "NO": 22772,
        "共通ID": "E1220200051111",
        "都道府県名及び市町村名": "千葉県銚子市",
        "施設・場所名": "銚子スポーツタウン",
        "住所": "千葉県銚子市野尻町1600",
        "指定緊急避難場所との住所同一": "1",
        "その他市町村長が必要と認める事項": "",
        "受入対象者": "",
        "備考": ""
      }
    }
  ]
}