{
  "type": "FeatureCollection",
  "name": "122106",
  "features": [
    {
      "type": "Feature",
      "geometry": {
        "type": "Point",
        "coordinates": [
          140.353906,
          35.476667
        ]
      },
      "properties": {
        "NO": 23392,
        "共通ID": "E1221000001111",
        "都道府県名及び市町村名": "千葉県茂原市",
        "施設・場所名": "豊岡福祉センター",
        "住所": "千葉県茂原市粟生野2675-4",
        "指定緊急避難場所との住所同一": "1",
        "その他市町村長が必要と認める事項": null,
        "受入対象者": null,
        "備考": ""
      }
    },
    {
      "type": "Feature",
      "geometry": {
        "type": "Point",
        "coordinates": [
          140.279406,
          35.443717
        ]
      },
      "properties": {
        "NO": 23393,
        "共通ID": "E1221000002111",
        "都道府県名及び市町村名": "千葉県茂原市",
        "施設・場所名": "冨士見中学校",
        "住所": "千葉県茂原市押日1468",
        "指定緊急避難場所との住所同一": "1",
        "その他市町村長が必要と認める事項": null,
        "受入対象者": null,
        "備考": ""
      }
    },
    {
      "type": "Feature",
      "geometry": {
        "type": "Point",
        "coordinates": [
          140.303578,
          35.408902
        ]
      },
      "properties": {
        "NO": 23394,
        "共通ID": "E1221000004111",
        "都道府県名及び市町村名": "千葉県茂原市",
        "施設・場所名": "旧中の島幼稚園",
        "住所": "千葉県茂原市下永吉1056-2",
        "指定緊急避難場所との住所同一": "1",
        "その他市町村長が必要と認める事項": "",
        "受入対象者": "",
        "備考": ""
      }
    },
    {
      "type": "Feature",
      "geometry": {
        "type": "Point",
        "coordinates": [
          140.279114,
          35.481972
        ]
      },
      "properties": {
        "NO": 23395,
        "共通ID": "E1221000006111",
        "都道府県名及び市町村名": "千葉県茂原市",
        "施設・場所名": "旧新治小学校",
        "住所": "千葉県茂原市下太田150",
        "指定緊急避難場所との住所同一": "1",
        "その他市町村長が必要と認める事項": "",
        "受入対象者": "",
        "備考": ""
      }
    },
    {
      "type": "Feature",
      "geometry": {
        "type": "Point",
        "coordinates": [
          140.349393,
          35.475379
        ]
      },
      "properties": {
        "NO": 23396,
        "共通ID": "E1221000007111",
        "都道府県名及び市町村名": "千葉県茂原市",
        "施設・場所名": "豊岡小学校",
        "住所": "千葉県茂原市弓渡255",
        "指定緊急避難場所との住所同一": "1",
        "その他市町村長が必要と認める事項": null,
        "受入対象者": null,
        "備考": ""
      }
    },
    {
      "type": "Feature",
      "geometry": {
        "type": "Point",
        "coordinates": [
          140.277167,
          35.416061
        ]
      },
      "properties": {
        "NO": 23397,
        "共通ID": "E1221000008111",
        "都道府県名及び市町村名": "千葉県茂原市",
        "施設・場所名": "五郷小学校",
        "住所": "千葉県茂原市綱島1185",
        "指定緊急避難場所との住所同一": "1",
        "その他市町村長が必要と認める事項": null,
        "受入対象者": null,
        "備考": ""
      }
    },
    {
      "type": "Feature",
      "geometry": {
        "type": "Point",
        "coordinates": [
          140.280649,
          35.411047
        ]
      },
      "properties": {
        "NO": 23398,
        "共通ID": "E1221000009111",
        "都道府県名及び市町村名": "千葉県茂原市",
        "施設・場所名": "五郷福祉センター",
        "住所": "千葉県茂原市綱島656",
        "指定緊急避難場所との住所同一": "1",
        "その他市町村長が必要と認める事項": null,
        "受入対象者": null,
        "備考": ""
      }
    },
    {
      "type": "Feature",
      "geometry": {
        "type": "Point",
        "coordinates": [
          140.285713,
          35.433157
        ]
      },
      "properties": {
        "NO": 23399,
        "共通ID": "E1221000010111",
        "都道府県名及び市町村名": "千葉県茂原市",
        "施設・場所名": "茂原高等学校",
        "住所": "千葉県茂原市高師1300",
        "指定緊急避難場所との住所同一": "1",
        "その他市町村長が必要と認める事項": null,
        "受入対象者": null,
        "備考": ""
      }
    },
    {
      "type": "Feature",
      "geometry": {
        "type": "Point",
        "coordinates": [
          140.295097,
          35.438775
        ]
      },
      "properties": {
        "NO": 23400,
        "共通ID": "E1221000012111",
        "都道府県名及び市町村名": "千葉県茂原市",
        "施設・場所名": "茂原市市民体育館",
        "住所": "千葉県茂原市高師2165",
        "指定緊急避難場所との住所同一": "1",
        "その他市町村長が必要と認める事項": null,
        "受入対象者": null,
        "備考": ""
      }
    },
    {
      "type": "Feature",
      "geometry": {
        "type": "Point",
        "coordinates": [
          140.298227,
          35.433182
        ]
      },
      "properties": {
        "NO": 23401,
        "共通ID": "E1221000013111",
        "都道府県名及び市町村名": "千葉県茂原市",
        "施設・場所名": "長生高等学校",
        "住所": "千葉県茂原市高師286",
        "指定緊急避難場所との住所同一": "1",
        "その他市町村長が必要と認める事項": null,
        "受入対象者": null,
        "備考": ""
      }
    },
    {
      "type": "Feature",
      "geometry": {
        "type": "Point",
        "coordinates": [
          140.260132,
          35.44854
        ]
      },
      "properties": {
        "NO": 23402,
        "共通ID": "E1221000035111",
        "都道府県名及び市町村名": "千葉県茂原市",
        "施設・場所名": "二宮福祉センター",
        "住所": "千葉県茂原市国府関1683-1",
        "指定緊急避難場所との住所同一": "1",
        "その他市町村長が必要と認める事項": "",
        "受入対象者": "",
        "備考": ""
      }
    },
    {
      "type": "Feature",
      "geometry": {
        "type": "Point",
        "coordinates": [
          140.294645,
          35.406259
        ]
      },
      "properties": {
        "NO": 23403,
        "共通ID": "E1221000015111",
        "都道府県名及び市町村名": "千葉県茂原市",
        "施設・場所名": "南中学校",
        "住所": "千葉県茂原市上永吉1185-2",
        "指定緊急避難場所との住所同一": "1",
        "その他市町村長が必要と認める事項": null,
        "受入対象者": null,
        "備考": ""
      }
    },
    {
      "type": "Feature",
      "geometry": {
        "type": "Point",
        "coordinates": [
          140.298119,
          35.395135
        ]
      },
      "properties": {
        "NO": 23404,
        "共通ID": "E1221000016111",
        "都道府県名及び市町村名": "千葉県茂原市",
        "施設・場所名": "鶴枝小学校",
        "住所": "千葉県茂原市上永吉955",
        "指定緊急避難場所との住所同一": "1",
        "その他市町村長が必要と認める事項": null,
        "受入対象者": null,
        "備考": ""
      }
    },
    {
      "type": "Feature",
      "geometry": {
        "type": "Point",
        "coordinates": [
          140.327362,
          35.447401
        ]
      },
      "properties": {
        "NO": 23405,
        "共通ID": "E1221000018111",
        "都道府県名及び市町村名": "千葉県茂原市",
        "施設・場所名": "東郷小学校",
        "住所": "千葉県茂原市谷本142",
        "指定緊急避難場所との住所同一": "1",
        "その他市町村長が必要と認める事項": null,
        "受入対象者": null,
        "備考": ""
      }
    },
    {
      "type": "Feature",
      "geometry": {
        "type": "Point",
        "coordinates": [
          140.324911,
          35.441679
        ]
      },
      "properties": {
        "NO": 23406,
        "共通ID": "E1221000019111",
        "都道府県名及び市町村名": "千葉県茂原市",
        "施設・場所名": "東郷福祉センター",
        "住所": "千葉県茂原市谷本1887-1",
        "指定緊急避難場所との住所同一": "1",
        "その他市町村長が必要と認める事項": null,
        "受入対象者": null,
        "備考": ""
      }
    },
    {
      "type": "Feature",
      "geometry": {
        "type": "Point",
        "coordinates": [
          140.303075,
          35.431101
        ]
      },
      "properties": {
        "NO": 23407,
        "共通ID": "E1221000021111",
        "都道府県名及び市町村名": "千葉県茂原市",
        "施設・場所名": "総合市民センター",
        "住所": "千葉県茂原市町保13-20",
        "指定緊急避難場所との住所同一": "1",
        "その他市町村長が必要と認める事項": null,
        "受入対象者": null,
        "備考": ""
      }
    },
    {
      "type": "Feature",
      "geometry": {
        "type": "Point",
        "coordinates": [
          140.29152,
          35.456318
        ]
      },
      "properties": {
        "NO": 23408,
        "共通ID": "E1221000022111",
        "都道府県名及び市町村名": "千葉県茂原市",
        "施設・場所名": "豊田福祉センター",
        "住所": "千葉県茂原市長尾148",
        "指定緊急避難場所との住所同一": "1",
        "その他市町村長が必要と認める事項": null,
        "受入対象者": null,
        "備考": ""
      }
    },
    {
      "type": "Feature",
      "geometry": {
        "type": "Point",
        "coordinates": [
          140.292577,
          35.455776
        ]
      },
      "properties": {
        "NO": 23409,
        "共通ID": "E1221000023111",
        "都道府県名及び市町村名": "千葉県茂原市",
        "施設・場所名": "豊田小学校",
        "住所": "千葉県茂原市長尾156",
        "指定緊急避難場所との住所同一": "1",
        "その他市町村長が必要と認める事項": null,
        "受入対象者": null,
        "備考": ""
      }
    },
    {
      "type": "Feature",
      "geometry": {
        "type": "Point",
        "coordinates": [
          140.319713,
          35.43545
        ]
      },
      "properties": {
        "NO": 23410,
        "共通ID": "E1221000025111",
        "都道府県名及び市町村名": "千葉県茂原市",
        "施設・場所名": "東中学校",
        "住所": "千葉県茂原市東郷301",
        "指定緊急避難場所との住所同一": "1",
        "その他市町村長が必要と認める事項": null,
        "受入対象者": null,
        "備考": ""
      }
    },
    {
      "type": "Feature",
      "geometry": {
        "type": "Point",
        "coordinates": [
          140.318272,
          35.421146
        ]
      },
      "properties": {
        "NO": 23411,
        "共通ID": "E1221000026111",
        "都道府県名及び市町村名": "千葉県茂原市",
        "施設・場所名": "東部台文化会館",
        "住所": "千葉県茂原市東部台1-7-15",
        "指定緊急避難場所との住所同一": "1",
        "その他市町村長が必要と認める事項": null,
        "受入対象者": null,
        "備考": ""
      }
    },
    {
      "type": "Feature",
      "geometry": {
        "type": "Point",
        "coordinates": [
          140.318372,
          35.422348
        ]
      },
      "properties": {
        "NO": 23412,
        "共通ID": "E1221000027111",
        "都道府県名及び市町村名": "千葉県茂原市",
        "施設・場所名": "東部小学校",
        "住所": "千葉県茂原市東部台1-9-1",
        "指定緊急避難場所との住所同一": "1",
        "その他市町村長が必要と認める事項": null,
        "受入対象者": null,
        "備考": ""
      }
    },
    {
      "type": "Feature",
      "geometry": {
        "type": "Point",
        "coordinates": [
          140.300073,
          35.438459
        ]
      },
      "properties": {
        "NO": 23413,
        "共通ID": "E1221000028111",
        "都道府県名及び市町村名": "千葉県茂原市",
        "施設・場所名": "萩原小学校",
        "住所": "千葉県茂原市萩原町1-17",
        "指定緊急避難場所との住所同一": "1",
        "その他市町村長が必要と認める事項": null,
        "受入対象者": null,
        "備考": ""
      }
    },
    {
      "type": "Feature",
      "geometry": {
        "type": "Point",
        "coordinates": [
          140.314257,
          35.451679
        ]
      },
      "properties": {
        "NO": 23414,
        "共通ID": "E1221000029111",
        "都道府県名及び市町村名": "千葉県茂原市",
        "施設・場所名": "千葉県生涯大学校外房学園",
        "住所": "千葉県茂原市本小轡319-1",
        "指定緊急避難場所との住所同一": "1",
        "その他市町村長が必要と認める事項": null,
        "受入対象者": null,
        "備考": ""
      }
    },
    {
      "type": "Feature",
      "geometry": {
        "type": "Point",
        "coordinates": [
          140.307305,
          35.486352
        ]
      },
      "properties": {
        "NO": 23415,
        "共通ID": "E1221000030111",
        "都道府県名及び市町村名": "千葉県茂原市",
        "施設・場所名": "本納小学校・本納中学校",
        "住所": "千葉県茂原市本納1623",
        "指定緊急避難場所との住所同一": "1",
        "その他市町村長が必要と認める事項": null,
        "受入対象者": null,
        "備考": ""
      }
    },
    {
      "type": "Feature",
      "geometry": {
        "type": "Point",
        "coordinates": [
          140.306362,
          35.484439
        ]
      },
      "properties": {
        "NO": 23416,
        "共通ID": "E1221000031111",
        "都道府県名及び市町村名": "千葉県茂原市",
        "施設・場所名": "本納公民館（ほのおか館）",
        "住所": "千葉県茂原市本納1741-1",
        "指定緊急避難場所との住所同一": "1",
        "その他市町村長が必要と認める事項": null,
        "受入対象者": null,
        "備考": ""
      }
    },
    {
      "type": "Feature",
      "geometry": {
        "type": "Point",
        "coordinates": [
          140.283264,
          35.427135
        ]
      },
      "properties": {
        "NO": 23417,
        "共通ID": "E1221000036111",
        "都道府県名及び市町村名": "千葉県茂原市",
        "施設・場所名": "西小学校",
        "住所": "千葉県茂原市茂原1229-1",
        "指定緊急避難場所との住所同一": "1",
        "その他市町村長が必要と認める事項": "",
        "受入対象者": "",
        "備考": ""
      }
    },
    {
      "type": "Feature",
      "geometry": {
        "type": "Point",
        "coordinates": [
          140.299074,
          35.425568
        ]
      },
      "properties": {
        "NO": 23418,
        "共通ID": "E1221000032111",
        "都道府県名及び市町村名": "千葉県茂原市",
        "施設・場所名": "茂原小学校",
        "住所": "千葉県茂原市茂原614",
        "指定緊急避難場所との住所同一": "1",
        "その他市町村長が必要と認める事項": null,
        "受入対象者": null,
        "備考": ""
      }
    },
    {
      "type": "Feature",
      "geometry": {
        "type": "Point",
        "coordinates": [
          140.261534,
          35.439251
        ]
      },
      "properties": {
        "NO": 23419,
        "共通ID": "E1221000033111",
        "都道府県名及び市町村名": "千葉県茂原市",
        "施設・場所名": "旧西陵中学校",
        "住所": "千葉県茂原市緑ケ丘1-53",
        "指定緊急避難場所との住所同一": "1",
        "その他市町村長が必要と認める事項": null,
        "受入対象者": null,
        "備考": ""
      }
    },
    {
      "type": "Feature",
      "geometry": {
        "type": "Point",
        "coordinates": [
          140.256133,
          35.439758
        ]
      },
      "properties": {
        "NO": 23420,
        "共通ID": "E1221000034111",
        "都道府県名及び市町村名": "千葉県茂原市",
        "施設・場所名": "二宮小学校（旧緑ケ丘小学校）",
        "住所": "千葉県茂原市緑ケ丘4-38",
        "指定緊急避難場所との住所同一": "1",
        "その他市町村長が必要と認める事項": null,
        "受入対象者": null,
        "備考": ""
      }
    }
  ]
}