{
  "type": "FeatureCollection",
  "name": "122220",
  "features": [
    {
      "type": "Feature",
      "geometry": {
        "type": "Point",
        "coordinates": [
          140.003711,
          35.88527
        ]
      },
      "properties": {
        "NO": 23985,
        "共通ID": "E1222200002111",
        "都道府県名及び市町村名": "千葉県我孫子市",
        "施設・場所名": "久寺家中学校",
        "住所": "千葉県我孫子市つくし野171",
        "指定緊急避難場所との住所同一": "1",
        "その他市町村長が必要と認める事項": null,
        "受入対象者": null,
        "備考": ""
      }
    },
    {
      "type": "Feature",
      "geometry": {
        "type": "Point",
        "coordinates": [
          140.009351,
          35.880863
        ]
      },
      "properties": {
        "NO": 23986,
        "共通ID": "E1222200003121",
        "都道府県名及び市町村名": "千葉県我孫子市",
        "施設・場所名": "我孫子北近隣センター　つくし野館",
        "住所": "千葉県我孫子市つくし野3-22-1",
        "指定緊急避難場所との住所同一": "",
        "その他市町村長が必要と認める事項": null,
        "受入対象者": "要配慮者",
        "備考": ""
      }
    },
    {
      "type": "Feature",
      "geometry": {
        "type": "Point",
        "coordinates": [
          140.005794,
          35.881938
        ]
      },
      "properties": {
        "NO": 23987,
        "共通ID": "E1222200004111",
        "都道府県名及び市町村名": "千葉県我孫子市",
        "施設・場所名": "根戸小学校",
        "住所": "千葉県我孫子市つくし野4-17-1",
        "指定緊急避難場所との住所同一": "1",
        "その他市町村長が必要と認める事項": null,
        "受入対象者": null,
        "備考": ""
      }
    },
    {
      "type": "Feature",
      "geometry": {
        "type": "Point",
        "coordinates": [
          140.006332,
          35.881146
        ]
      },
      "properties": {
        "NO": 23988,
        "共通ID": "E1222200005121",
        "都道府県名及び市町村名": "千葉県我孫子市",
        "施設・場所名": "つくし野保育園",
        "住所": "千葉県我孫子市つくし野4-17-2",
        "指定緊急避難場所との住所同一": "",
        "その他市町村長が必要と認める事項": null,
        "受入対象者": "乳幼児・児童",
        "備考": ""
      }
    },
    {
      "type": "Feature",
      "geometry": {
        "type": "Point",
        "coordinates": [
          140.020793,
          35.8788
        ]
      },
      "properties": {
        "NO": 23989,
        "共通ID": "E1222200006111",
        "都道府県名及び市町村名": "千葉県我孫子市",
        "施設・場所名": "並木小学校",
        "住所": "千葉県我孫子市つくし野7-30-1",
        "指定緊急避難場所との住所同一": "1",
        "その他市町村長が必要と認める事項": null,
        "受入対象者": null,
        "備考": ""
      }
    },
    {
      "type": "Feature",
      "geometry": {
        "type": "Point",
        "coordinates": [
          140.06032,
          35.861782
        ]
      },
      "properties": {
        "NO": 23990,
        "共通ID": "E1222200010121",
        "都道府県名及び市町村名": "千葉県我孫子市",
        "施設・場所名": "特別養護老人ホーム　アクイール",
        "住所": "千葉県我孫子市岡発戸1498",
        "指定緊急避難場所との住所同一": "",
        "その他市町村長が必要と認める事項": null,
        "受入対象者": "高齢者",
        "備考": ""
      }
    },
    {
      "type": "Feature",
      "geometry": {
        "type": "Point",
        "coordinates": [
          140.060275,
          35.860591
        ]
      },
      "properties": {
        "NO": 23991,
        "共通ID": "E1222200011121",
        "都道府県名及び市町村名": "千葉県我孫子市",
        "施設・場所名": "特別養護老人ホーム　おはら",
        "住所": "千葉県我孫子市岡発戸1500-2",
        "指定緊急避難場所との住所同一": "",
        "その他市町村長が必要と認める事項": null,
        "受入対象者": "高齢者",
        "備考": ""
      }
    },
    {
      "type": "Feature",
      "geometry": {
        "type": "Point",
        "coordinates": [
          140.05815,
          35.871664
        ]
      },
      "properties": {
        "NO": 23992,
        "共通ID": "E1222200012111",
        "都道府県名及び市町村名": "千葉県我孫子市",
        "施設・場所名": "我孫子第二小学校",
        "住所": "千葉県我孫子市下ケ戸610",
        "指定緊急避難場所との住所同一": "1",
        "その他市町村長が必要と認める事項": null,
        "受入対象者": null,
        "備考": ""
      }
    },
    {
      "type": "Feature",
      "geometry": {
        "type": "Point",
        "coordinates": [
          140.014303,
          35.873777
        ]
      },
      "properties": {
        "NO": 23993,
        "共通ID": "E1222200013121",
        "都道府県名及び市町村名": "千葉県我孫子市",
        "施設・場所名": "ぽけっとランドあびこ保育園",
        "住所": "千葉県我孫子市我孫子1-19-13",
        "指定緊急避難場所との住所同一": "",
        "その他市町村長が必要と認める事項": null,
        "受入対象者": "乳幼児・児童",
        "備考": ""
      }
    },
    {
      "type": "Feature",
      "geometry": {
        "type": "Point",
        "coordinates": [
          140.026936,
          35.876608
        ]
      },
      "properties": {
        "NO": 23994,
        "共通ID": "E1222200014111",
        "都道府県名及び市町村名": "千葉県我孫子市",
        "施設・場所名": "一般財団法人電力中央研究所",
        "住所": "千葉県我孫子市我孫子1646",
        "指定緊急避難場所との住所同一": "1",
        "その他市町村長が必要と認める事項": null,
        "受入対象者": null,
        "備考": ""
      }
    },
    {
      "type": "Feature",
      "geometry": {
        "type": "Point",
        "coordinates": [
          140.018626,
          35.882716
        ]
      },
      "properties": {
        "NO": 23995,
        "共通ID": "E1222200015111",
        "都道府県名及び市町村名": "千葉県我孫子市",
        "施設・場所名": "中央学院大学",
        "住所": "千葉県我孫子市久寺家451",
        "指定緊急避難場所との住所同一": "1",
        "その他市町村長が必要と認める事項": null,
        "受入対象者": null,
        "備考": ""
      }
    },
    {
      "type": "Feature",
      "geometry": {
        "type": "Point",
        "coordinates": [
          140.01621,
          35.884826
        ]
      },
      "properties": {
        "NO": 23996,
        "共通ID": "E1222200016111",
        "都道府県名及び市町村名": "千葉県我孫子市",
        "施設・場所名": "我孫子二階堂高等学校",
        "住所": "千葉県我孫子市久寺家479-1",
        "指定緊急避難場所との住所同一": "1",
        "その他市町村長が必要と認める事項": null,
        "受入対象者": null,
        "備考": ""
      }
    },
    {
      "type": "Feature",
      "geometry": {
        "type": "Point",
        "coordinates": [
          140.017437,
          35.884397
        ]
      },
      "properties": {
        "NO": 23997,
        "共通ID": "E1222200017121",
        "都道府県名及び市町村名": "千葉県我孫子市",
        "施設・場所名": "久寺家近隣センター",
        "住所": "千葉県我孫子市久寺家686-5",
        "指定緊急避難場所との住所同一": "",
        "その他市町村長が必要と認める事項": null,
        "受入対象者": "要配慮者",
        "備考": ""
      }
    },
    {
      "type": "Feature",
      "geometry": {
        "type": "Point",
        "coordinates": [
          140.091868,
          35.868581
        ]
      },
      "properties": {
        "NO": 23998,
        "共通ID": "E1222200018111",
        "都道府県名及び市町村名": "千葉県我孫子市",
        "施設・場所名": "湖北中学校",
        "住所": "千葉県我孫子市古戸300",
        "指定緊急避難場所との住所同一": "1",
        "その他市町村長が必要と認める事項": null,
        "受入対象者": null,
        "備考": ""
      }
    },
    {
      "type": "Feature",
      "geometry": {
        "type": "Point",
        "coordinates": [
          140.108784,
          35.872361
        ]
      },
      "properties": {
        "NO": 23999,
        "共通ID": "E1222200019121",
        "都道府県名及び市町村名": "千葉県我孫子市",
        "施設・場所名": "障害福祉サービス事業所みずき",
        "住所": "千葉県我孫子市古戸804",
        "指定緊急避難場所との住所同一": "",
        "その他市町村長が必要と認める事項": null,
        "受入対象者": "障がい者",
        "備考": ""
      }
    },
    {
      "type": "Feature",
      "geometry": {
        "type": "Point",
        "coordinates": [
          140.074832,
          35.865086
        ]
      },
      "properties": {
        "NO": 24000,
        "共通ID": "E1222200020121",
        "都道府県名及び市町村名": "千葉県我孫子市",
        "施設・場所名": "湖北台保育園",
        "住所": "千葉県我孫子市湖北台3-1-16",
        "指定緊急避難場所との住所同一": "",
        "その他市町村長が必要と認める事項": null,
        "受入対象者": "乳幼児・児童",
        "備考": ""
      }
    },
    {
      "type": "Feature",
      "geometry": {
        "type": "Point",
        "coordinates": [
          140.077426,
          35.862443
        ]
      },
      "properties": {
        "NO": 24001,
        "共通ID": "E1222200021111",
        "都道府県名及び市町村名": "千葉県我孫子市",
        "施設・場所名": "湖北台東小学校",
        "住所": "千葉県我孫子市湖北台4-3-1",
        "指定緊急避難場所との住所同一": "1",
        "その他市町村長が必要と認める事項": null,
        "受入対象者": null,
        "備考": ""
      }
    },
    {
      "type": "Feature",
      "geometry": {
        "type": "Point",
        "coordinates": [
          140.071371,
          35.860721
        ]
      },
      "properties": {
        "NO": 24002,
        "共通ID": "E1222200022111",
        "都道府県名及び市町村名": "千葉県我孫子市",
        "施設・場所名": "湖北台中学校",
        "住所": "千葉県我孫子市湖北台6-9-1",
        "指定緊急避難場所との住所同一": "1",
        "その他市町村長が必要と認める事項": null,
        "受入対象者": null,
        "備考": ""
      }
    },
    {
      "type": "Feature",
      "geometry": {
        "type": "Point",
        "coordinates": [
          140.07001,
          35.866415
        ]
      },
      "properties": {
        "NO": 24003,
        "共通ID": "E1222200024111",
        "都道府県名及び市町村名": "千葉県我孫子市",
        "施設・場所名": "湖北台西小学校",
        "住所": "千葉県我孫子市湖北台8-17-1",
        "指定緊急避難場所との住所同一": "1",
        "その他市町村長が必要と認める事項": null,
        "受入対象者": null,
        "備考": ""
      }
    },
    {
      "type": "Feature",
      "geometry": {
        "type": "Point",
        "coordinates": [
          140.073692,
          35.866922
        ]
      },
      "properties": {
        "NO": 24004,
        "共通ID": "E1222200025121",
        "都道府県名及び市町村名": "千葉県我孫子市",
        "施設・場所名": "湖北台近隣センター",
        "住所": "千葉県我孫子市湖北台8-2-1",
        "指定緊急避難場所との住所同一": "",
        "その他市町村長が必要と認める事項": null,
        "受入対象者": "要配慮者",
        "備考": ""
      }
    },
    {
      "type": "Feature",
      "geometry": {
        "type": "Point",
        "coordinates": [
          140.030708,
          35.866386
        ]
      },
      "properties": {
        "NO": 24005,
        "共通ID": "E1222200026111",
        "都道府県名及び市町村名": "千葉県我孫子市",
        "施設・場所名": "高野山小学校",
        "住所": "千葉県我孫子市高野山198",
        "指定緊急避難場所との住所同一": "1",
        "その他市町村長が必要と認める事項": null,
        "受入対象者": null,
        "備考": ""
      }
    },
    {
      "type": "Feature",
      "geometry": {
        "type": "Point",
        "coordinates": [
          140.038235,
          35.865664
        ]
      },
      "properties": {
        "NO": 24006,
        "共通ID": "E1222200027111",
        "都道府県名及び市町村名": "千葉県我孫子市",
        "施設・場所名": "我孫子中学校",
        "住所": "千葉県我孫子市高野山537",
        "指定緊急避難場所との住所同一": "1",
        "その他市町村長が必要と認める事項": null,
        "受入対象者": null,
        "備考": ""
      }
    },
    {
      "type": "Feature",
      "geometry": {
        "type": "Point",
        "coordinates": [
          139.995314,
          35.881658
        ]
      },
      "properties": {
        "NO": 24007,
        "共通ID": "E1222200029121",
        "都道府県名及び市町村名": "千葉県我孫子市",
        "施設・場所名": "根戸近隣センター",
        "住所": "千葉県我孫子市根戸573-5",
        "指定緊急避難場所との住所同一": "",
        "その他市町村長が必要と認める事項": null,
        "受入対象者": "要配慮者",
        "備考": ""
      }
    },
    {
      "type": "Feature",
      "geometry": {
        "type": "Point",
        "coordinates": [
          140.000302,
          35.878531
        ]
      },
      "properties": {
        "NO": 24008,
        "共通ID": "E1222200030121",
        "都道府県名及び市町村名": "千葉県我孫子市",
        "施設・場所名": "根戸保育園",
        "住所": "千葉県我孫子市根戸967-2",
        "指定緊急避難場所との住所同一": "",
        "その他市町村長が必要と認める事項": null,
        "受入対象者": "乳幼児・児童",
        "備考": ""
      }
    },
    {
      "type": "Feature",
      "geometry": {
        "type": "Point",
        "coordinates": [
          140.036216,
          35.874795
        ]
      },
      "properties": {
        "NO": 24009,
        "共通ID": "E1222200031121",
        "都道府県名及び市町村名": "千葉県我孫子市",
        "施設・場所名": "介護老人保健施設　葵の園・我孫子",
        "住所": "千葉県我孫子市柴崎137-1",
        "指定緊急避難場所との住所同一": "",
        "その他市町村長が必要と認める事項": null,
        "受入対象者": "高齢者",
        "備考": ""
      }
    },
    {
      "type": "Feature",
      "geometry": {
        "type": "Point",
        "coordinates": [
          140.043861,
          35.875831
        ]
      },
      "properties": {
        "NO": 24010,
        "共通ID": "E1222200033121",
        "都道府県名及び市町村名": "千葉県我孫子市",
        "施設・場所名": "天王台近隣センター",
        "住所": "千葉県我孫子市柴崎台2-15-8",
        "指定緊急避難場所との住所同一": "",
        "その他市町村長が必要と認める事項": null,
        "受入対象者": "要配慮者",
        "備考": ""
      }
    },
    {
      "type": "Feature",
      "geometry": {
        "type": "Point",
        "coordinates": [
          140.041754,
          35.878478
        ]
      },
      "properties": {
        "NO": 24011,
        "共通ID": "E1222200034111",
        "都道府県名及び市町村名": "千葉県我孫子市",
        "施設・場所名": "我孫子第三小学校",
        "住所": "千葉県我孫子市柴崎台3-3-1",
        "指定緊急避難場所との住所同一": "1",
        "その他市町村長が必要と認める事項": null,
        "受入対象者": null,
        "備考": ""
      }
    },
    {
      "type": "Feature",
      "geometry": {
        "type": "Point",
        "coordinates": [
          140.025626,
          35.863164
        ]
      },
      "properties": {
        "NO": 24012,
        "共通ID": "E1222200036111",
        "都道府県名及び市町村名": "千葉県我孫子市",
        "施設・場所名": "県立我孫子高等学校",
        "住所": "千葉県我孫子市若松18-4",
        "指定緊急避難場所との住所同一": "1",
        "その他市町村長が必要と認める事項": null,
        "受入対象者": null,
        "備考": ""
      }
    },
    {
      "type": "Feature",
      "geometry": {
        "type": "Point",
        "coordinates": [
          140.014784,
          35.866311
        ]
      },
      "properties": {
        "NO": 24013,
        "共通ID": "E1222200037111",
        "都道府県名及び市町村名": "千葉県我孫子市",
        "施設・場所名": "我孫子市生涯学習センター",
        "住所": "千葉県我孫子市若松26-4",
        "指定緊急避難場所との住所同一": "",
        "その他市町村長が必要と認める事項": null,
        "受入対象者": null,
        "備考": ""
      }
    },
    {
      "type": "Feature",
      "geometry": {
        "type": "Point",
        "coordinates": [
          140.019801,
          35.87084
        ]
      },
      "properties": {
        "NO": 24014,
        "共通ID": "E1222200067121",
        "都道府県名及び市町村名": "千葉県我孫子市",
        "施設・場所名": "寿保育園",
        "住所": "千葉県我孫子市寿1-13-11",
        "指定緊急避難場所との住所同一": "",
        "その他市町村長が必要と認める事項": "",
        "受入対象者": "乳幼児・児童",
        "備考": ""
      }
    },
    {
      "type": "Feature",
      "geometry": {
        "type": "Point",
        "coordinates": [
          140.020293,
          35.869135
        ]
      },
      "properties": {
        "NO": 24015,
        "共通ID": "E1222200038111",
        "都道府県名及び市町村名": "千葉県我孫子市",
        "施設・場所名": "我孫子第一小学校",
        "住所": "千葉県我孫子市寿1-22-10",
        "指定緊急避難場所との住所同一": "1",
        "その他市町村長が必要と認める事項": null,
        "受入対象者": null,
        "備考": ""
      }
    },
    {
      "type": "Feature",
      "geometry": {
        "type": "Point",
        "coordinates": [
          140.129894,
          35.844418
        ]
      },
      "properties": {
        "NO": 24016,
        "共通ID": "E1222200039111",
        "都道府県名及び市町村名": "千葉県我孫子市",
        "施設・場所名": "県立我孫子東高等学校",
        "住所": "千葉県我孫子市新新田172",
        "指定緊急避難場所との住所同一": "1",
        "その他市町村長が必要と認める事項": null,
        "受入対象者": null,
        "備考": ""
      }
    },
    {
      "type": "Feature",
      "geometry": {
        "type": "Point",
        "coordinates": [
          140.102339,
          35.867914
        ]
      },
      "properties": {
        "NO": 24017,
        "共通ID": "E1222200040111",
        "都道府県名及び市町村名": "千葉県我孫子市",
        "施設・場所名": "新木小学校",
        "住所": "千葉県我孫子市新木1460",
        "指定緊急避難場所との住所同一": "1",
        "その他市町村長が必要と認める事項": null,
        "受入対象者": null,
        "備考": ""
      }
    },
    {
      "type": "Feature",
      "geometry": {
        "type": "Point",
        "coordinates": [
          140.10279,
          35.866752
        ]
      },
      "properties": {
        "NO": 24018,
        "共通ID": "E1222200041121",
        "都道府県名及び市町村名": "千葉県我孫子市",
        "施設・場所名": "新木近隣センター",
        "住所": "千葉県我孫子市新木1500",
        "指定緊急避難場所との住所同一": "",
        "その他市町村長が必要と認める事項": null,
        "受入対象者": "要配慮者",
        "備考": ""
      }
    },
    {
      "type": "Feature",
      "geometry": {
        "type": "Point",
        "coordinates": [
          140.099657,
          35.86625
        ]
      },
      "properties": {
        "NO": 24019,
        "共通ID": "E1222200042123",
        "都道府県名及び市町村名": "千葉県我孫子市",
        "施設・場所名": "障害者福祉センター",
        "住所": "千葉県我孫子市新木1637",
        "指定緊急避難場所との住所同一": "",
        "その他市町村長が必要と認める事項": null,
        "受入対象者": "障がい者",
        "備考": ""
      }
    },
    {
      "type": "Feature",
      "geometry": {
        "type": "Point",
        "coordinates": [
          140.099065,
          35.865656
        ]
      },
      "properties": {
        "NO": 24020,
        "共通ID": "E1222200042122",
        "都道府県名及び市町村名": "千葉県我孫子市",
        "施設・場所名": "あらき園",
        "住所": "千葉県我孫子市新木1637",
        "指定緊急避難場所との住所同一": "",
        "その他市町村長が必要と認める事項": null,
        "受入対象者": "障がい者",
        "備考": ""
      }
    },
    {
      "type": "Feature",
      "geometry": {
        "type": "Point",
        "coordinates": [
          140.099306,
          35.865967
        ]
      },
      "properties": {
        "NO": 24021,
        "共通ID": "E1222200042121",
        "都道府県名及び市町村名": "千葉県我孫子市",
        "施設・場所名": "こども発達センター",
        "住所": "千葉県我孫子市新木1637",
        "指定緊急避難場所との住所同一": "",
        "その他市町村長が必要と認める事項": null,
        "受入対象者": "乳幼児・児童",
        "備考": ""
      }
    },
    {
      "type": "Feature",
      "geometry": {
        "type": "Point",
        "coordinates": [
          140.100361,
          35.867011
        ]
      },
      "properties": {
        "NO": 24022,
        "共通ID": "E1222200043121",
        "都道府県名及び市町村名": "千葉県我孫子市",
        "施設・場所名": "県立我孫子特別支援学校",
        "住所": "千葉県我孫子市新木1685",
        "指定緊急避難場所との住所同一": "",
        "その他市町村長が必要と認める事項": null,
        "受入対象者": "障がい者",
        "備考": ""
      }
    },
    {
      "type": "Feature",
      "geometry": {
        "type": "Point",
        "coordinates": [
          140.052078,
          35.877426
        ]
      },
      "properties": {
        "NO": 24023,
        "共通ID": "E1222200066121",
        "都道府県名及び市町村名": "千葉県我孫子市",
        "施設・場所名": "特別養護老人ホーム　けやきの里",
        "住所": "千葉県我孫子市青山417",
        "指定緊急避難場所との住所同一": "",
        "その他市町村長が必要と認める事項": "",
        "受入対象者": "高齢者、障害者",
        "備考": ""
      }
    },
    {
      "type": "Feature",
      "geometry": {
        "type": "Point",
        "coordinates": [
          140.087647,
          35.866109
        ]
      },
      "properties": {
        "NO": 24024,
        "共通ID": "E1222200046111",
        "都道府県名及び市町村名": "千葉県我孫子市",
        "施設・場所名": "湖北小学校",
        "住所": "千葉県我孫子市中里95",
        "指定緊急避難場所との住所同一": "1",
        "その他市町村長が必要と認める事項": null,
        "受入対象者": null,
        "備考": ""
      }
    },
    {
      "type": "Feature",
      "geometry": {
        "type": "Point",
        "coordinates": [
          140.060483,
          35.863637
        ]
      },
      "properties": {
        "NO": 24025,
        "共通ID": "E1222200048111",
        "都道府県名及び市町村名": "千葉県我孫子市",
        "施設・場所名": "中央学院高等学校",
        "住所": "千葉県我孫子市都部765",
        "指定緊急避難場所との住所同一": "1",
        "その他市町村長が必要と認める事項": null,
        "受入対象者": null,
        "備考": ""
      }
    },
    {
      "type": "Feature",
      "geometry": {
        "type": "Point",
        "coordinates": [
          140.048297,
          35.866319
        ]
      },
      "properties": {
        "NO": 24026,
        "共通ID": "E1222200049121",
        "都道府県名及び市町村名": "千葉県我孫子市",
        "施設・場所名": "近隣センターこもれび",
        "住所": "千葉県我孫子市東我孫子1-41-33",
        "指定緊急避難場所との住所同一": "",
        "その他市町村長が必要と認める事項": null,
        "受入対象者": "要配慮者",
        "備考": ""
      }
    },
    {
      "type": "Feature",
      "geometry": {
        "type": "Point",
        "coordinates": [
          140.045883,
          35.86752
        ]
      },
      "properties": {
        "NO": 24027,
        "共通ID": "E1222200050121",
        "都道府県名及び市町村名": "千葉県我孫子市",
        "施設・場所名": "東あびこ聖華保育園",
        "住所": "千葉県我孫子市東我孫子1-9-31",
        "指定緊急避難場所との住所同一": "",
        "その他市町村長が必要と認める事項": null,
        "受入対象者": "乳幼児・児童",
        "備考": ""
      }
    },
    {
      "type": "Feature",
      "geometry": {
        "type": "Point",
        "coordinates": [
          140.086912,
          35.863739
        ]
      },
      "properties": {
        "NO": 24028,
        "共通ID": "E1222200052121",
        "都道府県名及び市町村名": "千葉県我孫子市",
        "施設・場所名": "県立湖北特別支援学校",
        "住所": "千葉県我孫子市日秀70",
        "指定緊急避難場所との住所同一": "",
        "その他市町村長が必要と認める事項": null,
        "受入対象者": "障がい者",
        "備考": ""
      }
    },
    {
      "type": "Feature",
      "geometry": {
        "type": "Point",
        "coordinates": [
          140.004711,
          35.871689
        ]
      },
      "properties": {
        "NO": 24029,
        "共通ID": "E1222200053111",
        "都道府県名及び市町村名": "千葉県我孫子市",
        "施設・場所名": "我孫子第四小学校",
        "住所": "千葉県我孫子市白山3-2-1",
        "指定緊急避難場所との住所同一": "1",
        "その他市町村長が必要と認める事項": null,
        "受入対象者": null,
        "備考": ""
      }
    },
    {
      "type": "Feature",
      "geometry": {
        "type": "Point",
        "coordinates": [
          140.004739,
          35.869773
        ]
      },
      "properties": {
        "NO": 24030,
        "共通ID": "E1222200054111",
        "都道府県名及び市町村名": "千葉県我孫子市",
        "施設・場所名": "白山中学校",
        "住所": "千葉県我孫子市白山3-7-3",
        "指定緊急避難場所との住所同一": "1",
        "その他市町村長が必要と認める事項": null,
        "受入対象者": null,
        "備考": ""
      }
    },
    {
      "type": "Feature",
      "geometry": {
        "type": "Point",
        "coordinates": [
          140.131282,
          35.856333
        ]
      },
      "properties": {
        "NO": 24031,
        "共通ID": "E1222200055111",
        "都道府県名及び市町村名": "千葉県我孫子市",
        "施設・場所名": "布佐小学校",
        "住所": "千葉県我孫子市布佐1217",
        "指定緊急避難場所との住所同一": "1",
        "その他市町村長が必要と認める事項": null,
        "受入対象者": null,
        "備考": ""
      }
    },
    {
      "type": "Feature",
      "geometry": {
        "type": "Point",
        "coordinates": [
          140.133087,
          35.855749
        ]
      },
      "properties": {
        "NO": 24032,
        "共通ID": "E1222200056111",
        "都道府県名及び市町村名": "千葉県我孫子市",
        "施設・場所名": "布佐中学校",
        "住所": "千葉県我孫子市布佐1301",
        "指定緊急避難場所との住所同一": "1",
        "その他市町村長が必要と認める事項": null,
        "受入対象者": null,
        "備考": ""
      }
    },
    {
      "type": "Feature",
      "geometry": {
        "type": "Point",
        "coordinates": [
          140.124839,
          35.85564
        ]
      },
      "properties": {
        "NO": 24033,
        "共通ID": "E1222200057121",
        "都道府県名及び市町村名": "千葉県我孫子市",
        "施設・場所名": "特別養護老人ホーム　アコモード",
        "住所": "千葉県我孫子市布佐1559-2",
        "指定緊急避難場所との住所同一": "",
        "その他市町村長が必要と認める事項": null,
        "受入対象者": "高齢者",
        "備考": ""
      }
    },
    {
      "type": "Feature",
      "geometry": {
        "type": "Point",
        "coordinates": [
          140.135126,
          35.855747
        ]
      },
      "properties": {
        "NO": 24034,
        "共通ID": "E1222200058121",
        "都道府県名及び市町村名": "千葉県我孫子市",
        "施設・場所名": "布佐宝保育園",
        "住所": "千葉県我孫子市布佐2318",
        "指定緊急避難場所との住所同一": "",
        "その他市町村長が必要と認める事項": null,
        "受入対象者": "乳幼児・児童",
        "備考": ""
      }
    },
    {
      "type": "Feature",
      "geometry": {
        "type": "Point",
        "coordinates": [
          140.137601,
          35.851877
        ]
      },
      "properties": {
        "NO": 24035,
        "共通ID": "E1222200059121",
        "都道府県名及び市町村名": "千葉県我孫子市",
        "施設・場所名": "近隣センターふさの風",
        "住所": "千葉県我孫子市布佐2972-1",
        "指定緊急避難場所との住所同一": "",
        "その他市町村長が必要と認める事項": null,
        "受入対象者": "高齢者",
        "備考": ""
      }
    },
    {
      "type": "Feature",
      "geometry": {
        "type": "Point",
        "coordinates": [
          140.125393,
          35.856841
        ]
      },
      "properties": {
        "NO": 24036,
        "共通ID": "E1222200060121",
        "都道府県名及び市町村名": "千葉県我孫子市",
        "施設・場所名": "布佐南近隣センター",
        "住所": "千葉県我孫子市布佐平和台4-1-30",
        "指定緊急避難場所との住所同一": "",
        "その他市町村長が必要と認める事項": null,
        "受入対象者": "要配慮者",
        "備考": ""
      }
    },
    {
      "type": "Feature",
      "geometry": {
        "type": "Point",
        "coordinates": [
          140.120699,
          35.856888
        ]
      },
      "properties": {
        "NO": 24037,
        "共通ID": "E1222200061111",
        "都道府県名及び市町村名": "千葉県我孫子市",
        "施設・場所名": "布佐南小学校",
        "住所": "千葉県我孫子市布佐平和台5-1-1",
        "指定緊急避難場所との住所同一": "1",
        "その他市町村長が必要と認める事項": null,
        "受入対象者": null,
        "備考": ""
      }
    },
    {
      "type": "Feature",
      "geometry": {
        "type": "Point",
        "coordinates": [
          140.015515,
          35.875269
        ]
      },
      "properties": {
        "NO": 24038,
        "共通ID": "E1222200063121",
        "都道府県名及び市町村名": "千葉県我孫子市",
        "施設・場所名": "我孫子北近隣センター　並木本館",
        "住所": "千葉県我孫子市並木5-4-6",
        "指定緊急避難場所との住所同一": "",
        "その他市町村長が必要と認める事項": null,
        "受入対象者": "要配慮者",
        "備考": ""
      }
    },
    {
      "type": "Feature",
      "geometry": {
        "type": "Point",
        "coordinates": [
          140.012649,
          35.872444
        ]
      },
      "properties": {
        "NO": 24039,
        "共通ID": "E1222200064121",
        "都道府県名及び市町村名": "千葉県我孫子市",
        "施設・場所名": "我孫子南近隣センター",
        "住所": "千葉県我孫子市本町3-1-2",
        "指定緊急避難場所との住所同一": "",
        "その他市町村長が必要と認める事項": "",
        "受入対象者": "要配慮者",
        "備考": ""
      }
    },
    {
      "type": "Feature",
      "geometry": {
        "type": "Point",
        "coordinates": [
          140.013078,
          35.869598
        ]
      },
      "properties": {
        "NO": 24040,
        "共通ID": "E1222200065121",
        "都道府県名及び市町村名": "千葉県我孫子市",
        "施設・場所名": "聖華みどり保育園",
        "住所": "千葉県我孫子市緑1-6-2",
        "指定緊急避難場所との住所同一": "",
        "その他市町村長が必要と認める事項": null,
        "受入対象者": "乳幼児・児童",
        "備考": ""
      }
    }
  ]
}