{
  "type": "FeatureCollection",
  "name": "122297",
  "features": [
    {
      "type": "Feature",
      "geometry": {
        "type": "Point",
        "coordinates": [
          140.036913,
          35.387494
        ]
      },
      "properties": {
        "NO": 24312,
        "共通ID": "E1222900001121",
        "都道府県名及び市町村名": "千葉県袖ケ浦市",
        "施設・場所名": "平川公民館",
        "住所": "千葉県袖ケ浦市横田115-1",
        "指定緊急避難場所との住所同一": "1",
        "その他市町村長が必要と認める事項": null,
        "受入対象者": "要配慮者",
        "備考": ""
      }
    },
    {
      "type": "Feature",
      "geometry": {
        "type": "Point",
        "coordinates": [
          140.036913,
          35.387494
        ]
      },
      "properties": {
        "NO": 24313,
        "共通ID": "E1222900001111",
        "都道府県名及び市町村名": "千葉県袖ケ浦市",
        "施設・場所名": "平川公民館",
        "住所": "千葉県袖ケ浦市横田115-1",
        "指定緊急避難場所との住所同一": "1",
        "その他市町村長が必要と認める事項": null,
        "受入対象者": null,
        "備考": ""
      }
    },
    {
      "type": "Feature",
      "geometry": {
        "type": "Point",
        "coordinates": [
          140.016545,
          35.382176
        ]
      },
      "properties": {
        "NO": 24314,
        "共通ID": "E1222900002111",
        "都道府県名及び市町村名": "千葉県袖ケ浦市",
        "施設・場所名": "中川小学校",
        "住所": "千葉県袖ケ浦市横田2583",
        "指定緊急避難場所との住所同一": "1",
        "その他市町村長が必要と認める事項": null,
        "受入対象者": null,
        "備考": ""
      }
    },
    {
      "type": "Feature",
      "geometry": {
        "type": "Point",
        "coordinates": [
          140.016148,
          35.384499
        ]
      },
      "properties": {
        "NO": 24315,
        "共通ID": "E1222900003111",
        "都道府県名及び市町村名": "千葉県袖ケ浦市",
        "施設・場所名": "中川幼稚園",
        "住所": "千葉県袖ケ浦市横田2637",
        "指定緊急避難場所との住所同一": "1",
        "その他市町村長が必要と認める事項": null,
        "受入対象者": null,
        "備考": ""
      }
    },
    {
      "type": "Feature",
      "geometry": {
        "type": "Point",
        "coordinates": [
          140.034207,
          35.390267
        ]
      },
      "properties": {
        "NO": 24316,
        "共通ID": "E1222900004111",
        "都道府県名及び市町村名": "千葉県袖ケ浦市",
        "施設・場所名": "平川中学校",
        "住所": "千葉県袖ケ浦市横田500",
        "指定緊急避難場所との住所同一": "1",
        "その他市町村長が必要と認める事項": null,
        "受入対象者": null,
        "備考": ""
      }
    },
    {
      "type": "Feature",
      "geometry": {
        "type": "Point",
        "coordinates": [
          139.998984,
          35.419141
        ]
      },
      "properties": {
        "NO": 24317,
        "共通ID": "E1222900005111",
        "都道府県名及び市町村名": "千葉県袖ケ浦市",
        "施設・場所名": "根形公民館",
        "住所": "千葉県袖ケ浦市下新田1277",
        "指定緊急避難場所との住所同一": "1",
        "その他市町村長が必要と認める事項": null,
        "受入対象者": null,
        "備考": ""
      }
    },
    {
      "type": "Feature",
      "geometry": {
        "type": "Point",
        "coordinates": [
          139.998984,
          35.419141
        ]
      },
      "properties": {
        "NO": 24318,
        "共通ID": "E1222900005121",
        "都道府県名及び市町村名": "千葉県袖ケ浦市",
        "施設・場所名": "根形公民館",
        "住所": "千葉県袖ケ浦市下新田1277",
        "指定緊急避難場所との住所同一": "1",
        "その他市町村長が必要と認める事項": null,
        "受入対象者": "要配慮者",
        "備考": ""
      }
    },
    {
      "type": "Feature",
      "geometry": {
        "type": "Point",
        "coordinates": [
          140.008247,
          35.365429
        ]
      },
      "properties": {
        "NO": 24319,
        "共通ID": "E1222900006111",
        "都道府県名及び市町村名": "千葉県袖ケ浦市",
        "施設・場所名": "吉野田保育所",
        "住所": "千葉県袖ケ浦市吉野田198",
        "指定緊急避難場所との住所同一": "1",
        "その他市町村長が必要と認める事項": null,
        "受入対象者": null,
        "備考": ""
      }
    },
    {
      "type": "Feature",
      "geometry": {
        "type": "Point",
        "coordinates": [
          140.01672,
          35.374255
        ]
      },
      "properties": {
        "NO": 24320,
        "共通ID": "E1222900007111",
        "都道府県名及び市町村名": "千葉県袖ケ浦市",
        "施設・場所名": "富岡分館",
        "住所": "千葉県袖ケ浦市吉野田622-2",
        "指定緊急避難場所との住所同一": "1",
        "その他市町村長が必要と認める事項": null,
        "受入対象者": null,
        "備考": ""
      }
    },
    {
      "type": "Feature",
      "geometry": {
        "type": "Point",
        "coordinates": [
          140.002157,
          35.452473
        ]
      },
      "properties": {
        "NO": 24321,
        "共通ID": "E1222900008111",
        "都道府県名及び市町村名": "千葉県袖ケ浦市",
        "施設・場所名": "長浦中学校",
        "住所": "千葉県袖ケ浦市久保田129",
        "指定緊急避難場所との住所同一": "1",
        "その他市町村長が必要と認める事項": null,
        "受入対象者": null,
        "備考": ""
      }
    },
    {
      "type": "Feature",
      "geometry": {
        "type": "Point",
        "coordinates": [
          139.95501,
          35.428087
        ]
      },
      "properties": {
        "NO": 24322,
        "共通ID": "E1222900009111",
        "都道府県名及び市町村名": "千葉県袖ケ浦市",
        "施設・場所名": "昭和小学校",
        "住所": "千葉県袖ケ浦市坂戸市場1431",
        "指定緊急避難場所との住所同一": "1",
        "その他市町村長が必要と認める事項": null,
        "受入対象者": null,
        "備考": ""
      }
    },
    {
      "type": "Feature",
      "geometry": {
        "type": "Point",
        "coordinates": [
          139.953753,
          35.422961
        ]
      },
      "properties": {
        "NO": 24323,
        "共通ID": "E1222900010111",
        "都道府県名及び市町村名": "千葉県袖ケ浦市",
        "施設・場所名": "市民会館",
        "住所": "千葉県袖ケ浦市坂戸市場1566",
        "指定緊急避難場所との住所同一": "1",
        "その他市町村長が必要と認める事項": null,
        "受入対象者": null,
        "備考": ""
      }
    },
    {
      "type": "Feature",
      "geometry": {
        "type": "Point",
        "coordinates": [
          139.953753,
          35.422961
        ]
      },
      "properties": {
        "NO": 24324,
        "共通ID": "E1222900010121",
        "都道府県名及び市町村名": "千葉県袖ケ浦市",
        "施設・場所名": "市民会館",
        "住所": "千葉県袖ケ浦市坂戸市場1566",
        "指定緊急避難場所との住所同一": "1",
        "その他市町村長が必要と認める事項": null,
        "受入対象者": "要配慮者",
        "備考": ""
      }
    },
    {
      "type": "Feature",
      "geometry": {
        "type": "Point",
        "coordinates": [
          140.009874,
          35.422619
        ]
      },
      "properties": {
        "NO": 24325,
        "共通ID": "E1222900011111",
        "都道府県名及び市町村名": "千葉県袖ケ浦市",
        "施設・場所名": "健康づくり支援センター",
        "住所": "千葉県袖ケ浦市三ツ作1862-12",
        "指定緊急避難場所との住所同一": "1",
        "その他市町村長が必要と認める事項": null,
        "受入対象者": null,
        "備考": ""
      }
    },
    {
      "type": "Feature",
      "geometry": {
        "type": "Point",
        "coordinates": [
          140.00229,
          35.41453
        ]
      },
      "properties": {
        "NO": 24326,
        "共通ID": "E1222900012111",
        "都道府県名及び市町村名": "千葉県袖ケ浦市",
        "施設・場所名": "根形中学校",
        "住所": "千葉県袖ケ浦市三ツ作741",
        "指定緊急避難場所との住所同一": "1",
        "その他市町村長が必要と認める事項": null,
        "受入対象者": null,
        "備考": ""
      }
    },
    {
      "type": "Feature",
      "geometry": {
        "type": "Point",
        "coordinates": [
          140.00122,
          35.414056
        ]
      },
      "properties": {
        "NO": 24327,
        "共通ID": "E1222900013111",
        "都道府県名及び市町村名": "千葉県袖ケ浦市",
        "施設・場所名": "根形小学校",
        "住所": "千葉県袖ケ浦市三ツ作761",
        "指定緊急避難場所との住所同一": "1",
        "その他市町村長が必要と認める事項": null,
        "受入対象者": null,
        "備考": ""
      }
    },
    {
      "type": "Feature",
      "geometry": {
        "type": "Point",
        "coordinates": [
          140.05734,
          35.388951
        ]
      },
      "properties": {
        "NO": 24328,
        "共通ID": "E1222900014111",
        "都道府県名及び市町村名": "千葉県袖ケ浦市",
        "施設・場所名": "平川保育所",
        "住所": "千葉県袖ケ浦市三箇1965",
        "指定緊急避難場所との住所同一": "1",
        "その他市町村長が必要と認める事項": null,
        "受入対象者": null,
        "備考": ""
      }
    },
    {
      "type": "Feature",
      "geometry": {
        "type": "Point",
        "coordinates": [
          139.972352,
          35.431549
        ]
      },
      "properties": {
        "NO": 24329,
        "共通ID": "E1222900015111",
        "都道府県名及び市町村名": "千葉県袖ケ浦市",
        "施設・場所名": "昭和中学校",
        "住所": "千葉県袖ケ浦市神納3204",
        "指定緊急避難場所との住所同一": "1",
        "その他市町村長が必要と認める事項": null,
        "受入対象者": null,
        "備考": ""
      }
    },
    {
      "type": "Feature",
      "geometry": {
        "type": "Point",
        "coordinates": [
          139.967564,
          35.423757
        ]
      },
      "properties": {
        "NO": 24330,
        "共通ID": "E1222900016111",
        "都道府県名及び市町村名": "千葉県袖ケ浦市",
        "施設・場所名": "袖ヶ浦高校",
        "住所": "千葉県袖ケ浦市神納530",
        "指定緊急避難場所との住所同一": "1",
        "その他市町村長が必要と認める事項": null,
        "受入対象者": null,
        "備考": ""
      }
    },
    {
      "type": "Feature",
      "geometry": {
        "type": "Point",
        "coordinates": [
          140.068169,
          35.411292
        ]
      },
      "properties": {
        "NO": 24331,
        "共通ID": "E1222900017111",
        "都道府県名及び市町村名": "千葉県袖ケ浦市",
        "施設・場所名": "幽谷分校",
        "住所": "千葉県袖ケ浦市川原井470",
        "指定緊急避難場所との住所同一": "1",
        "その他市町村長が必要と認める事項": null,
        "受入対象者": null,
        "備考": ""
      }
    },
    {
      "type": "Feature",
      "geometry": {
        "type": "Point",
        "coordinates": [
          139.997082,
          35.43575
        ]
      },
      "properties": {
        "NO": 24332,
        "共通ID": "E1222900018111",
        "都道府県名及び市町村名": "千葉県袖ケ浦市",
        "施設・場所名": "蔵波中学校",
        "住所": "千葉県袖ケ浦市蔵波2967-2",
        "指定緊急避難場所との住所同一": "1",
        "その他市町村長が必要と認める事項": null,
        "受入対象者": null,
        "備考": ""
      }
    },
    {
      "type": "Feature",
      "geometry": {
        "type": "Point",
        "coordinates": [
          140.005813,
          35.440908
        ]
      },
      "properties": {
        "NO": 24333,
        "共通ID": "E1222900019111",
        "都道府県名及び市町村名": "千葉県袖ケ浦市",
        "施設・場所名": "長浦公民館",
        "住所": "千葉県袖ケ浦市蔵波513-1",
        "指定緊急避難場所との住所同一": "1",
        "その他市町村長が必要と認める事項": null,
        "受入対象者": null,
        "備考": ""
      }
    },
    {
      "type": "Feature",
      "geometry": {
        "type": "Point",
        "coordinates": [
          140.005813,
          35.440908
        ]
      },
      "properties": {
        "NO": 24334,
        "共通ID": "E1222900019121",
        "都道府県名及び市町村名": "千葉県袖ケ浦市",
        "施設・場所名": "長浦公民館",
        "住所": "千葉県袖ケ浦市蔵波513-1",
        "指定緊急避難場所との住所同一": "1",
        "その他市町村長が必要と認める事項": null,
        "受入対象者": "要配慮者",
        "備考": ""
      }
    },
    {
      "type": "Feature",
      "geometry": {
        "type": "Point",
        "coordinates": [
          139.998438,
          35.442122
        ]
      },
      "properties": {
        "NO": 24335,
        "共通ID": "E1222900020111",
        "都道府県名及び市町村名": "千葉県袖ケ浦市",
        "施設・場所名": "蔵波小学校",
        "住所": "千葉県袖ケ浦市蔵波台4-19-1",
        "指定緊急避難場所との住所同一": "1",
        "その他市町村長が必要と認める事項": null,
        "受入対象者": null,
        "備考": ""
      }
    },
    {
      "type": "Feature",
      "geometry": {
        "type": "Point",
        "coordinates": [
          140.021623,
          35.459104
        ]
      },
      "properties": {
        "NO": 24336,
        "共通ID": "E1222900021111",
        "都道府県名及び市町村名": "千葉県袖ケ浦市",
        "施設・場所名": "代宿公民館",
        "住所": "千葉県袖ケ浦市代宿74-1",
        "指定緊急避難場所との住所同一": "1",
        "その他市町村長が必要と認める事項": null,
        "受入対象者": null,
        "備考": ""
      }
    },
    {
      "type": "Feature",
      "geometry": {
        "type": "Point",
        "coordinates": [
          139.993192,
          35.451172
        ]
      },
      "properties": {
        "NO": 24337,
        "共通ID": "E1222900022111",
        "都道府県名及び市町村名": "千葉県袖ケ浦市",
        "施設・場所名": "臨海スポーツセンター",
        "住所": "千葉県袖ケ浦市長浦1-57",
        "指定緊急避難場所との住所同一": "1",
        "その他市町村長が必要と認める事項": null,
        "受入対象者": null,
        "備考": ""
      }
    },
    {
      "type": "Feature",
      "geometry": {
        "type": "Point",
        "coordinates": [
          140.003576,
          35.449636
        ]
      },
      "properties": {
        "NO": 24338,
        "共通ID": "E1222900023111",
        "都道府県名及び市町村名": "千葉県袖ケ浦市",
        "施設・場所名": "長浦小学校",
        "住所": "千葉県袖ケ浦市長浦駅前6-1-4",
        "指定緊急避難場所との住所同一": "1",
        "その他市町村長が必要と認める事項": null,
        "受入対象者": null,
        "備考": ""
      }
    },
    {
      "type": "Feature",
      "geometry": {
        "type": "Point",
        "coordinates": [
          139.965984,
          35.43856
        ]
      },
      "properties": {
        "NO": 24339,
        "共通ID": "E1222900024111",
        "都道府県名及び市町村名": "千葉県袖ケ浦市",
        "施設・場所名": "奈良輪小学校",
        "住所": "千葉県袖ケ浦市奈良輪425-1",
        "指定緊急避難場所との住所同一": "1",
        "その他市町村長が必要と認める事項": null,
        "受入対象者": null,
        "備考": ""
      }
    },
    {
      "type": "Feature",
      "geometry": {
        "type": "Point",
        "coordinates": [
          140.048023,
          35.403532
        ]
      },
      "properties": {
        "NO": 24340,
        "共通ID": "E1222900026111",
        "都道府県名及び市町村名": "千葉県袖ケ浦市",
        "施設・場所名": "平岡小学校",
        "住所": "千葉県袖ケ浦市野里1503",
        "指定緊急避難場所との住所同一": "1",
        "その他市町村長が必要と認める事項": null,
        "受入対象者": null,
        "備考": ""
      }
    },
    {
      "type": "Feature",
      "geometry": {
        "type": "Point",
        "coordinates": [
          140.043982,
          35.403726
        ]
      },
      "properties": {
        "NO": 24341,
        "共通ID": "E1222900027111",
        "都道府県名及び市町村名": "千葉県袖ケ浦市",
        "施設・場所名": "平岡公民館",
        "住所": "千葉県袖ケ浦市野里1563-1",
        "指定緊急避難場所との住所同一": "1",
        "その他市町村長が必要と認める事項": null,
        "受入対象者": null,
        "備考": ""
      }
    },
    {
      "type": "Feature",
      "geometry": {
        "type": "Point",
        "coordinates": [
          140.044317,
          35.403719
        ]
      },
      "properties": {
        "NO": 24342,
        "共通ID": "E1222900027121",
        "都道府県名及び市町村名": "千葉県袖ケ浦市",
        "施設・場所名": "平岡公民館",
        "住所": "千葉県袖ケ浦市野里1563-1",
        "指定緊急避難場所との住所同一": "1",
        "その他市町村長が必要と認める事項": null,
        "受入対象者": "要配慮者",
        "備考": ""
      }
    }
  ]
}