{
  "type": "FeatureCollection",
  "name": "122254",
  "features": [
    {
      "type": "Feature",
      "geometry": {
        "type": "Point",
        "coordinates": [
          139.922163,
          35.315448
        ]
      },
      "properties": {
        "NO": 24093,
        "共通ID": "E1222500001111",
        "都道府県名及び市町村名": "千葉県君津市",
        "施設・場所名": "外箕輪小学校",
        "住所": "千葉県君津市外箕輪1-34-1",
        "指定緊急避難場所との住所同一": "1",
        "その他市町村長が必要と認める事項": null,
        "受入対象者": null,
        "備考": ""
      }
    },
    {
      "type": "Feature",
      "geometry": {
        "type": "Point",
        "coordinates": [
          139.901343,
          35.329958
        ]
      },
      "properties": {
        "NO": 24094,
        "共通ID": "E1222500002111",
        "都道府県名及び市町村名": "千葉県君津市",
        "施設・場所名": "生涯学習交流センター",
        "住所": "千葉県君津市久保2-13-2",
        "指定緊急避難場所との住所同一": "1",
        "その他市町村長が必要と認める事項": null,
        "受入対象者": null,
        "備考": ""
      }
    },
    {
      "type": "Feature",
      "geometry": {
        "type": "Point",
        "coordinates": [
          140.082321,
          35.297703
        ]
      },
      "properties": {
        "NO": 24095,
        "共通ID": "E1222500004111",
        "都道府県名及び市町村名": "千葉県君津市",
        "施設・場所名": "旧久留里中学校",
        "住所": "千葉県君津市久留里474",
        "指定緊急避難場所との住所同一": "1",
        "その他市町村長が必要と認める事項": "",
        "受入対象者": "",
        "備考": ""
      }
    },
    {
      "type": "Feature",
      "geometry": {
        "type": "Point",
        "coordinates": [
          140.082047,
          35.296057
        ]
      },
      "properties": {
        "NO": 24096,
        "共通ID": "E1222500004112",
        "都道府県名及び市町村名": "千葉県君津市",
        "施設・場所名": "上総小学校",
        "住所": "千葉県君津市久留里474",
        "指定緊急避難場所との住所同一": "1",
        "その他市町村長が必要と認める事項": "",
        "受入対象者": "",
        "備考": ""
      }
    },
    {
      "type": "Feature",
      "geometry": {
        "type": "Point",
        "coordinates": [
          140.07655,
          35.295348
        ]
      },
      "properties": {
        "NO": 24097,
        "共通ID": "E1222500005111",
        "都道府県名及び市町村名": "千葉県君津市",
        "施設・場所名": "上総地域交流センター",
        "住所": "千葉県君津市久留里市場192-5",
        "指定緊急避難場所との住所同一": "1",
        "その他市町村長が必要と認める事項": null,
        "受入対象者": null,
        "備考": ""
      }
    },
    {
      "type": "Feature",
      "geometry": {
        "type": "Point",
        "coordinates": [
          139.927691,
          35.300909
        ]
      },
      "properties": {
        "NO": 24098,
        "共通ID": "E1222500007111",
        "都道府県名及び市町村名": "千葉県君津市",
        "施設・場所名": "周南中学校",
        "住所": "千葉県君津市宮下1-4-1",
        "指定緊急避難場所との住所同一": "1",
        "その他市町村長が必要と認める事項": null,
        "受入対象者": null,
        "備考": ""
      }
    },
    {
      "type": "Feature",
      "geometry": {
        "type": "Point",
        "coordinates": [
          139.930523,
          35.298575
        ]
      },
      "properties": {
        "NO": 24099,
        "共通ID": "E1222500008111",
        "都道府県名及び市町村名": "千葉県君津市",
        "施設・場所名": "周南小学校",
        "住所": "千葉県君津市宮下2-25-5",
        "指定緊急避難場所との住所同一": "1",
        "その他市町村長が必要と認める事項": null,
        "受入対象者": null,
        "備考": ""
      }
    },
    {
      "type": "Feature",
      "geometry": {
        "type": "Point",
        "coordinates": [
          140.059757,
          35.253064
        ]
      },
      "properties": {
        "NO": 24100,
        "共通ID": "E1222500009111",
        "都道府県名及び市町村名": "千葉県君津市",
        "施設・場所名": "旧松丘小学校",
        "住所": "千葉県君津市広岡1000",
        "指定緊急避難場所との住所同一": "1",
        "その他市町村長が必要と認める事項": null,
        "受入対象者": null,
        "備考": ""
      }
    },
    {
      "type": "Feature",
      "geometry": {
        "type": "Point",
        "coordinates": [
          140.057557,
          35.259748
        ]
      },
      "properties": {
        "NO": 24101,
        "共通ID": "E1222500010111",
        "都道府県名及び市町村名": "千葉県君津市",
        "施設・場所名": "松丘コミュニティセンター",
        "住所": "千葉県君津市広岡1840-1",
        "指定緊急避難場所との住所同一": "1",
        "その他市町村長が必要と認める事項": null,
        "受入対象者": null,
        "備考": ""
      }
    },
    {
      "type": "Feature",
      "geometry": {
        "type": "Point",
        "coordinates": [
          140.057614,
          35.252712
        ]
      },
      "properties": {
        "NO": 24102,
        "共通ID": "E1222500011111",
        "都道府県名及び市町村名": "千葉県君津市",
        "施設・場所名": "かずさあけぼの保育園",
        "住所": "千葉県君津市広岡955-3",
        "指定緊急避難場所との住所同一": "1",
        "その他市町村長が必要と認める事項": null,
        "受入対象者": null,
        "備考": ""
      }
    },
    {
      "type": "Feature",
      "geometry": {
        "type": "Point",
        "coordinates": [
          140.058633,
          35.252913
        ]
      },
      "properties": {
        "NO": 24103,
        "共通ID": "E1222500012111",
        "都道府県名及び市町村名": "千葉県君津市",
        "施設・場所名": "旧松丘中学校",
        "住所": "千葉県君津市広岡994",
        "指定緊急避難場所との住所同一": "1",
        "その他市町村長が必要と認める事項": null,
        "受入対象者": null,
        "備考": ""
      }
    },
    {
      "type": "Feature",
      "geometry": {
        "type": "Point",
        "coordinates": [
          139.968949,
          35.304479
        ]
      },
      "properties": {
        "NO": 24104,
        "共通ID": "E1222500072111",
        "都道府県名及び市町村名": "千葉県君津市",
        "施設・場所名": "生きがい支援センター",
        "住所": "千葉県君津市糠田103-1",
        "指定緊急避難場所との住所同一": "1",
        "その他市町村長が必要と認める事項": null,
        "受入対象者": null,
        "備考": ""
      }
    },
    {
      "type": "Feature",
      "geometry": {
        "type": "Point",
        "coordinates": [
          139.969501,
          35.305331
        ]
      },
      "properties": {
        "NO": 24105,
        "共通ID": "E1222500013111",
        "都道府県名及び市町村名": "千葉県君津市",
        "施設・場所名": "小糸公民館",
        "住所": "千葉県君津市糠田55",
        "指定緊急避難場所との住所同一": "1",
        "その他市町村長が必要と認める事項": null,
        "受入対象者": null,
        "備考": ""
      }
    },
    {
      "type": "Feature",
      "geometry": {
        "type": "Point",
        "coordinates": [
          140.059634,
          35.173604
        ]
      },
      "properties": {
        "NO": 24106,
        "共通ID": "E1222500014111",
        "都道府県名及び市町村名": "千葉県君津市",
        "施設・場所名": "旧香木原小学校",
        "住所": "千葉県君津市香木原269",
        "指定緊急避難場所との住所同一": "1",
        "その他市町村長が必要と認める事項": null,
        "受入対象者": null,
        "備考": ""
      }
    },
    {
      "type": "Feature",
      "geometry": {
        "type": "Point",
        "coordinates": [
          139.886959,
          35.341724
        ]
      },
      "properties": {
        "NO": 24107,
        "共通ID": "E1222500015111",
        "都道府県名及び市町村名": "千葉県君津市",
        "施設・場所名": "君津高等学校",
        "住所": "千葉県君津市坂田454",
        "指定緊急避難場所との住所同一": "1",
        "その他市町村長が必要と認める事項": null,
        "受入対象者": null,
        "備考": ""
      }
    },
    {
      "type": "Feature",
      "geometry": {
        "type": "Point",
        "coordinates": [
          139.885086,
          35.342559
        ]
      },
      "properties": {
        "NO": 24108,
        "共通ID": "E1222500016111",
        "都道府県名及び市町村名": "千葉県君津市",
        "施設・場所名": "旧坂田小学校",
        "住所": "千葉県君津市坂田523",
        "指定緊急避難場所との住所同一": "1",
        "その他市町村長が必要と認める事項": null,
        "受入対象者": null,
        "備考": ""
      }
    },
    {
      "type": "Feature",
      "geometry": {
        "type": "Point",
        "coordinates": [
          139.882785,
          35.341112
        ]
      },
      "properties": {
        "NO": 24109,
        "共通ID": "E1222500017111",
        "都道府県名及び市町村名": "千葉県君津市",
        "施設・場所名": "周西中学校",
        "住所": "千葉県君津市坂田560",
        "指定緊急避難場所との住所同一": "1",
        "その他市町村長が必要と認める事項": null,
        "受入対象者": null,
        "備考": ""
      }
    },
    {
      "type": "Feature",
      "geometry": {
        "type": "Point",
        "coordinates": [
          140.097289,
          35.234426
        ]
      },
      "properties": {
        "NO": 24110,
        "共通ID": "E1222500019111",
        "都道府県名及び市町村名": "千葉県君津市",
        "施設・場所名": "旧亀山中学校",
        "住所": "千葉県君津市坂畑223-1",
        "指定緊急避難場所との住所同一": "1",
        "その他市町村長が必要と認める事項": null,
        "受入対象者": null,
        "備考": ""
      }
    },
    {
      "type": "Feature",
      "geometry": {
        "type": "Point",
        "coordinates": [
          140.097541,
          35.234132
        ]
      },
      "properties": {
        "NO": 24111,
        "共通ID": "E1222500020111",
        "都道府県名及び市町村名": "千葉県君津市",
        "施設・場所名": "旧坂畑小学校",
        "住所": "千葉県君津市坂畑223-2",
        "指定緊急避難場所との住所同一": "1",
        "その他市町村長が必要と認める事項": null,
        "受入対象者": null,
        "備考": ""
      }
    },
    {
      "type": "Feature",
      "geometry": {
        "type": "Point",
        "coordinates": [
          140.096615,
          35.232885
        ]
      },
      "properties": {
        "NO": 24112,
        "共通ID": "E1222500021111",
        "都道府県名及び市町村名": "千葉県君津市",
        "施設・場所名": "亀山コミュニティセンター",
        "住所": "千葉県君津市坂畑321-1",
        "指定緊急避難場所との住所同一": "1",
        "その他市町村長が必要と認める事項": null,
        "受入対象者": null,
        "備考": ""
      }
    },
    {
      "type": "Feature",
      "geometry": {
        "type": "Point",
        "coordinates": [
          139.937207,
          35.323816
        ]
      },
      "properties": {
        "NO": 24113,
        "共通ID": "E1222500022111",
        "都道府県名及び市町村名": "千葉県君津市",
        "施設・場所名": "八重原中学校",
        "住所": "千葉県君津市三直1305",
        "指定緊急避難場所との住所同一": "1",
        "その他市町村長が必要と認める事項": null,
        "受入対象者": null,
        "備考": ""
      }
    },
    {
      "type": "Feature",
      "geometry": {
        "type": "Point",
        "coordinates": [
          139.961977,
          35.308352
        ]
      },
      "properties": {
        "NO": 24114,
        "共通ID": "E1222500024111",
        "都道府県名及び市町村名": "千葉県君津市",
        "施設・場所名": "君津高等学校上総キャンパス",
        "住所": "千葉県君津市上957",
        "指定緊急避難場所との住所同一": "1",
        "その他市町村長が必要と認める事項": null,
        "受入対象者": null,
        "備考": ""
      }
    },
    {
      "type": "Feature",
      "geometry": {
        "type": "Point",
        "coordinates": [
          139.900158,
          35.319624
        ]
      },
      "properties": {
        "NO": 24115,
        "共通ID": "E1222500025111",
        "都道府県名及び市町村名": "千葉県君津市",
        "施設・場所名": "貞元コミュニティセンター",
        "住所": "千葉県君津市上湯江1287-3",
        "指定緊急避難場所との住所同一": "1",
        "その他市町村長が必要と認める事項": null,
        "受入対象者": null,
        "備考": ""
      }
    },
    {
      "type": "Feature",
      "geometry": {
        "type": "Point",
        "coordinates": [
          139.899881,
          35.320849
        ]
      },
      "properties": {
        "NO": 24116,
        "共通ID": "E1222500026111",
        "都道府県名及び市町村名": "千葉県君津市",
        "施設・場所名": "貞元小学校",
        "住所": "千葉県君津市上湯江1655",
        "指定緊急避難場所との住所同一": "1",
        "その他市町村長が必要と認める事項": null,
        "受入対象者": null,
        "備考": ""
      }
    },
    {
      "type": "Feature",
      "geometry": {
        "type": "Point",
        "coordinates": [
          139.901345,
          35.32047
        ]
      },
      "properties": {
        "NO": 24117,
        "共通ID": "E1222500027111",
        "都道府県名及び市町村名": "千葉県君津市",
        "施設・場所名": "旧上湯江保育園",
        "住所": "千葉県君津市上湯江1716-1",
        "指定緊急避難場所との住所同一": "1",
        "その他市町村長が必要と認める事項": "",
        "受入対象者": "",
        "備考": ""
      }
    },
    {
      "type": "Feature",
      "geometry": {
        "type": "Point",
        "coordinates": [
          139.921511,
          35.309143
        ]
      },
      "properties": {
        "NO": 24118,
        "共通ID": "E1222500028111",
        "都道府県名及び市町村名": "千葉県君津市",
        "施設・場所名": "旧常代保育園",
        "住所": "千葉県君津市常代2-15-1",
        "指定緊急避難場所との住所同一": "1",
        "その他市町村長が必要と認める事項": "",
        "受入対象者": "",
        "備考": ""
      }
    },
    {
      "type": "Feature",
      "geometry": {
        "type": "Point",
        "coordinates": [
          139.870914,
          35.335744
        ]
      },
      "properties": {
        "NO": 24119,
        "共通ID": "E1222500030111",
        "都道府県名及び市町村名": "千葉県君津市",
        "施設・場所名": "旧周西幼稚園",
        "住所": "千葉県君津市人見1-5-47",
        "指定緊急避難場所との住所同一": "1",
        "その他市町村長が必要と認める事項": null,
        "受入対象者": null,
        "備考": ""
      }
    },
    {
      "type": "Feature",
      "geometry": {
        "type": "Point",
        "coordinates": [
          139.859488,
          35.344619
        ]
      },
      "properties": {
        "NO": 24120,
        "共通ID": "E1222500029111",
        "都道府県名及び市町村名": "千葉県君津市",
        "施設・場所名": "神門コミュニティセンター",
        "住所": "千葉県君津市人見1462-41",
        "指定緊急避難場所との住所同一": "1",
        "その他市町村長が必要と認める事項": null,
        "受入対象者": null,
        "備考": ""
      }
    },
    {
      "type": "Feature",
      "geometry": {
        "type": "Point",
        "coordinates": [
          139.874383,
          35.330166
        ]
      },
      "properties": {
        "NO": 24121,
        "共通ID": "E1222500031111",
        "都道府県名及び市町村名": "千葉県君津市",
        "施設・場所名": "周西公民館",
        "住所": "千葉県君津市人見4-11-21",
        "指定緊急避難場所との住所同一": "1",
        "その他市町村長が必要と認める事項": null,
        "受入対象者": null,
        "備考": ""
      }
    },
    {
      "type": "Feature",
      "geometry": {
        "type": "Point",
        "coordinates": [
          139.873461,
          35.330266
        ]
      },
      "properties": {
        "NO": 24122,
        "共通ID": "E1222500032111",
        "都道府県名及び市町村名": "千葉県君津市",
        "施設・場所名": "人見こども園",
        "住所": "千葉県君津市人見4-11-28",
        "指定緊急避難場所との住所同一": "1",
        "その他市町村長が必要と認める事項": null,
        "受入対象者": null,
        "備考": ""
      }
    },
    {
      "type": "Feature",
      "geometry": {
        "type": "Point",
        "coordinates": [
          140.025462,
          35.218683
        ]
      },
      "properties": {
        "NO": 24123,
        "共通ID": "E1222500034111",
        "都道府県名及び市町村名": "千葉県君津市",
        "施設・場所名": "旧三島小学校",
        "住所": "千葉県君津市正木149",
        "指定緊急避難場所との住所同一": "1",
        "その他市町村長が必要と認める事項": null,
        "受入対象者": null,
        "備考": ""
      }
    },
    {
      "type": "Feature",
      "geometry": {
        "type": "Point",
        "coordinates": [
          139.996265,
          35.253886
        ]
      },
      "properties": {
        "NO": 24124,
        "共通ID": "E1222500075112",
        "都道府県名及び市町村名": "千葉県君津市",
        "施設・場所名": "清和地域拠点複合施設",
        "住所": "千葉県君津市西粟倉36",
        "指定緊急避難場所との住所同一": "1",
        "その他市町村長が必要と認める事項": "",
        "受入対象者": "",
        "備考": ""
      }
    },
    {
      "type": "Feature",
      "geometry": {
        "type": "Point",
        "coordinates": [
          140.072051,
          35.300903
        ]
      },
      "properties": {
        "NO": 24125,
        "共通ID": "E1222500039111",
        "都道府県名及び市町村名": "千葉県君津市",
        "施設・場所名": "君津青葉高等学校",
        "住所": "千葉県君津市青柳48",
        "指定緊急避難場所との住所同一": "1",
        "その他市町村長が必要と認める事項": null,
        "受入対象者": null,
        "備考": ""
      }
    },
    {
      "type": "Feature",
      "geometry": {
        "type": "Point",
        "coordinates": [
          140.126786,
          35.229166
        ]
      },
      "properties": {
        "NO": 24126,
        "共通ID": "E1222500040111",
        "都道府県名及び市町村名": "千葉県君津市",
        "施設・場所名": "旧蔵玉小学校",
        "住所": "千葉県君津市蔵玉1052",
        "指定緊急避難場所との住所同一": "1",
        "その他市町村長が必要と認める事項": null,
        "受入対象者": null,
        "備考": ""
      }
    },
    {
      "type": "Feature",
      "geometry": {
        "type": "Point",
        "coordinates": [
          139.901841,
          35.326415
        ]
      },
      "properties": {
        "NO": 24127,
        "共通ID": "E1222500041111",
        "都道府県名及び市町村名": "千葉県君津市",
        "施設・場所名": "旧久保保育園",
        "住所": "千葉県君津市台2-15-16",
        "指定緊急避難場所との住所同一": "1",
        "その他市町村長が必要と認める事項": "",
        "受入対象者": "",
        "備考": ""
      }
    },
    {
      "type": "Feature",
      "geometry": {
        "type": "Point",
        "coordinates": [
          139.987353,
          35.290595
        ]
      },
      "properties": {
        "NO": 24128,
        "共通ID": "E1222500042111",
        "都道府県名及び市町村名": "千葉県君津市",
        "施設・場所名": "旧小糸小学校",
        "住所": "千葉県君津市大井戸1061",
        "指定緊急避難場所との住所同一": "1",
        "その他市町村長が必要と認める事項": null,
        "受入対象者": null,
        "備考": ""
      }
    },
    {
      "type": "Feature",
      "geometry": {
        "type": "Point",
        "coordinates": [
          139.985351,
          35.290798
        ]
      },
      "properties": {
        "NO": 24129,
        "共通ID": "E1222500043111",
        "都道府県名及び市町村名": "千葉県君津市",
        "施設・場所名": "小糸保育園",
        "住所": "千葉県君津市大井戸467-2",
        "指定緊急避難場所との住所同一": "1",
        "その他市町村長が必要と認める事項": null,
        "受入対象者": null,
        "備考": ""
      }
    },
    {
      "type": "Feature",
      "geometry": {
        "type": "Point",
        "coordinates": [
          139.93018,
          35.295541
        ]
      },
      "properties": {
        "NO": 24130,
        "共通ID": "E1222500044111",
        "都道府県名及び市町村名": "千葉県君津市",
        "施設・場所名": "周南公民館",
        "住所": "千葉県君津市大山野26",
        "指定緊急避難場所との住所同一": "1",
        "その他市町村長が必要と認める事項": null,
        "受入対象者": null,
        "備考": ""
      }
    },
    {
      "type": "Feature",
      "geometry": {
        "type": "Point",
        "coordinates": [
          139.880479,
          35.340858
        ]
      },
      "properties": {
        "NO": 24131,
        "共通ID": "E1222500046111",
        "都道府県名及び市町村名": "千葉県君津市",
        "施設・場所名": "周西の丘小学校",
        "住所": "千葉県君津市大和田425",
        "指定緊急避難場所との住所同一": "1",
        "その他市町村長が必要と認める事項": null,
        "受入対象者": null,
        "備考": ""
      }
    },
    {
      "type": "Feature",
      "geometry": {
        "type": "Point",
        "coordinates": [
          139.956608,
          35.30483
        ]
      },
      "properties": {
        "NO": 24132,
        "共通ID": "E1222500047111",
        "都道府県名及び市町村名": "千葉県君津市",
        "施設・場所名": "中保育園",
        "住所": "千葉県君津市中島252-1",
        "指定緊急避難場所との住所同一": "1",
        "その他市町村長が必要と認める事項": null,
        "受入対象者": null,
        "備考": ""
      }
    },
    {
      "type": "Feature",
      "geometry": {
        "type": "Point",
        "coordinates": [
          139.958591,
          35.304353
        ]
      },
      "properties": {
        "NO": 24133,
        "共通ID": "E1222500049111",
        "都道府県名及び市町村名": "千葉県君津市",
        "施設・場所名": "小糸小学校",
        "住所": "千葉県君津市中島678",
        "指定緊急避難場所との住所同一": "1",
        "その他市町村長が必要と認める事項": null,
        "受入対象者": null,
        "備考": ""
      }
    },
    {
      "type": "Feature",
      "geometry": {
        "type": "Point",
        "coordinates": [
          139.897089,
          35.32706
        ]
      },
      "properties": {
        "NO": 24134,
        "共通ID": "E1222500050111",
        "都道府県名及び市町村名": "千葉県君津市",
        "施設・場所名": "周西南中学校",
        "住所": "千葉県君津市中野2-30-1",
        "指定緊急避難場所との住所同一": "1",
        "その他市町村長が必要と認める事項": null,
        "受入対象者": null,
        "備考": ""
      }
    },
    {
      "type": "Feature",
      "geometry": {
        "type": "Point",
        "coordinates": [
          139.888908,
          35.32954
        ]
      },
      "properties": {
        "NO": 24135,
        "共通ID": "E1222500051111",
        "都道府県名及び市町村名": "千葉県君津市",
        "施設・場所名": "周西小学校",
        "住所": "千葉県君津市中野3-14-1",
        "指定緊急避難場所との住所同一": "1",
        "その他市町村長が必要と認める事項": null,
        "受入対象者": null,
        "備考": ""
      }
    },
    {
      "type": "Feature",
      "geometry": {
        "type": "Point",
        "coordinates": [
          139.979604,
          35.299998
        ]
      },
      "properties": {
        "NO": 24136,
        "共通ID": "E1222500052111",
        "都道府県名及び市町村名": "千葉県君津市",
        "施設・場所名": "周東中学校",
        "住所": "千葉県君津市塚原120",
        "指定緊急避難場所との住所同一": "1",
        "その他市町村長が必要と認める事項": null,
        "受入対象者": null,
        "備考": ""
      }
    },
    {
      "type": "Feature",
      "geometry": {
        "type": "Point",
        "coordinates": [
          140.117066,
          35.267127
        ]
      },
      "properties": {
        "NO": 24137,
        "共通ID": "E1222500055111",
        "都道府県名及び市町村名": "千葉県君津市",
        "施設・場所名": "旧福野小学校",
        "住所": "千葉県君津市怒田923",
        "指定緊急避難場所との住所同一": "1",
        "その他市町村長が必要と認める事項": null,
        "受入対象者": null,
        "備考": ""
      }
    },
    {
      "type": "Feature",
      "geometry": {
        "type": "Point",
        "coordinates": [
          140.00277,
          35.234078
        ]
      },
      "properties": {
        "NO": 24138,
        "共通ID": "E1222500056111",
        "都道府県名及び市町村名": "千葉県君津市",
        "施設・場所名": "旧清和保育園",
        "住所": "千葉県君津市東日笠515",
        "指定緊急避難場所との住所同一": "1",
        "その他市町村長が必要と認める事項": "",
        "受入対象者": "",
        "備考": ""
      }
    },
    {
      "type": "Feature",
      "geometry": {
        "type": "Point",
        "coordinates": [
          140.001628,
          35.234705
        ]
      },
      "properties": {
        "NO": 24139,
        "共通ID": "E1222500057111",
        "都道府県名及び市町村名": "千葉県君津市",
        "施設・場所名": "清和小学校",
        "住所": "千葉県君津市東日笠522",
        "指定緊急避難場所との住所同一": "1",
        "その他市町村長が必要と認める事項": null,
        "受入対象者": null,
        "備考": ""
      }
    },
    {
      "type": "Feature",
      "geometry": {
        "type": "Point",
        "coordinates": [
          139.927737,
          35.324015
        ]
      },
      "properties": {
        "NO": 24140,
        "共通ID": "E1222500058111",
        "都道府県名及び市町村名": "千葉県君津市",
        "施設・場所名": "内みのわ運動公園",
        "住所": "千葉県君津市内箕輪1-1-1",
        "指定緊急避難場所との住所同一": "1",
        "その他市町村長が必要と認める事項": null,
        "受入対象者": null,
        "備考": ""
      }
    },
    {
      "type": "Feature",
      "geometry": {
        "type": "Point",
        "coordinates": [
          139.931948,
          35.322684
        ]
      },
      "properties": {
        "NO": 24141,
        "共通ID": "E1222500059111",
        "都道府県名及び市町村名": "千葉県君津市",
        "施設・場所名": "旧内箕輪保育園",
        "住所": "千葉県君津市内箕輪61-1",
        "指定緊急避難場所との住所同一": "",
        "その他市町村長が必要と認める事項": "",
        "受入対象者": "",
        "備考": ""
      }
    },
    {
      "type": "Feature",
      "geometry": {
        "type": "Point",
        "coordinates": [
          139.915997,
          35.326003
        ]
      },
      "properties": {
        "NO": 24142,
        "共通ID": "E1222500061111",
        "都道府県名及び市町村名": "千葉県君津市",
        "施設・場所名": "旧南子安保育園",
        "住所": "千葉県君津市南子安3-27-1",
        "指定緊急避難場所との住所同一": "1",
        "その他市町村長が必要と認める事項": "",
        "受入対象者": "",
        "備考": ""
      }
    },
    {
      "type": "Feature",
      "geometry": {
        "type": "Point",
        "coordinates": [
          139.916162,
          35.324924
        ]
      },
      "properties": {
        "NO": 24143,
        "共通ID": "E1222500062111",
        "都道府県名及び市町村名": "千葉県君津市",
        "施設・場所名": "南子安小学校",
        "住所": "千葉県君津市南子安5-10-1",
        "指定緊急避難場所との住所同一": "1",
        "その他市町村長が必要と認める事項": null,
        "受入対象者": null,
        "備考": ""
      }
    },
    {
      "type": "Feature",
      "geometry": {
        "type": "Point",
        "coordinates": [
          139.928679,
          35.327908
        ]
      },
      "properties": {
        "NO": 24144,
        "共通ID": "E1222500063111",
        "都道府県名及び市町村名": "千葉県君津市",
        "施設・場所名": "八重原小学校",
        "住所": "千葉県君津市南子安9-17-1",
        "指定緊急避難場所との住所同一": "1",
        "その他市町村長が必要と認める事項": null,
        "受入対象者": null,
        "備考": ""
      }
    },
    {
      "type": "Feature",
      "geometry": {
        "type": "Point",
        "coordinates": [
          139.929993,
          35.327942
        ]
      },
      "properties": {
        "NO": 24145,
        "共通ID": "E1222500064111",
        "都道府県名及び市町村名": "千葉県君津市",
        "施設・場所名": "八重原公民館",
        "住所": "千葉県君津市南子安9-17-2",
        "指定緊急避難場所との住所同一": "1",
        "その他市町村長が必要と認める事項": null,
        "受入対象者": null,
        "備考": ""
      }
    },
    {
      "type": "Feature",
      "geometry": {
        "type": "Point",
        "coordinates": [
          140.053438,
          35.32277
        ]
      },
      "properties": {
        "NO": 24146,
        "共通ID": "E1222500065111",
        "都道府県名及び市町村名": "千葉県君津市",
        "施設・場所名": "上総小櫃中学校",
        "住所": "千葉県君津市俵田1110",
        "指定緊急避難場所との住所同一": "1",
        "その他市町村長が必要と認める事項": null,
        "受入対象者": null,
        "備考": ""
      }
    },
    {
      "type": "Feature",
      "geometry": {
        "type": "Point",
        "coordinates": [
          140.059133,
          35.322079
        ]
      },
      "properties": {
        "NO": 24147,
        "共通ID": "E1222500066111",
        "都道府県名及び市町村名": "千葉県君津市",
        "施設・場所名": "小櫃小学校",
        "住所": "千葉県君津市俵田1416",
        "指定緊急避難場所との住所同一": "1",
        "その他市町村長が必要と認める事項": null,
        "受入対象者": null,
        "備考": ""
      }
    },
    {
      "type": "Feature",
      "geometry": {
        "type": "Point",
        "coordinates": [
          139.918132,
          35.336841
        ]
      },
      "properties": {
        "NO": 24148,
        "共通ID": "E1222500067111",
        "都道府県名及び市町村名": "千葉県君津市",
        "施設・場所名": "北子安小学校",
        "住所": "千葉県君津市北子安853",
        "指定緊急避難場所との住所同一": "1",
        "その他市町村長が必要と認める事項": null,
        "受入対象者": null,
        "備考": ""
      }
    },
    {
      "type": "Feature",
      "geometry": {
        "type": "Point",
        "coordinates": [
          140.057394,
          35.324324
        ]
      },
      "properties": {
        "NO": 24149,
        "共通ID": "E1222500073111",
        "都道府県名及び市町村名": "千葉県君津市",
        "施設・場所名": "老人憩いの家　すえよし",
        "住所": "千葉県君津市末吉1068-3",
        "指定緊急避難場所との住所同一": "1",
        "その他市町村長が必要と認める事項": null,
        "受入対象者": null,
        "備考": ""
      }
    },
    {
      "type": "Feature",
      "geometry": {
        "type": "Point",
        "coordinates": [
          140.059175,
          35.327811
        ]
      },
      "properties": {
        "NO": 24150,
        "共通ID": "E1222500069111",
        "都道府県名及び市町村名": "千葉県君津市",
        "施設・場所名": "小櫃公民館",
        "住所": "千葉県君津市末吉128",
        "指定緊急避難場所との住所同一": "1",
        "その他市町村長が必要と認める事項": null,
        "受入対象者": null,
        "備考": ""
      }
    },
    {
      "type": "Feature",
      "geometry": {
        "type": "Point",
        "coordinates": [
          140.064123,
          35.330097
        ]
      },
      "properties": {
        "NO": 24151,
        "共通ID": "E1222500070111",
        "都道府県名及び市町村名": "千葉県君津市",
        "施設・場所名": "小櫃保育園",
        "住所": "千葉県君津市末吉437-1",
        "指定緊急避難場所との住所同一": "1",
        "その他市町村長が必要と認める事項": null,
        "受入対象者": null,
        "備考": ""
      }
    },
    {
      "type": "Feature",
      "geometry": {
        "type": "Point",
        "coordinates": [
          139.910483,
          35.326785
        ]
      },
      "properties": {
        "NO": 24152,
        "共通ID": "E1222500071111",
        "都道府県名及び市町村名": "千葉県君津市",
        "施設・場所名": "君津中学校",
        "住所": "千葉県君津市杢師1-10-1",
        "指定緊急避難場所との住所同一": "1",
        "その他市町村長が必要と認める事項": null,
        "受入対象者": null,
        "備考": ""
      }
    }
  ]
}