{
  "type": "FeatureCollection",
  "name": "122351",
  "features": [
    {
      "type": "Feature",
      "geometry": {
        "type": "Point",
        "coordinates": [
          140.555114,
          35.65138
        ]
      },
      "properties": {
        "NO": 24473,
        "共通ID": "E1223500003111",
        "都道府県名及び市町村名": "千葉県匝瑳市",
        "施設・場所名": "栄小学校",
        "住所": "千葉県匝瑳市栢田823",
        "指定緊急避難場所との住所同一": "1",
        "その他市町村長が必要と認める事項": null,
        "受入対象者": null,
        "備考": ""
      }
    },
    {
      "type": "Feature",
      "geometry": {
        "type": "Point",
        "coordinates": [
          140.505882,
          35.721139
        ]
      },
      "properties": {
        "NO": 24474,
        "共通ID": "E1223500005111",
        "都道府県名及び市町村名": "千葉県匝瑳市",
        "施設・場所名": "吉田小学校",
        "住所": "千葉県匝瑳市吉田4020",
        "指定緊急避難場所との住所同一": "1",
        "その他市町村長が必要と認める事項": null,
        "受入対象者": null,
        "備考": ""
      }
    },
    {
      "type": "Feature",
      "geometry": {
        "type": "Point",
        "coordinates": [
          140.54974,
          35.678887
        ]
      },
      "properties": {
        "NO": 24475,
        "共通ID": "E1223500006111",
        "都道府県名及び市町村名": "千葉県匝瑳市",
        "施設・場所名": "須賀小学校",
        "住所": "千葉県匝瑳市高1956",
        "指定緊急避難場所との住所同一": "1",
        "その他市町村長が必要と認める事項": null,
        "受入対象者": null,
        "備考": ""
      }
    },
    {
      "type": "Feature",
      "geometry": {
        "type": "Point",
        "coordinates": [
          140.569365,
          35.666865
        ]
      },
      "properties": {
        "NO": 24476,
        "共通ID": "E1223500008111",
        "都道府県名及び市町村名": "千葉県匝瑳市",
        "施設・場所名": "野栄中学校",
        "住所": "千葉県匝瑳市今泉5323-3",
        "指定緊急避難場所との住所同一": "1",
        "その他市町村長が必要と認める事項": null,
        "受入対象者": null,
        "備考": ""
      }
    },
    {
      "type": "Feature",
      "geometry": {
        "type": "Point",
        "coordinates": [
          140.568412,
          35.660234
        ]
      },
      "properties": {
        "NO": 24477,
        "共通ID": "E1223500009111",
        "都道府県名及び市町村名": "千葉県匝瑳市",
        "施設・場所名": "生涯学習センター",
        "住所": "千葉県匝瑳市今泉6489-1",
        "指定緊急避難場所との住所同一": "1",
        "その他市町村長が必要と認める事項": null,
        "受入対象者": null,
        "備考": ""
      }
    },
    {
      "type": "Feature",
      "geometry": {
        "type": "Point",
        "coordinates": [
          140.570395,
          35.659329
        ]
      },
      "properties": {
        "NO": 24478,
        "共通ID": "E1223500010111",
        "都道府県名及び市町村名": "千葉県匝瑳市",
        "施設・場所名": "のさかアリーナ",
        "住所": "千葉県匝瑳市今泉6536-1",
        "指定緊急避難場所との住所同一": "1",
        "その他市町村長が必要と認める事項": null,
        "受入対象者": null,
        "備考": ""
      }
    },
    {
      "type": "Feature",
      "geometry": {
        "type": "Point",
        "coordinates": [
          140.533113,
          35.71319
        ]
      },
      "properties": {
        "NO": 24479,
        "共通ID": "E1223500012111",
        "都道府県名及び市町村名": "千葉県匝瑳市",
        "施設・場所名": "旧匝瑳小学校",
        "住所": "千葉県匝瑳市松山1122",
        "指定緊急避難場所との住所同一": "1",
        "その他市町村長が必要と認める事項": null,
        "受入対象者": null,
        "備考": ""
      }
    },
    {
      "type": "Feature",
      "geometry": {
        "type": "Point",
        "coordinates": [
          140.572051,
          35.712203
        ]
      },
      "properties": {
        "NO": 24480,
        "共通ID": "E1223500014111",
        "都道府県名及び市町村名": "千葉県匝瑳市",
        "施設・場所名": "八日市場第一中学校",
        "住所": "千葉県匝瑳市上谷中2270-5",
        "指定緊急避難場所との住所同一": "1",
        "その他市町村長が必要と認める事項": null,
        "受入対象者": null,
        "備考": ""
      }
    },
    {
      "type": "Feature",
      "geometry": {
        "type": "Point",
        "coordinates": [
          140.55422,
          35.742569
        ]
      },
      "properties": {
        "NO": 24481,
        "共通ID": "E1223500016111",
        "都道府県名及び市町村名": "千葉県匝瑳市",
        "施設・場所名": "豊和小学校",
        "住所": "千葉県匝瑳市大寺1492",
        "指定緊急避難場所との住所同一": "1",
        "その他市町村長が必要と認める事項": null,
        "受入対象者": null,
        "備考": ""
      }
    },
    {
      "type": "Feature",
      "geometry": {
        "type": "Point",
        "coordinates": [
          140.578768,
          35.721986
        ]
      },
      "properties": {
        "NO": 24482,
        "共通ID": "E1223500018111",
        "都道府県名及び市町村名": "千葉県匝瑳市",
        "施設・場所名": "椿海小学校",
        "住所": "千葉県匝瑳市椿973",
        "指定緊急避難場所との住所同一": "1",
        "その他市町村長が必要と認める事項": null,
        "受入対象者": null,
        "備考": ""
      }
    },
    {
      "type": "Feature",
      "geometry": {
        "type": "Point",
        "coordinates": [
          140.595497,
          35.681349
        ]
      },
      "properties": {
        "NO": 24483,
        "共通ID": "E1223500019111",
        "都道府県名及び市町村名": "千葉県匝瑳市",
        "施設・場所名": "共興小学校",
        "住所": "千葉県匝瑳市東小笹1160",
        "指定緊急避難場所との住所同一": "1",
        "その他市町村長が必要と認める事項": null,
        "受入対象者": null,
        "備考": ""
      }
    },
    {
      "type": "Feature",
      "geometry": {
        "type": "Point",
        "coordinates": [
          140.54347,
          35.70506
        ]
      },
      "properties": {
        "NO": 24484,
        "共通ID": "E1223500021111",
        "都道府県名及び市町村名": "千葉県匝瑳市",
        "施設・場所名": "八日市場第二中学校",
        "住所": "千葉県匝瑳市八日市場イ1687",
        "指定緊急避難場所との住所同一": "1",
        "その他市町村長が必要と認める事項": null,
        "受入対象者": null,
        "備考": ""
      }
    },
    {
      "type": "Feature",
      "geometry": {
        "type": "Point",
        "coordinates": [
          140.545947,
          35.701815
        ]
      },
      "properties": {
        "NO": 24485,
        "共通ID": "E1223500022111",
        "都道府県名及び市町村名": "千葉県匝瑳市",
        "施設・場所名": "八日市場勤労青少年ホーム",
        "住所": "千葉県匝瑳市八日市場イ2030",
        "指定緊急避難場所との住所同一": "1",
        "その他市町村長が必要と認める事項": "",
        "受入対象者": "",
        "備考": ""
      }
    },
    {
      "type": "Feature",
      "geometry": {
        "type": "Point",
        "coordinates": [
          140.550209,
          35.705201
        ]
      },
      "properties": {
        "NO": 24486,
        "共通ID": "E1223500023111",
        "都道府県名及び市町村名": "千葉県匝瑳市",
        "施設・場所名": "八日市場小学校",
        "住所": "千葉県匝瑳市八日市場イ2311",
        "指定緊急避難場所との住所同一": "1",
        "その他市町村長が必要と認める事項": null,
        "受入対象者": null,
        "備考": ""
      }
    },
    {
      "type": "Feature",
      "geometry": {
        "type": "Point",
        "coordinates": [
          140.551696,
          35.70341
        ]
      },
      "properties": {
        "NO": 24487,
        "共通ID": "E1223500026111",
        "都道府県名及び市町村名": "千葉県匝瑳市",
        "施設・場所名": "八日市場公民館",
        "住所": "千葉県匝瑳市八日市場イ2402",
        "指定緊急避難場所との住所同一": "",
        "その他市町村長が必要と認める事項": null,
        "受入対象者": null,
        "備考": ""
      }
    },
    {
      "type": "Feature",
      "geometry": {
        "type": "Point",
        "coordinates": [
          140.565263,
          35.707792
        ]
      },
      "properties": {
        "NO": 24488,
        "共通ID": "E1223500028111",
        "都道府県名及び市町村名": "千葉県匝瑳市",
        "施設・場所名": "八日市場ドーム",
        "住所": "千葉県匝瑳市八日市場ハ793-1",
        "指定緊急避難場所との住所同一": "",
        "その他市町村長が必要と認める事項": null,
        "受入対象者": null,
        "備考": ""
      }
    },
    {
      "type": "Feature",
      "geometry": {
        "type": "Point",
        "coordinates": [
          140.565304,
          35.708464
        ]
      },
      "properties": {
        "NO": 24489,
        "共通ID": "E1223500029111",
        "都道府県名及び市町村名": "千葉県匝瑳市",
        "施設・場所名": "市民ふれあいセンター",
        "住所": "千葉県匝瑳市八日市場ハ793-35",
        "指定緊急避難場所との住所同一": "1",
        "その他市町村長が必要と認める事項": null,
        "受入対象者": null,
        "備考": ""
      }
    },
    {
      "type": "Feature",
      "geometry": {
        "type": "Point",
        "coordinates": [
          140.523912,
          35.749785
        ]
      },
      "properties": {
        "NO": 24490,
        "共通ID": "E1223500032111",
        "都道府県名及び市町村名": "千葉県匝瑳市",
        "施設・場所名": "県立飯高特別支援学校",
        "住所": "千葉県匝瑳市飯高1692",
        "指定緊急避難場所との住所同一": "1",
        "その他市町村長が必要と認める事項": null,
        "受入対象者": null,
        "備考": ""
      }
    },
    {
      "type": "Feature",
      "geometry": {
        "type": "Point",
        "coordinates": [
          140.516223,
          35.696513
        ]
      },
      "properties": {
        "NO": 24491,
        "共通ID": "E1223500034111",
        "都道府県名及び市町村名": "千葉県匝瑳市",
        "施設・場所名": "豊栄小学校",
        "住所": "千葉県匝瑳市飯倉1847",
        "指定緊急避難場所との住所同一": "1",
        "その他市町村長が必要と認める事項": null,
        "受入対象者": null,
        "備考": ""
      }
    },
    {
      "type": "Feature",
      "geometry": {
        "type": "Point",
        "coordinates": [
          140.589249,
          35.700231
        ]
      },
      "properties": {
        "NO": 24492,
        "共通ID": "E1223500038111",
        "都道府県名及び市町村名": "千葉県匝瑳市",
        "施設・場所名": "平和小学校",
        "住所": "千葉県匝瑳市平木1819",
        "指定緊急避難場所との住所同一": "1",
        "その他市町村長が必要と認める事項": null,
        "受入対象者": null,
        "備考": ""
      }
    }
  ]
}