{
  "type": "FeatureCollection",
  "name": "122386",
  "features": [
    {
      "type": "Feature",
      "geometry": {
        "type": "Point",
        "coordinates": [
          140.282434,
          35.283706
        ]
      },
      "properties": {
        "NO": 24568,
        "共通ID": "E1223800001111",
        "都道府県名及び市町村名": "千葉県いすみ市",
        "施設・場所名": "夷隅地区多目的研修センター",
        "住所": "千葉県いすみ市行川721-1",
        "指定緊急避難場所との住所同一": "1",
        "その他市町村長が必要と認める事項": "",
        "受入対象者": "",
        "備考": ""
      }
    },
    {
      "type": "Feature",
      "geometry": {
        "type": "Point",
        "coordinates": [
          140.313122,
          35.284945
        ]
      },
      "properties": {
        "NO": 24569,
        "共通ID": "E1223800002111",
        "都道府県名及び市町村名": "千葉県いすみ市",
        "施設・場所名": "国吉中学校",
        "住所": "千葉県いすみ市国府台1552",
        "指定緊急避難場所との住所同一": "1",
        "その他市町村長が必要と認める事項": null,
        "受入対象者": null,
        "備考": ""
      }
    },
    {
      "type": "Feature",
      "geometry": {
        "type": "Point",
        "coordinates": [
          140.335129,
          35.260693
        ]
      },
      "properties": {
        "NO": 24570,
        "共通ID": "E1223800003111",
        "都道府県名及び市町村名": "千葉県いすみ市",
        "施設・場所名": "東小学校",
        "住所": "千葉県いすみ市山田460",
        "指定緊急避難場所との住所同一": "1",
        "その他市町村長が必要と認める事項": null,
        "受入対象者": null,
        "備考": ""
      }
    },
    {
      "type": "Feature",
      "geometry": {
        "type": "Point",
        "coordinates": [
          140.384711,
          35.264413
        ]
      },
      "properties": {
        "NO": 24571,
        "共通ID": "E1223800004111",
        "都道府県名及び市町村名": "千葉県いすみ市",
        "施設・場所名": "東海小学校",
        "住所": "千葉県いすみ市若山1042",
        "指定緊急避難場所との住所同一": "1",
        "その他市町村長が必要と認める事項": null,
        "受入対象者": null,
        "備考": ""
      }
    },
    {
      "type": "Feature",
      "geometry": {
        "type": "Point",
        "coordinates": [
          140.384792,
          35.222633
        ]
      },
      "properties": {
        "NO": 24572,
        "共通ID": "E1223800006111",
        "都道府県名及び市町村名": "千葉県いすみ市",
        "施設・場所名": "浪花小学校",
        "住所": "千葉県いすみ市小沢1157",
        "指定緊急避難場所との住所同一": "1",
        "その他市町村長が必要と認める事項": null,
        "受入対象者": null,
        "備考": ""
      }
    },
    {
      "type": "Feature",
      "geometry": {
        "type": "Point",
        "coordinates": [
          140.323997,
          35.311865
        ]
      },
      "properties": {
        "NO": 24573,
        "共通ID": "E1223800007111",
        "都道府県名及び市町村名": "千葉県いすみ市",
        "施設・場所名": "旧千町小学校",
        "住所": "千葉県いすみ市松丸3226",
        "指定緊急避難場所との住所同一": "1",
        "その他市町村長が必要と認める事項": null,
        "受入対象者": null,
        "備考": ""
      }
    },
    {
      "type": "Feature",
      "geometry": {
        "type": "Point",
        "coordinates": [
          140.313373,
          35.28901
        ]
      },
      "properties": {
        "NO": 24574,
        "共通ID": "E1223800010111",
        "都道府県名及び市町村名": "千葉県いすみ市",
        "施設・場所名": "夷隅小学校",
        "住所": "千葉県いすみ市深谷127",
        "指定緊急避難場所との住所同一": "1",
        "その他市町村長が必要と認める事項": null,
        "受入対象者": null,
        "備考": ""
      }
    },
    {
      "type": "Feature",
      "geometry": {
        "type": "Point",
        "coordinates": [
          140.302183,
          35.286973
        ]
      },
      "properties": {
        "NO": 24575,
        "共通ID": "E1223800011111",
        "都道府県名及び市町村名": "千葉県いすみ市",
        "施設・場所名": "夷隅文化会館",
        "住所": "千葉県いすみ市深谷1968-1",
        "指定緊急避難場所との住所同一": "1",
        "その他市町村長が必要と認める事項": null,
        "受入対象者": null,
        "備考": ""
      }
    },
    {
      "type": "Feature",
      "geometry": {
        "type": "Point",
        "coordinates": [
          140.382166,
          35.258764
        ]
      },
      "properties": {
        "NO": 24576,
        "共通ID": "E1223800013111",
        "都道府県名及び市町村名": "千葉県いすみ市",
        "施設・場所名": "社会福祉法人　チルドレン・パラダイス児童養護施設　子山ホーム",
        "住所": "千葉県いすみ市深堀685",
        "指定緊急避難場所との住所同一": "1",
        "その他市町村長が必要と認める事項": "",
        "受入対象者": "",
        "備考": ""
      }
    },
    {
      "type": "Feature",
      "geometry": {
        "type": "Point",
        "coordinates": [
          140.38215,
          35.24544
        ]
      },
      "properties": {
        "NO": 24577,
        "共通ID": "E1223800017111",
        "都道府県名及び市町村名": "千葉県いすみ市",
        "施設・場所名": "農村環境改善センター",
        "住所": "千葉県いすみ市大原6763",
        "指定緊急避難場所との住所同一": "1",
        "その他市町村長が必要と認める事項": null,
        "受入対象者": null,
        "備考": ""
      }
    },
    {
      "type": "Feature",
      "geometry": {
        "type": "Point",
        "coordinates": [
          140.380509,
          35.25412
        ]
      },
      "properties": {
        "NO": 24578,
        "共通ID": "E1223800020111",
        "都道府県名及び市町村名": "千葉県いすみ市",
        "施設・場所名": "大原中学校",
        "住所": "千葉県いすみ市大原7400-12",
        "指定緊急避難場所との住所同一": "1",
        "その他市町村長が必要と認める事項": null,
        "受入対象者": null,
        "備考": ""
      }
    },
    {
      "type": "Feature",
      "geometry": {
        "type": "Point",
        "coordinates": [
          140.386406,
          35.248124
        ]
      },
      "properties": {
        "NO": 24579,
        "共通ID": "E1223800021111",
        "都道府県名及び市町村名": "千葉県いすみ市",
        "施設・場所名": "大原文化センター",
        "住所": "千葉県いすみ市大原7838",
        "指定緊急避難場所との住所同一": "1",
        "その他市町村長が必要と認める事項": null,
        "受入対象者": null,
        "備考": ""
      }
    },
    {
      "type": "Feature",
      "geometry": {
        "type": "Point",
        "coordinates": [
          140.389927,
          35.245423
        ]
      },
      "properties": {
        "NO": 24580,
        "共通ID": "E1223800022111",
        "都道府県名及び市町村名": "千葉県いすみ市",
        "施設・場所名": "大原小学校",
        "住所": "千葉県いすみ市大原8530-3",
        "指定緊急避難場所との住所同一": "1",
        "その他市町村長が必要と認める事項": null,
        "受入対象者": null,
        "備考": ""
      }
    },
    {
      "type": "Feature",
      "geometry": {
        "type": "Point",
        "coordinates": [
          140.364843,
          35.205518
        ]
      },
      "properties": {
        "NO": 24581,
        "共通ID": "E1223800024111",
        "都道府県名及び市町村名": "千葉県いすみ市",
        "施設・場所名": "大原台コミュニティセンター",
        "住所": "千葉県いすみ市大原台324",
        "指定緊急避難場所との住所同一": "1",
        "その他市町村長が必要と認める事項": null,
        "受入対象者": null,
        "備考": ""
      }
    },
    {
      "type": "Feature",
      "geometry": {
        "type": "Point",
        "coordinates": [
          140.340614,
          35.320183
        ]
      },
      "properties": {
        "NO": 24582,
        "共通ID": "E1223800027111",
        "都道府県名及び市町村名": "千葉県いすみ市",
        "施設・場所名": "古沢小学校",
        "住所": "千葉県いすみ市岬町岩熊563-2",
        "指定緊急避難場所との住所同一": "1",
        "その他市町村長が必要と認める事項": null,
        "受入対象者": null,
        "備考": ""
      }
    },
    {
      "type": "Feature",
      "geometry": {
        "type": "Point",
        "coordinates": [
          140.373181,
          35.298767
        ]
      },
      "properties": {
        "NO": 24583,
        "共通ID": "E1223800028111",
        "都道府県名及び市町村名": "千葉県いすみ市",
        "施設・場所名": "中根小学校",
        "住所": "千葉県いすみ市岬町中滝954",
        "指定緊急避難場所との住所同一": "1",
        "その他市町村長が必要と認める事項": null,
        "受入対象者": null,
        "備考": ""
      }
    },
    {
      "type": "Feature",
      "geometry": {
        "type": "Point",
        "coordinates": [
          140.384636,
          35.299523
        ]
      },
      "properties": {
        "NO": 24584,
        "共通ID": "E1223800029111",
        "都道府県名及び市町村名": "千葉県いすみ市",
        "施設・場所名": "岬公民館",
        "住所": "千葉県いすみ市岬町長者22",
        "指定緊急避難場所との住所同一": "1",
        "その他市町村長が必要と認める事項": null,
        "受入対象者": null,
        "備考": ""
      }
    },
    {
      "type": "Feature",
      "geometry": {
        "type": "Point",
        "coordinates": [
          140.392982,
          35.295675
        ]
      },
      "properties": {
        "NO": 24585,
        "共通ID": "E1223800030111",
        "都道府県名及び市町村名": "千葉県いすみ市",
        "施設・場所名": "長者小学校",
        "住所": "千葉県いすみ市岬町長者330",
        "指定緊急避難場所との住所同一": "1",
        "その他市町村長が必要と認める事項": null,
        "受入対象者": null,
        "備考": ""
      }
    },
    {
      "type": "Feature",
      "geometry": {
        "type": "Point",
        "coordinates": [
          140.376159,
          35.320497
        ]
      },
      "properties": {
        "NO": 24586,
        "共通ID": "E1223800031111",
        "都道府県名及び市町村名": "千葉県いすみ市",
        "施設・場所名": "岬中学校",
        "住所": "千葉県いすみ市岬町椎木1370",
        "指定緊急避難場所との住所同一": "1",
        "その他市町村長が必要と認める事項": null,
        "受入対象者": null,
        "備考": ""
      }
    },
    {
      "type": "Feature",
      "geometry": {
        "type": "Point",
        "coordinates": [
          140.386959,
          35.318917
        ]
      },
      "properties": {
        "NO": 24587,
        "共通ID": "E1223800033111",
        "都道府県名及び市町村名": "千葉県いすみ市",
        "施設・場所名": "太東小学校",
        "住所": "千葉県いすみ市岬町椎木408",
        "指定緊急避難場所との住所同一": "1",
        "その他市町村長が必要と認める事項": null,
        "受入対象者": null,
        "備考": ""
      }
    },
    {
      "type": "Feature",
      "geometry": {
        "type": "Point",
        "coordinates": [
          140.387696,
          35.300989
        ]
      },
      "properties": {
        "NO": 24588,
        "共通ID": "E1223800034111",
        "都道府県名及び市町村名": "千葉県いすみ市",
        "施設・場所名": "岬ふれあい会館",
        "住所": "千葉県いすみ市岬町東中滝720-1",
        "指定緊急避難場所との住所同一": "1",
        "その他市町村長が必要と認める事項": "",
        "受入対象者": "",
        "備考": ""
      }
    },
    {
      "type": "Feature",
      "geometry": {
        "type": "Point",
        "coordinates": [
          140.345463,
          35.215542
        ]
      },
      "properties": {
        "NO": 24589,
        "共通ID": "E1223800038111",
        "都道府県名及び市町村名": "千葉県いすみ市",
        "施設・場所名": "布施小学校",
        "住所": "千葉県御宿町上布施909",
        "指定緊急避難場所との住所同一": "1",
        "その他市町村長が必要と認める事項": "",
        "受入対象者": "",
        "備考": ""
      }
    }
  ]
}