{
  "type": "FeatureCollection",
  "name": "123498",
  "features": [
    {
      "type": "Feature",
      "geometry": {
        "type": "Point",
        "coordinates": [
          140.646026,
          35.805353
        ]
      },
      "properties": {
        "NO": 24653,
        "共通ID": "E1234900001111",
        "都道府県名及び市町村名": "千葉県東庄町",
        "施設・場所名": "旧神代小学校",
        "住所": "千葉県東庄町窪野谷1661",
        "指定緊急避難場所との住所同一": "1",
        "その他市町村長が必要と認める事項": null,
        "受入対象者": null,
        "備考": ""
      }
    },
    {
      "type": "Feature",
      "geometry": {
        "type": "Point",
        "coordinates": [
          140.690067,
          35.818251
        ]
      },
      "properties": {
        "NO": 24654,
        "共通ID": "E1234900002111",
        "都道府県名及び市町村名": "千葉県東庄町",
        "施設・場所名": "旧橘小学校",
        "住所": "千葉県東庄町今郡558",
        "指定緊急避難場所との住所同一": "1",
        "その他市町村長が必要と認める事項": null,
        "受入対象者": null,
        "備考": ""
      }
    },
    {
      "type": "Feature",
      "geometry": {
        "type": "Point",
        "coordinates": [
          140.666272,
          35.837963
        ]
      },
      "properties": {
        "NO": 24655,
        "共通ID": "E1234900003111",
        "都道府県名及び市町村名": "千葉県東庄町",
        "施設・場所名": "東庄小学校",
        "住所": "千葉県東庄町笹川い4713",
        "指定緊急避難場所との住所同一": "1",
        "その他市町村長が必要と認める事項": null,
        "受入対象者": null,
        "備考": ""
      }
    },
    {
      "type": "Feature",
      "geometry": {
        "type": "Point",
        "coordinates": [
          140.667977,
          35.837155
        ]
      },
      "properties": {
        "NO": 24656,
        "共通ID": "E1234900012111",
        "都道府県名及び市町村名": "千葉県東庄町",
        "施設・場所名": "東庄町公民館",
        "住所": "千葉県東庄町笹川い4713-131",
        "指定緊急避難場所との住所同一": "1",
        "その他市町村長が必要と認める事項": "",
        "受入対象者": "",
        "備考": ""
      }
    },
    {
      "type": "Feature",
      "geometry": {
        "type": "Point",
        "coordinates": [
          140.644303,
          35.795857
        ]
      },
      "properties": {
        "NO": 24657,
        "共通ID": "E1234900005111",
        "都道府県名及び市町村名": "千葉県東庄町",
        "施設・場所名": "東庄町ふれあい公園",
        "住所": "千葉県東庄町舟戸526-1",
        "指定緊急避難場所との住所同一": "",
        "その他市町村長が必要と認める事項": null,
        "受入対象者": null,
        "備考": ""
      }
    },
    {
      "type": "Feature",
      "geometry": {
        "type": "Point",
        "coordinates": [
          140.680854,
          35.79503
        ]
      },
      "properties": {
        "NO": 24658,
        "共通ID": "E1234900006111",
        "都道府県名及び市町村名": "千葉県東庄町",
        "施設・場所名": "東庄町ふれあいセンター",
        "住所": "千葉県東庄町小南1140",
        "指定緊急避難場所との住所同一": "",
        "その他市町村長が必要と認める事項": null,
        "受入対象者": null,
        "備考": ""
      }
    },
    {
      "type": "Feature",
      "geometry": {
        "type": "Point",
        "coordinates": [
          140.673565,
          35.781396
        ]
      },
      "properties": {
        "NO": 24659,
        "共通ID": "E1234900007111",
        "都道府県名及び市町村名": "千葉県東庄町",
        "施設・場所名": "東庄町児童館",
        "住所": "千葉県東庄町小南534",
        "指定緊急避難場所との住所同一": "1",
        "その他市町村長が必要と認める事項": null,
        "受入対象者": null,
        "備考": ""
      }
    },
    {
      "type": "Feature",
      "geometry": {
        "type": "Point",
        "coordinates": [
          140.67593,
          35.791942
        ]
      },
      "properties": {
        "NO": 24660,
        "共通ID": "E1234900008111",
        "都道府県名及び市町村名": "千葉県東庄町",
        "施設・場所名": "旧東城小学校",
        "住所": "千葉県東庄町小南941",
        "指定緊急避難場所との住所同一": "1",
        "その他市町村長が必要と認める事項": null,
        "受入対象者": null,
        "備考": ""
      }
    },
    {
      "type": "Feature",
      "geometry": {
        "type": "Point",
        "coordinates": [
          140.670604,
          35.811822
        ]
      },
      "properties": {
        "NO": 24661,
        "共通ID": "E1234900009111",
        "都道府県名及び市町村名": "千葉県東庄町",
        "施設・場所名": "東庄中学校",
        "住所": "千葉県東庄町青馬1752-1",
        "指定緊急避難場所との住所同一": "1",
        "その他市町村長が必要と認める事項": null,
        "受入対象者": null,
        "備考": ""
      }
    },
    {
      "type": "Feature",
      "geometry": {
        "type": "Point",
        "coordinates": [
          140.703995,
          35.819724
        ]
      },
      "properties": {
        "NO": 24662,
        "共通ID": "E1234900010111",
        "都道府県名及び市町村名": "千葉県東庄町",
        "施設・場所名": "旧石出小学校",
        "住所": "千葉県東庄町石出1599",
        "指定緊急避難場所との住所同一": "1",
        "その他市町村長が必要と認める事項": null,
        "受入対象者": null,
        "備考": ""
      }
    },
    {
      "type": "Feature",
      "geometry": {
        "type": "Point",
        "coordinates": [
          140.697845,
          35.820005
        ]
      },
      "properties": {
        "NO": 24663,
        "共通ID": "E1234900011111",
        "都道府県名及び市町村名": "千葉県東庄町",
        "施設・場所名": "東庄町保健福祉総合センター",
        "住所": "千葉県東庄町石出2692-4",
        "指定緊急避難場所との住所同一": "",
        "その他市町村長が必要と認める事項": null,
        "受入対象者": null,
        "備考": ""
      }
    }
  ]
}