{
  "type": "FeatureCollection",
  "name": "124419",
  "features": [
    {
      "type": "Feature",
      "geometry": {
        "type": "Point",
        "coordinates": [
          140.253226,
          35.299791
        ]
      },
      "properties": {
        "NO": 24742,
        "共通ID": "E1244100002111",
        "都道府県名及び市町村名": "千葉県大多喜町",
        "施設・場所名": "旧上瀑小学校",
        "住所": "千葉県大多喜町下大多喜100",
        "指定緊急避難場所との住所同一": "1",
        "その他市町村長が必要と認める事項": null,
        "受入対象者": null,
        "備考": ""
      }
    },
    {
      "type": "Feature",
      "geometry": {
        "type": "Point",
        "coordinates": [
          140.221956,
          35.254424
        ]
      },
      "properties": {
        "NO": 24743,
        "共通ID": "E1244100004111",
        "都道府県名及び市町村名": "千葉県大多喜町",
        "施設・場所名": "農村コミュニティーセンター",
        "住所": "千葉県大多喜町三条440-1",
        "指定緊急避難場所との住所同一": "1",
        "その他市町村長が必要と認める事項": null,
        "受入対象者": null,
        "備考": ""
      }
    },
    {
      "type": "Feature",
      "geometry": {
        "type": "Point",
        "coordinates": [
          140.168955,
          35.242669
        ]
      },
      "properties": {
        "NO": 24744,
        "共通ID": "E1244100005111",
        "都道府県名及び市町村名": "千葉県大多喜町",
        "施設・場所名": "旧老川小学校",
        "住所": "千葉県大多喜町小田代524-1",
        "指定緊急避難場所との住所同一": "1",
        "その他市町村長が必要と認める事項": null,
        "受入対象者": null,
        "備考": ""
      }
    },
    {
      "type": "Feature",
      "geometry": {
        "type": "Point",
        "coordinates": [
          140.216117,
          35.252054
        ]
      },
      "properties": {
        "NO": 24745,
        "共通ID": "E1244100006111",
        "都道府県名及び市町村名": "千葉県大多喜町",
        "施設・場所名": "西小学校",
        "住所": "千葉県大多喜町松尾277",
        "指定緊急避難場所との住所同一": "1",
        "その他市町村長が必要と認める事項": null,
        "受入対象者": null,
        "備考": ""
      }
    },
    {
      "type": "Feature",
      "geometry": {
        "type": "Point",
        "coordinates": [
          140.247633,
          35.280448
        ]
      },
      "properties": {
        "NO": 24746,
        "共通ID": "E1244100008111",
        "都道府県名及び市町村名": "千葉県大多喜町",
        "施設・場所名": "特別養護老人ホーム",
        "住所": "千葉県大多喜町新丁173-2",
        "指定緊急避難場所との住所同一": "",
        "その他市町村長が必要と認める事項": null,
        "受入対象者": null,
        "備考": ""
      }
    },
    {
      "type": "Feature",
      "geometry": {
        "type": "Point",
        "coordinates": [
          140.247633,
          35.280448
        ]
      },
      "properties": {
        "NO": 24747,
        "共通ID": "E1244100008121",
        "都道府県名及び市町村名": "千葉県大多喜町",
        "施設・場所名": "特別養護老人ホーム",
        "住所": "千葉県大多喜町新丁173-2",
        "指定緊急避難場所との住所同一": "",
        "その他市町村長が必要と認める事項": null,
        "受入対象者": "要配慮者",
        "備考": ""
      }
    },
    {
      "type": "Feature",
      "geometry": {
        "type": "Point",
        "coordinates": [
          140.248783,
          35.287402
        ]
      },
      "properties": {
        "NO": 24748,
        "共通ID": "E1244100009111",
        "都道府県名及び市町村名": "千葉県大多喜町",
        "施設・場所名": "大多喜中学校",
        "住所": "千葉県大多喜町船子197",
        "指定緊急避難場所との住所同一": "1",
        "その他市町村長が必要と認める事項": null,
        "受入対象者": null,
        "備考": ""
      }
    },
    {
      "type": "Feature",
      "geometry": {
        "type": "Point",
        "coordinates": [
          140.250651,
          35.289325
        ]
      },
      "properties": {
        "NO": 24749,
        "共通ID": "E1244100010111",
        "都道府県名及び市町村名": "千葉県大多喜町",
        "施設・場所名": "みつば保育園",
        "住所": "千葉県大多喜町船子838-2",
        "指定緊急避難場所との住所同一": "1",
        "その他市町村長が必要と認める事項": null,
        "受入対象者": null,
        "備考": ""
      }
    },
    {
      "type": "Feature",
      "geometry": {
        "type": "Point",
        "coordinates": [
          140.247451,
          35.256897
        ]
      },
      "properties": {
        "NO": 24750,
        "共通ID": "E1244100011111",
        "都道府県名及び市町村名": "千葉県大多喜町",
        "施設・場所名": "旧総元小学校",
        "住所": "千葉県大多喜町大戸433",
        "指定緊急避難場所との住所同一": "1",
        "その他市町村長が必要と認める事項": null,
        "受入対象者": null,
        "備考": ""
      }
    },
    {
      "type": "Feature",
      "geometry": {
        "type": "Point",
        "coordinates": [
          140.243706,
          35.284031
        ]
      },
      "properties": {
        "NO": 24751,
        "共通ID": "E1244100012111",
        "都道府県名及び市町村名": "千葉県大多喜町",
        "施設・場所名": "大多喜小学校",
        "住所": "千葉県大多喜町大多喜12",
        "指定緊急避難場所との住所同一": "1",
        "その他市町村長が必要と認める事項": null,
        "受入対象者": null,
        "備考": ""
      }
    },
    {
      "type": "Feature",
      "geometry": {
        "type": "Point",
        "coordinates": [
          140.240672,
          35.285571
        ]
      },
      "properties": {
        "NO": 24752,
        "共通ID": "E1244100013111",
        "都道府県名及び市町村名": "千葉県大多喜町",
        "施設・場所名": "大多喜高校",
        "住所": "千葉県大多喜町大多喜481",
        "指定緊急避難場所との住所同一": "1",
        "その他市町村長が必要と認める事項": null,
        "受入対象者": null,
        "備考": ""
      }
    },
    {
      "type": "Feature",
      "geometry": {
        "type": "Point",
        "coordinates": [
          140.235284,
          35.285155
        ]
      },
      "properties": {
        "NO": 24753,
        "共通ID": "E1244100014111",
        "都道府県名及び市町村名": "千葉県大多喜町",
        "施設・場所名": "中央公民館",
        "住所": "千葉県大多喜町大多喜486-10",
        "指定緊急避難場所との住所同一": "1",
        "その他市町村長が必要と認める事項": null,
        "受入対象者": null,
        "備考": ""
      }
    },
    {
      "type": "Feature",
      "geometry": {
        "type": "Point",
        "coordinates": [
          140.235179,
          35.284423
        ]
      },
      "properties": {
        "NO": 24754,
        "共通ID": "E1244100015111",
        "都道府県名及び市町村名": "千葉県大多喜町",
        "施設・場所名": "海洋センター",
        "住所": "千葉県大多喜町大多喜486-12",
        "指定緊急避難場所との住所同一": "1",
        "その他市町村長が必要と認める事項": null,
        "受入対象者": null,
        "備考": ""
      }
    },
    {
      "type": "Feature",
      "geometry": {
        "type": "Point",
        "coordinates": [
          140.170131,
          35.242269
        ]
      },
      "properties": {
        "NO": 24755,
        "共通ID": "E1244100016111",
        "都道府県名及び市町村名": "千葉県大多喜町",
        "施設・場所名": "老川基幹集落センター",
        "住所": "千葉県大多喜町大田代1229-1",
        "指定緊急避難場所との住所同一": "1",
        "その他市町村長が必要と認める事項": null,
        "受入対象者": null,
        "備考": ""
      }
    },
    {
      "type": "Feature",
      "geometry": {
        "type": "Point",
        "coordinates": [
          140.201401,
          35.251557
        ]
      },
      "properties": {
        "NO": 24756,
        "共通ID": "E1244100017111",
        "都道府県名及び市町村名": "千葉県大多喜町",
        "施設・場所名": "つぐみの森保育園",
        "住所": "千葉県大多喜町中野260",
        "指定緊急避難場所との住所同一": "1",
        "その他市町村長が必要と認める事項": null,
        "受入対象者": null,
        "備考": ""
      }
    },
    {
      "type": "Feature",
      "geometry": {
        "type": "Point",
        "coordinates": [
          140.203509,
          35.250441
        ]
      },
      "properties": {
        "NO": 24757,
        "共通ID": "E1244100018111",
        "都道府県名及び市町村名": "千葉県大多喜町",
        "施設・場所名": "三育学院中学校（旧西中学校）",
        "住所": "千葉県大多喜町中野589",
        "指定緊急避難場所との住所同一": "1",
        "その他市町村長が必要と認める事項": null,
        "受入対象者": null,
        "備考": ""
      }
    }
  ]
}