{
  "type": "FeatureCollection",
  "name": "131016",
  "features": [
    {
      "type": "Feature",
      "geometry": {
        "type": "Point",
        "coordinates": [
          139.756774,
          35.694133
        ]
      },
      "properties": {
        "NO": 24769,
        "共通ID": "E1310100005112",
        "都道府県名及び市町村名": "東京都千代田区",
        "施設・場所名": "神田一橋中学校",
        "住所": "東京都千代田区一ツ橋2-6-14",
        "指定緊急避難場所との住所同一": "1",
        "その他市町村長が必要と認める事項": "",
        "受入対象者": "",
        "備考": ""
      }
    },
    {
      "type": "Feature",
      "geometry": {
        "type": "Point",
        "coordinates": [
          139.739868,
          35.675709
        ]
      },
      "properties": {
        "NO": 24770,
        "共通ID": "E1310100029111",
        "都道府県名及び市町村名": "東京都千代田区",
        "施設・場所名": "都立日比谷高校",
        "住所": "東京都千代田区永田町2-16-1",
        "指定緊急避難場所との住所同一": "",
        "その他市町村長が必要と認める事項": "",
        "受入対象者": "",
        "備考": ""
      }
    },
    {
      "type": "Feature",
      "geometry": {
        "type": "Point",
        "coordinates": [
          139.769863,
          35.701205
        ]
      },
      "properties": {
        "NO": 24771,
        "共通ID": "E1310100008111",
        "都道府県名及び市町村名": "東京都千代田区",
        "施設・場所名": "昌平童夢館",
        "住所": "東京都千代田区外神田3-4-7",
        "指定緊急避難場所との住所同一": "1",
        "その他市町村長が必要と認める事項": "",
        "受入対象者": "",
        "備考": ""
      }
    },
    {
      "type": "Feature",
      "geometry": {
        "type": "Point",
        "coordinates": [
          139.777944,
          35.694391
        ]
      },
      "properties": {
        "NO": 24772,
        "共通ID": "E1310100013112",
        "都道府県名及び市町村名": "東京都千代田区",
        "施設・場所名": "岩本町ほほえみプラザ",
        "住所": "東京都千代田区岩本町2-15-3",
        "指定緊急避難場所との住所同一": "1",
        "その他市町村長が必要と認める事項": "",
        "受入対象者": "",
        "備考": ""
      }
    },
    {
      "type": "Feature",
      "geometry": {
        "type": "Point",
        "coordinates": [
          139.739606,
          35.685559
        ]
      },
      "properties": {
        "NO": 24773,
        "共通ID": "E1310100028111",
        "都道府県名及び市町村名": "東京都千代田区",
        "施設・場所名": "麹町小学校",
        "住所": "東京都千代田区麹町2-8",
        "指定緊急避難場所との住所同一": "1",
        "その他市町村長が必要と認める事項": "",
        "受入対象者": "",
        "備考": ""
      }
    },
    {
      "type": "Feature",
      "geometry": {
        "type": "Point",
        "coordinates": [
          139.740759,
          35.690513
        ]
      },
      "properties": {
        "NO": 24774,
        "共通ID": "E1310100001112",
        "都道府県名及び市町村名": "東京都千代田区",
        "施設・場所名": "九段小学校",
        "住所": "東京都千代田区三番町16",
        "指定緊急避難場所との住所同一": "1",
        "その他市町村長が必要と認める事項": "",
        "受入対象者": "",
        "備考": ""
      }
    },
    {
      "type": "Feature",
      "geometry": {
        "type": "Point",
        "coordinates": [
          139.760391,
          35.697388
        ]
      },
      "properties": {
        "NO": 24775,
        "共通ID": "E1310100031111",
        "都道府県名及び市町村名": "東京都千代田区",
        "施設・場所名": "お茶の水小学校",
        "住所": "東京都千代田区神田猿楽町1-1-1",
        "指定緊急避難場所との住所同一": "1",
        "その他市町村長が必要と認める事項": "",
        "受入対象者": "",
        "備考": ""
      }
    },
    {
      "type": "Feature",
      "geometry": {
        "type": "Point",
        "coordinates": [
          139.768504,
          35.693411
        ]
      },
      "properties": {
        "NO": 24776,
        "共通ID": "E1310100007111",
        "都道府県名及び市町村名": "東京都千代田区",
        "施設・場所名": "神田さくら館",
        "住所": "東京都千代田区神田司町2-16",
        "指定緊急避難場所との住所同一": "1",
        "その他市町村長が必要と認める事項": "",
        "受入対象者": "",
        "備考": ""
      }
    },
    {
      "type": "Feature",
      "geometry": {
        "type": "Point",
        "coordinates": [
          139.778629,
          35.699228
        ]
      },
      "properties": {
        "NO": 24777,
        "共通ID": "E1310100010111",
        "都道府県名及び市町村名": "東京都千代田区",
        "施設・場所名": "ちよだパークサイドプラザ",
        "住所": "東京都千代田区神田和泉町1",
        "指定緊急避難場所との住所同一": "1",
        "その他市町村長が必要と認める事項": "",
        "受入対象者": "",
        "備考": ""
      }
    },
    {
      "type": "Feature",
      "geometry": {
        "type": "Point",
        "coordinates": [
          139.773138,
          35.69171
        ]
      },
      "properties": {
        "NO": 24778,
        "共通ID": "E1310100011111",
        "都道府県名及び市町村名": "東京都千代田区",
        "施設・場所名": "旧今川中学校",
        "住所": "東京都千代田区鍛冶町2-4-2",
        "指定緊急避難場所との住所同一": "1",
        "その他市町村長が必要と認める事項": "",
        "受入対象者": "",
        "備考": ""
      }
    },
    {
      "type": "Feature",
      "geometry": {
        "type": "Point",
        "coordinates": [
          139.781,
          35.694549
        ]
      },
      "properties": {
        "NO": 24779,
        "共通ID": "E1310100012111",
        "都道府県名及び市町村名": "東京都千代田区",
        "施設・場所名": "都立一橋高校",
        "住所": "東京都千代田区東神田1-12-13",
        "指定緊急避難場所との住所同一": "1",
        "その他市町村長が必要と認める事項": "",
        "受入対象者": "",
        "備考": ""
      }
    },
    {
      "type": "Feature",
      "geometry": {
        "type": "Point",
        "coordinates": [
          139.767584,
          35.689135
        ]
      },
      "properties": {
        "NO": 24780,
        "共通ID": "E1310100006111",
        "都道府県名及び市町村名": "東京都千代田区",
        "施設・場所名": "区立スポーツセンター",
        "住所": "東京都千代田区内神田2-1-8",
        "指定緊急避難場所との住所同一": "1",
        "その他市町村長が必要と認める事項": "",
        "受入対象者": "",
        "備考": ""
      }
    },
    {
      "type": "Feature",
      "geometry": {
        "type": "Point",
        "coordinates": [
          139.746658,
          35.697475
        ]
      },
      "properties": {
        "NO": 24781,
        "共通ID": "E1310100004112",
        "都道府県名及び市町村名": "東京都千代田区",
        "施設・場所名": "富士見みらい館",
        "住所": "東京都千代田区富士見1-10-3",
        "指定緊急避難場所との住所同一": "1",
        "その他市町村長が必要と認める事項": "",
        "受入対象者": "",
        "備考": ""
      }
    },
    {
      "type": "Feature",
      "geometry": {
        "type": "Point",
        "coordinates": [
          139.738645,
          35.680571
        ]
      },
      "properties": {
        "NO": 24782,
        "共通ID": "E1310100003112",
        "都道府県名及び市町村名": "東京都千代田区",
        "施設・場所名": "麹町中学校",
        "住所": "東京都千代田区平河町2-5-1",
        "指定緊急避難場所との住所同一": "1",
        "その他市町村長が必要と認める事項": "",
        "受入対象者": "",
        "備考": ""
      }
    },
    {
      "type": "Feature",
      "geometry": {
        "type": "Point",
        "coordinates": [
          139.734079,
          35.688112
        ]
      },
      "properties": {
        "NO": 24783,
        "共通ID": "E1310100002111",
        "都道府県名及び市町村名": "東京都千代田区",
        "施設・場所名": "番町小学校",
        "住所": "東京都千代田区六番町8",
        "指定緊急避難場所との住所同一": "1",
        "その他市町村長が必要と認める事項": "",
        "受入対象者": "",
        "備考": ""
      }
    }
  ]
}