{
  "type": "FeatureCollection",
  "name": "131105",
  "features": [
    {
      "type": "Feature",
      "geometry": {
        "type": "Point",
        "coordinates": [
          139.707517,
          35.631057
        ]
      },
      "properties": {
        "NO": 25473,
        "共通ID": "E1311000001111",
        "都道府県名及び市町村名": "東京都目黒区",
        "施設・場所名": "大鳥中学校",
        "住所": "東京都目黒区下目黒3-23-18",
        "指定緊急避難場所との住所同一": "1",
        "その他市町村長が必要と認める事項": null,
        "受入対象者": null,
        "備考": ""
      }
    },
    {
      "type": "Feature",
      "geometry": {
        "type": "Point",
        "coordinates": [
          139.699116,
          35.627093
        ]
      },
      "properties": {
        "NO": 25474,
        "共通ID": "E1311000002111",
        "都道府県名及び市町村名": "東京都目黒区",
        "施設・場所名": "不動小学校",
        "住所": "東京都目黒区下目黒6-11-35",
        "指定緊急避難場所との住所同一": "1",
        "その他市町村長が必要と認める事項": null,
        "受入対象者": null,
        "備考": ""
      }
    },
    {
      "type": "Feature",
      "geometry": {
        "type": "Point",
        "coordinates": [
          139.678938,
          35.659014
        ]
      },
      "properties": {
        "NO": 25475,
        "共通ID": "E1311000003111",
        "都道府県名及び市町村名": "東京都目黒区",
        "施設・場所名": "都立国際高等学校",
        "住所": "東京都目黒区駒場2-19-59",
        "指定緊急避難場所との住所同一": "1",
        "その他市町村長が必要と認める事項": null,
        "受入対象者": null,
        "備考": ""
      }
    },
    {
      "type": "Feature",
      "geometry": {
        "type": "Point",
        "coordinates": [
          139.681907,
          35.659871
        ]
      },
      "properties": {
        "NO": 25476,
        "共通ID": "E1311000004111",
        "都道府県名及び市町村名": "東京都目黒区",
        "施設・場所名": "駒場小学校",
        "住所": "東京都目黒区駒場3-11-13",
        "指定緊急避難場所との住所同一": "1",
        "その他市町村長が必要と認める事項": null,
        "受入対象者": null,
        "備考": ""
      }
    },
    {
      "type": "Feature",
      "geometry": {
        "type": "Point",
        "coordinates": [
          139.690654,
          35.615568
        ]
      },
      "properties": {
        "NO": 25477,
        "共通ID": "E1311000005111",
        "都道府県名及び市町村名": "東京都目黒区",
        "施設・場所名": "原町小学校",
        "住所": "東京都目黒区原町2-18-12",
        "指定緊急避難場所との住所同一": "1",
        "その他市町村長が必要と認める事項": null,
        "受入対象者": null,
        "備考": ""
      }
    },
    {
      "type": "Feature",
      "geometry": {
        "type": "Point",
        "coordinates": [
          139.690339,
          35.638734
        ]
      },
      "properties": {
        "NO": 25478,
        "共通ID": "E1311000006111",
        "都道府県名及び市町村名": "東京都目黒区",
        "施設・場所名": "上目黒小学校",
        "住所": "東京都目黒区五本木1-12-13",
        "指定緊急避難場所との住所同一": "1",
        "その他市町村長が必要と認める事項": null,
        "受入対象者": null,
        "備考": ""
      }
    },
    {
      "type": "Feature",
      "geometry": {
        "type": "Point",
        "coordinates": [
          139.687608,
          35.634136
        ]
      },
      "properties": {
        "NO": 25479,
        "共通ID": "E1311000007111",
        "都道府県名及び市町村名": "東京都目黒区",
        "施設・場所名": "五本木小学校",
        "住所": "東京都目黒区五本木2-24-3",
        "指定緊急避難場所との住所同一": "1",
        "その他市町村長が必要と認める事項": null,
        "受入対象者": null,
        "備考": ""
      }
    },
    {
      "type": "Feature",
      "geometry": {
        "type": "Point",
        "coordinates": [
          139.666354,
          35.612275
        ]
      },
      "properties": {
        "NO": 25480,
        "共通ID": "E1311000008111",
        "都道府県名及び市町村名": "東京都目黒区",
        "施設・場所名": "自由ヶ丘学園高等学校",
        "住所": "東京都目黒区自由が丘2-21-1",
        "指定緊急避難場所との住所同一": "1",
        "その他市町村長が必要と認める事項": null,
        "受入対象者": null,
        "備考": ""
      }
    },
    {
      "type": "Feature",
      "geometry": {
        "type": "Point",
        "coordinates": [
          139.692451,
          35.644323
        ]
      },
      "properties": {
        "NO": 25481,
        "共通ID": "E1311000009111",
        "都道府県名及び市町村名": "東京都目黒区",
        "施設・場所名": "烏森小学校",
        "住所": "東京都目黒区上目黒3-37-27",
        "指定緊急避難場所との住所同一": "1",
        "その他市町村長が必要と認める事項": null,
        "受入対象者": null,
        "備考": ""
      }
    },
    {
      "type": "Feature",
      "geometry": {
        "type": "Point",
        "coordinates": [
          139.692793,
          35.650885
        ]
      },
      "properties": {
        "NO": 25482,
        "共通ID": "E1311000010111",
        "都道府県名及び市町村名": "東京都目黒区",
        "施設・場所名": "菅刈小学校及び菅刈公園",
        "住所": "東京都目黒区青葉台3-3-26",
        "指定緊急避難場所との住所同一": "1",
        "その他市町村長が必要と認める事項": null,
        "受入対象者": null,
        "備考": ""
      }
    },
    {
      "type": "Feature",
      "geometry": {
        "type": "Point",
        "coordinates": [
          139.686528,
          35.654651
        ]
      },
      "properties": {
        "NO": 25483,
        "共通ID": "E1311000013111",
        "都道府県名及び市町村名": "東京都目黒区",
        "施設・場所名": "第一中学校",
        "住所": "東京都目黒区大橋2-11-1",
        "指定緊急避難場所との住所同一": "1",
        "その他市町村長が必要と認める事項": null,
        "受入対象者": null,
        "備考": ""
      }
    },
    {
      "type": "Feature",
      "geometry": {
        "type": "Point",
        "coordinates": [
          139.68587,
          35.65488
        ]
      },
      "properties": {
        "NO": 25484,
        "共通ID": "E1311000014111",
        "都道府県名及び市町村名": "東京都目黒区",
        "施設・場所名": "都立駒場高等学校",
        "住所": "東京都目黒区大橋2-18-1",
        "指定緊急避難場所との住所同一": "1",
        "その他市町村長が必要と認める事項": null,
        "受入対象者": null,
        "備考": ""
      }
    },
    {
      "type": "Feature",
      "geometry": {
        "type": "Point",
        "coordinates": [
          139.689973,
          35.62758
        ]
      },
      "properties": {
        "NO": 25485,
        "共通ID": "E1311000015111",
        "都道府県名及び市町村名": "東京都目黒区",
        "施設・場所名": "鷹番小学校",
        "住所": "東京都目黒区中央町1-20-26",
        "指定緊急避難場所との住所同一": "1",
        "その他市町村長が必要と認める事項": null,
        "受入対象者": null,
        "備考": ""
      }
    },
    {
      "type": "Feature",
      "geometry": {
        "type": "Point",
        "coordinates": [
          139.698367,
          35.632435
        ]
      },
      "properties": {
        "NO": 25486,
        "共通ID": "E1311000016111",
        "都道府県名及び市町村名": "東京都目黒区",
        "施設・場所名": "油面小学校",
        "住所": "東京都目黒区中町1-5-4",
        "指定緊急避難場所との住所同一": "1",
        "その他市町村長が必要と認める事項": null,
        "受入対象者": null,
        "備考": ""
      }
    },
    {
      "type": "Feature",
      "geometry": {
        "type": "Point",
        "coordinates": [
          139.693875,
          35.634618
        ]
      },
      "properties": {
        "NO": 25487,
        "共通ID": "E1311000017111",
        "都道府県名及び市町村名": "東京都目黒区",
        "施設・場所名": "目黒中央中学校",
        "住所": "東京都目黒区中町2-37-38",
        "指定緊急避難場所との住所同一": "1",
        "その他市町村長が必要と認める事項": null,
        "受入対象者": null,
        "備考": ""
      }
    },
    {
      "type": "Feature",
      "geometry": {
        "type": "Point",
        "coordinates": [
          139.70275,
          35.644463
        ]
      },
      "properties": {
        "NO": 25488,
        "共通ID": "E1311000042111",
        "都道府県名及び市町村名": "東京都目黒区",
        "施設・場所名": "目黒学院中学校・高等学校",
        "住所": "東京都目黒区中目黒1-1-50",
        "指定緊急避難場所との住所同一": "1",
        "その他市町村長が必要と認める事項": "",
        "受入対象者": "",
        "備考": ""
      }
    },
    {
      "type": "Feature",
      "geometry": {
        "type": "Point",
        "coordinates": [
          139.698917,
          35.640108
        ]
      },
      "properties": {
        "NO": 25489,
        "共通ID": "E1311000018111",
        "都道府県名及び市町村名": "東京都目黒区",
        "施設・場所名": "中目黒小学校",
        "住所": "東京都目黒区中目黒3-13-32",
        "指定緊急避難場所との住所同一": "1",
        "その他市町村長が必要と認める事項": null,
        "受入対象者": null,
        "備考": ""
      }
    },
    {
      "type": "Feature",
      "geometry": {
        "type": "Point",
        "coordinates": [
          139.702636,
          35.639334
        ]
      },
      "properties": {
        "NO": 25490,
        "共通ID": "E1311000019111",
        "都道府県名及び市町村名": "東京都目黒区",
        "施設・場所名": "めぐろ学校サポートセンター",
        "住所": "東京都目黒区中目黒3-6-10",
        "指定緊急避難場所との住所同一": "1",
        "その他市町村長が必要と認める事項": null,
        "受入対象者": null,
        "備考": ""
      }
    },
    {
      "type": "Feature",
      "geometry": {
        "type": "Point",
        "coordinates": [
          139.668057,
          35.627153
        ]
      },
      "properties": {
        "NO": 25491,
        "共通ID": "E1311000020111",
        "都道府県名及び市町村名": "東京都目黒区",
        "施設・場所名": "東根小学校",
        "住所": "東京都目黒区東が丘1-20-1",
        "指定緊急避難場所との住所同一": "1",
        "その他市町村長が必要と認める事項": null,
        "受入対象者": null,
        "備考": ""
      }
    },
    {
      "type": "Feature",
      "geometry": {
        "type": "Point",
        "coordinates": [
          139.690268,
          35.646482
        ]
      },
      "properties": {
        "NO": 25492,
        "共通ID": "E1311000021111",
        "都道府県名及び市町村名": "東京都目黒区",
        "施設・場所名": "東山中学校",
        "住所": "東京都目黒区東山1-24-31",
        "指定緊急避難場所との住所同一": "1",
        "その他市町村長が必要と認める事項": null,
        "受入対象者": null,
        "備考": ""
      }
    },
    {
      "type": "Feature",
      "geometry": {
        "type": "Point",
        "coordinates": [
          139.685809,
          35.646922
        ]
      },
      "properties": {
        "NO": 25493,
        "共通ID": "E1311000022111",
        "都道府県名及び市町村名": "東京都目黒区",
        "施設・場所名": "東山小学校",
        "住所": "東京都目黒区東山2-24-25",
        "指定緊急避難場所との住所同一": "1",
        "その他市町村長が必要と認める事項": null,
        "受入対象者": null,
        "備考": ""
      }
    },
    {
      "type": "Feature",
      "geometry": {
        "type": "Point",
        "coordinates": [
          139.672036,
          35.621156
        ]
      },
      "properties": {
        "NO": 25494,
        "共通ID": "E1311000023111",
        "都道府県名及び市町村名": "東京都目黒区",
        "施設・場所名": "めぐろ区民キャンパス及び都立桜修館中等教育学校",
        "住所": "東京都目黒区八雲1-1-1",
        "指定緊急避難場所との住所同一": "1",
        "その他市町村長が必要と認める事項": null,
        "受入対象者": null,
        "備考": ""
      }
    },
    {
      "type": "Feature",
      "geometry": {
        "type": "Point",
        "coordinates": [
          139.671274,
          35.618146
        ]
      },
      "properties": {
        "NO": 25495,
        "共通ID": "E1311000025111",
        "都道府県名及び市町村名": "東京都目黒区",
        "施設・場所名": "八雲小学校",
        "住所": "東京都目黒区八雲2-5-1",
        "指定緊急避難場所との住所同一": "1",
        "その他市町村長が必要と認める事項": null,
        "受入対象者": null,
        "備考": ""
      }
    },
    {
      "type": "Feature",
      "geometry": {
        "type": "Point",
        "coordinates": [
          139.666846,
          35.615334
        ]
      },
      "properties": {
        "NO": 25496,
        "共通ID": "E1311000026111",
        "都道府県名及び市町村名": "東京都目黒区",
        "施設・場所名": "宮前小学校",
        "住所": "東京都目黒区八雲3-13-21",
        "指定緊急避難場所との住所同一": "1",
        "その他市町村長が必要と認める事項": null,
        "受入対象者": null,
        "備考": ""
      }
    },
    {
      "type": "Feature",
      "geometry": {
        "type": "Point",
        "coordinates": [
          139.668664,
          35.624395
        ]
      },
      "properties": {
        "NO": 25497,
        "共通ID": "E1311000027111",
        "都道府県名及び市町村名": "東京都目黒区",
        "施設・場所名": "第十中学校",
        "住所": "東京都目黒区八雲5-2-1",
        "指定緊急避難場所との住所同一": "1",
        "その他市町村長が必要と認める事項": null,
        "受入対象者": null,
        "備考": ""
      }
    },
    {
      "type": "Feature",
      "geometry": {
        "type": "Point",
        "coordinates": [
          139.691832,
          35.622973
        ]
      },
      "properties": {
        "NO": 25498,
        "共通ID": "E1311000028111",
        "都道府県名及び市町村名": "東京都目黒区",
        "施設・場所名": "目黒南中学校",
        "住所": "東京都目黒区碑文谷1-1-33",
        "指定緊急避難場所との住所同一": "1",
        "その他市町村長が必要と認める事項": "",
        "受入対象者": "",
        "備考": ""
      }
    },
    {
      "type": "Feature",
      "geometry": {
        "type": "Point",
        "coordinates": [
          139.690649,
          35.619355
        ]
      },
      "properties": {
        "NO": 25499,
        "共通ID": "E1311000029111",
        "都道府県名及び市町村名": "東京都目黒区",
        "施設・場所名": "碑小学校",
        "住所": "東京都目黒区碑文谷1-18-2",
        "指定緊急避難場所との住所同一": "1",
        "その他市町村長が必要と認める事項": null,
        "受入対象者": null,
        "備考": ""
      }
    },
    {
      "type": "Feature",
      "geometry": {
        "type": "Point",
        "coordinates": [
          139.682434,
          35.619651
        ]
      },
      "properties": {
        "NO": 25500,
        "共通ID": "E1311000030111",
        "都道府県名及び市町村名": "東京都目黒区",
        "施設・場所名": "目黒西中学校",
        "住所": "東京都目黒区碑文谷4-19-25",
        "指定緊急避難場所との住所同一": "1",
        "その他市町村長が必要と認める事項": "",
        "受入対象者": "",
        "備考": ""
      }
    },
    {
      "type": "Feature",
      "geometry": {
        "type": "Point",
        "coordinates": [
          139.68213,
          35.626508
        ]
      },
      "properties": {
        "NO": 25501,
        "共通ID": "E1311000031111",
        "都道府県名及び市町村名": "東京都目黒区",
        "施設・場所名": "碑文谷公園及び碑文谷体育館",
        "住所": "東京都目黒区碑文谷6-9-11",
        "指定緊急避難場所との住所同一": "1",
        "その他市町村長が必要と認める事項": null,
        "受入対象者": null,
        "備考": ""
      }
    },
    {
      "type": "Feature",
      "geometry": {
        "type": "Point",
        "coordinates": [
          139.682986,
          35.615056
        ]
      },
      "properties": {
        "NO": 25502,
        "共通ID": "E1311000033111",
        "都道府県名及び市町村名": "東京都目黒区",
        "施設・場所名": "大岡山小学校",
        "住所": "東京都目黒区平町2-3-1",
        "指定緊急避難場所との住所同一": "1",
        "その他市町村長が必要と認める事項": null,
        "受入対象者": null,
        "備考": ""
      }
    },
    {
      "type": "Feature",
      "geometry": {
        "type": "Point",
        "coordinates": [
          139.709235,
          35.637591
        ]
      },
      "properties": {
        "NO": 25503,
        "共通ID": "E1311000034111",
        "都道府県名及び市町村名": "東京都目黒区",
        "施設・場所名": "田道小学校",
        "住所": "東京都目黒区目黒1-15-28",
        "指定緊急避難場所との住所同一": "1",
        "その他市町村長が必要と認める事項": null,
        "受入対象者": null,
        "備考": ""
      }
    },
    {
      "type": "Feature",
      "geometry": {
        "type": "Point",
        "coordinates": [
          139.70916,
          35.634187
        ]
      },
      "properties": {
        "NO": 25504,
        "共通ID": "E1311000035111",
        "都道府県名及び市町村名": "東京都目黒区",
        "施設・場所名": "下目黒小学校",
        "住所": "東京都目黒区目黒2-7-9",
        "指定緊急避難場所との住所同一": "1",
        "その他市町村長が必要と認める事項": null,
        "受入対象者": null,
        "備考": ""
      }
    },
    {
      "type": "Feature",
      "geometry": {
        "type": "Point",
        "coordinates": [
          139.694949,
          35.623025
        ]
      },
      "properties": {
        "NO": 25505,
        "共通ID": "E1311000036111",
        "都道府県名及び市町村名": "東京都目黒区",
        "施設・場所名": "月光原小学校",
        "住所": "東京都目黒区目黒本町4-15-3",
        "指定緊急避難場所との住所同一": "1",
        "その他市町村長が必要と認める事項": null,
        "受入対象者": null,
        "備考": ""
      }
    },
    {
      "type": "Feature",
      "geometry": {
        "type": "Point",
        "coordinates": [
          139.695752,
          35.618492
        ]
      },
      "properties": {
        "NO": 25506,
        "共通ID": "E1311000037111",
        "都道府県名及び市町村名": "東京都目黒区",
        "施設・場所名": "向原小学校",
        "住所": "東京都目黒区目黒本町6-7-15",
        "指定緊急避難場所との住所同一": "1",
        "その他市町村長が必要と認める事項": null,
        "受入対象者": null,
        "備考": ""
      }
    },
    {
      "type": "Feature",
      "geometry": {
        "type": "Point",
        "coordinates": [
          139.694477,
          35.636898
        ]
      },
      "properties": {
        "NO": 25507,
        "共通ID": "E1311000038111",
        "都道府県名及び市町村名": "東京都目黒区",
        "施設・場所名": "都立目黒高等学校",
        "住所": "東京都目黒区祐天寺2-7-15",
        "指定緊急避難場所との住所同一": "1",
        "その他市町村長が必要と認める事項": null,
        "受入対象者": null,
        "備考": ""
      }
    },
    {
      "type": "Feature",
      "geometry": {
        "type": "Point",
        "coordinates": [
          139.678278,
          35.612678
        ]
      },
      "properties": {
        "NO": 25508,
        "共通ID": "E1311000039111",
        "都道府県名及び市町村名": "東京都目黒区",
        "施設・場所名": "中根小学校",
        "住所": "東京都目黒区緑が丘1-1-1",
        "指定緊急避難場所との住所同一": "1",
        "その他市町村長が必要と認める事項": null,
        "受入対象者": null,
        "備考": ""
      }
    },
    {
      "type": "Feature",
      "geometry": {
        "type": "Point",
        "coordinates": [
          139.673318,
          35.610287
        ]
      },
      "properties": {
        "NO": 25509,
        "共通ID": "E1311000041111",
        "都道府県名及び市町村名": "東京都目黒区",
        "施設・場所名": "緑ヶ丘小学校",
        "住所": "東京都目黒区緑が丘2-13-1",
        "指定緊急避難場所との住所同一": "1",
        "その他市町村長が必要と認める事項": null,
        "受入対象者": null,
        "備考": ""
      }
    }
  ]
}