{
  "type": "FeatureCollection",
  "name": "132101",
  "features": [
    {
      "type": "Feature",
      "geometry": {
        "type": "Point",
        "coordinates": [
          139.52323,
          35.704599
        ]
      },
      "properties": {
        "NO": 27247,
        "共通ID": "E1321000003111",
        "都道府県名及び市町村名": "東京都小金井市",
        "施設・場所名": "市立小金井第三小学校",
        "住所": "東京都小金井市梶野町5-7-1",
        "指定緊急避難場所との住所同一": "1",
        "その他市町村長が必要と認める事項": null,
        "受入対象者": null,
        "備考": ""
      }
    },
    {
      "type": "Feature",
      "geometry": {
        "type": "Point",
        "coordinates": [
          139.49996,
          35.690692
        ]
      },
      "properties": {
        "NO": 27248,
        "共通ID": "E1321000004111",
        "都道府県名及び市町村名": "東京都小金井市",
        "施設・場所名": "市立南中学校",
        "住所": "東京都小金井市貫井南町1-26-1",
        "指定緊急避難場所との住所同一": "1",
        "その他市町村長が必要と認める事項": null,
        "受入対象者": null,
        "備考": ""
      }
    },
    {
      "type": "Feature",
      "geometry": {
        "type": "Point",
        "coordinates": [
          139.495129,
          35.699222
        ]
      },
      "properties": {
        "NO": 27249,
        "共通ID": "E1321000005111",
        "都道府県名及び市町村名": "東京都小金井市",
        "施設・場所名": "三楽集会所",
        "住所": "東京都小金井市貫井南町3-6-18",
        "指定緊急避難場所との住所同一": "",
        "その他市町村長が必要と認める事項": null,
        "受入対象者": null,
        "備考": ""
      }
    },
    {
      "type": "Feature",
      "geometry": {
        "type": "Point",
        "coordinates": [
          139.494107,
          35.699895
        ]
      },
      "properties": {
        "NO": 27250,
        "共通ID": "E1321000006111",
        "都道府県名及び市町村名": "東京都小金井市",
        "施設・場所名": "市立小金井第四小学校",
        "住所": "東京都小金井市貫井南町3-9-1",
        "指定緊急避難場所との住所同一": "1",
        "その他市町村長が必要と認める事項": null,
        "受入対象者": null,
        "備考": ""
      }
    },
    {
      "type": "Feature",
      "geometry": {
        "type": "Point",
        "coordinates": [
          139.503903,
          35.710493
        ]
      },
      "properties": {
        "NO": 27251,
        "共通ID": "E1321000011111",
        "都道府県名及び市町村名": "東京都小金井市",
        "施設・場所名": "市立小金井第一中学校",
        "住所": "東京都小金井市桜町2-3-15",
        "指定緊急避難場所との住所同一": "1",
        "その他市町村長が必要と認める事項": null,
        "受入対象者": null,
        "備考": ""
      }
    },
    {
      "type": "Feature",
      "geometry": {
        "type": "Point",
        "coordinates": [
          139.5054,
          35.710418
        ]
      },
      "properties": {
        "NO": 27252,
        "共通ID": "E1321000012111",
        "都道府県名及び市町村名": "東京都小金井市",
        "施設・場所名": "市立小金井第二小学校",
        "住所": "東京都小金井市桜町2-3-58",
        "指定緊急避難場所との住所同一": "1",
        "その他市町村長が必要と認める事項": null,
        "受入対象者": null,
        "備考": ""
      }
    },
    {
      "type": "Feature",
      "geometry": {
        "type": "Point",
        "coordinates": [
          139.513631,
          35.691464
        ]
      },
      "properties": {
        "NO": 27253,
        "共通ID": "E1321000013111",
        "都道府県名及び市町村名": "東京都小金井市",
        "施設・場所名": "市立南小学校",
        "住所": "東京都小金井市前原町2-2-1",
        "指定緊急避難場所との住所同一": "1",
        "その他市町村長が必要と認める事項": null,
        "受入対象者": null,
        "備考": ""
      }
    },
    {
      "type": "Feature",
      "geometry": {
        "type": "Point",
        "coordinates": [
          139.502075,
          35.694177
        ]
      },
      "properties": {
        "NO": 27254,
        "共通ID": "E1321000015111",
        "都道府県名及び市町村名": "東京都小金井市",
        "施設・場所名": "市立前原小学校",
        "住所": "東京都小金井市前原町3-4-22",
        "指定緊急避難場所との住所同一": "1",
        "その他市町村長が必要と認める事項": null,
        "受入対象者": null,
        "備考": ""
      }
    },
    {
      "type": "Feature",
      "geometry": {
        "type": "Point",
        "coordinates": [
          139.510841,
          35.695279
        ]
      },
      "properties": {
        "NO": 27255,
        "共通ID": "E1321000016111",
        "都道府県名及び市町村名": "東京都小金井市",
        "施設・場所名": "市立小金井第二中学校",
        "住所": "東京都小金井市中町1-8-25",
        "指定緊急避難場所との住所同一": "1",
        "その他市町村長が必要と認める事項": null,
        "受入対象者": null,
        "備考": ""
      }
    },
    {
      "type": "Feature",
      "geometry": {
        "type": "Point",
        "coordinates": [
          139.525331,
          35.69053
        ]
      },
      "properties": {
        "NO": 27256,
        "共通ID": "E1321000020111",
        "都道府県名及び市町村名": "東京都小金井市",
        "施設・場所名": "市立東中学校",
        "住所": "東京都小金井市東町1-5-33",
        "指定緊急避難場所との住所同一": "1",
        "その他市町村長が必要と認める事項": null,
        "受入対象者": null,
        "備考": ""
      }
    },
    {
      "type": "Feature",
      "geometry": {
        "type": "Point",
        "coordinates": [
          139.523695,
          35.694572
        ]
      },
      "properties": {
        "NO": 27257,
        "共通ID": "E1321000021111",
        "都道府県名及び市町村名": "東京都小金井市",
        "施設・場所名": "友愛会館",
        "住所": "東京都小金井市東町4-10-2",
        "指定緊急避難場所との住所同一": "",
        "その他市町村長が必要と認める事項": null,
        "受入対象者": null,
        "備考": ""
      }
    },
    {
      "type": "Feature",
      "geometry": {
        "type": "Point",
        "coordinates": [
          139.526914,
          35.698494
        ]
      },
      "properties": {
        "NO": 27258,
        "共通ID": "E1321000022111",
        "都道府県名及び市町村名": "東京都小金井市",
        "施設・場所名": "市立東小学校",
        "住所": "東京都小金井市東町4-25-6",
        "指定緊急避難場所との住所同一": "1",
        "その他市町村長が必要と認める事項": null,
        "受入対象者": null,
        "備考": ""
      }
    },
    {
      "type": "Feature",
      "geometry": {
        "type": "Point",
        "coordinates": [
          139.510313,
          35.698376
        ]
      },
      "properties": {
        "NO": 27259,
        "共通ID": "E1321000023111",
        "都道府県名及び市町村名": "東京都小金井市",
        "施設・場所名": "市立小金井第一小学校",
        "住所": "東京都小金井市本町1-1-6",
        "指定緊急避難場所との住所同一": "1",
        "その他市町村長が必要と認める事項": null,
        "受入対象者": null,
        "備考": ""
      }
    },
    {
      "type": "Feature",
      "geometry": {
        "type": "Point",
        "coordinates": [
          139.50101,
          35.704364
        ]
      },
      "properties": {
        "NO": 27260,
        "共通ID": "E1321000024111",
        "都道府県名及び市町村名": "東京都小金井市",
        "施設・場所名": "市立本町小学校",
        "住所": "東京都小金井市本町5-29-21",
        "指定緊急避難場所との住所同一": "1",
        "その他市町村長が必要と認める事項": null,
        "受入対象者": null,
        "備考": ""
      }
    },
    {
      "type": "Feature",
      "geometry": {
        "type": "Point",
        "coordinates": [
          139.519287,
          35.708562
        ]
      },
      "properties": {
        "NO": 27261,
        "共通ID": "E1321000026111",
        "都道府県名及び市町村名": "東京都小金井市",
        "施設・場所名": "市立緑中学校",
        "住所": "東京都小金井市緑町2-11-47",
        "指定緊急避難場所との住所同一": "1",
        "その他市町村長が必要と認める事項": null,
        "受入対象者": null,
        "備考": ""
      }
    },
    {
      "type": "Feature",
      "geometry": {
        "type": "Point",
        "coordinates": [
          139.516426,
          35.70915
        ]
      },
      "properties": {
        "NO": 27262,
        "共通ID": "E1321000028111",
        "都道府県名及び市町村名": "東京都小金井市",
        "施設・場所名": "市立緑小学校",
        "住所": "東京都小金井市緑町4-15-39",
        "指定緊急避難場所との住所同一": "1",
        "その他市町村長が必要と認める事項": null,
        "受入対象者": null,
        "備考": ""
      }
    }
  ]
}