{
  "type": "FeatureCollection",
  "name": "132276",
  "features": [
    {
      "type": "Feature",
      "geometry": {
        "type": "Point",
        "coordinates": [
          139.330168,
          35.768029
        ]
      },
      "properties": {
        "NO": 27734,
        "共通ID": "E1322700001111",
        "都道府県名及び市町村名": "東京都羽村市",
        "施設・場所名": "松林小学校",
        "住所": "東京都羽村市羽4122-2",
        "指定緊急避難場所との住所同一": "1",
        "その他市町村長が必要と認める事項": null,
        "受入対象者": null,
        "備考": ""
      }
    },
    {
      "type": "Feature",
      "geometry": {
        "type": "Point",
        "coordinates": [
          139.300075,
          35.765173
        ]
      },
      "properties": {
        "NO": 27735,
        "共通ID": "E1322700002111",
        "都道府県名及び市町村名": "東京都羽村市",
        "施設・場所名": "羽村西小学校",
        "住所": "東京都羽村市羽加美4-2-9",
        "指定緊急避難場所との住所同一": "1",
        "その他市町村長が必要と認める事項": null,
        "受入対象者": null,
        "備考": ""
      }
    },
    {
      "type": "Feature",
      "geometry": {
        "type": "Point",
        "coordinates": [
          139.307157,
          35.761745
        ]
      },
      "properties": {
        "NO": 27736,
        "共通ID": "E1322700003111",
        "都道府県名及び市町村名": "東京都羽村市",
        "施設・場所名": "羽村第一中学校",
        "住所": "東京都羽村市羽中3-6-33",
        "指定緊急避難場所との住所同一": "1",
        "その他市町村長が必要と認める事項": null,
        "受入対象者": null,
        "備考": ""
      }
    },
    {
      "type": "Feature",
      "geometry": {
        "type": "Point",
        "coordinates": [
          139.31315,
          35.754493
        ]
      },
      "properties": {
        "NO": 27737,
        "共通ID": "E1322700004111",
        "都道府県名及び市町村名": "東京都羽村市",
        "施設・場所名": "羽村東小学校",
        "住所": "東京都羽村市羽東2-18-1",
        "指定緊急避難場所との住所同一": "1",
        "その他市町村長が必要と認める事項": null,
        "受入対象者": null,
        "備考": ""
      }
    },
    {
      "type": "Feature",
      "geometry": {
        "type": "Point",
        "coordinates": [
          139.312329,
          35.771862
        ]
      },
      "properties": {
        "NO": 27738,
        "共通ID": "E1322700005111",
        "都道府県名及び市町村名": "東京都羽村市",
        "施設・場所名": "栄小学校",
        "住所": "東京都羽村市栄町2-17",
        "指定緊急避難場所との住所同一": "1",
        "その他市町村長が必要と認める事項": null,
        "受入対象者": null,
        "備考": ""
      }
    },
    {
      "type": "Feature",
      "geometry": {
        "type": "Point",
        "coordinates": [
          139.317502,
          35.762249
        ]
      },
      "properties": {
        "NO": 27739,
        "共通ID": "E1322700007111",
        "都道府県名及び市町村名": "東京都羽村市",
        "施設・場所名": "富士見小学校",
        "住所": "東京都羽村市五ノ神4-9-5",
        "指定緊急避難場所との住所同一": "1",
        "その他市町村長が必要と認める事項": null,
        "受入対象者": null,
        "備考": ""
      }
    },
    {
      "type": "Feature",
      "geometry": {
        "type": "Point",
        "coordinates": [
          139.298715,
          35.773513
        ]
      },
      "properties": {
        "NO": 27740,
        "共通ID": "E1322700008111",
        "都道府県名及び市町村名": "東京都羽村市",
        "施設・場所名": "小作台小学校",
        "住所": "東京都羽村市小作台4-13-1",
        "指定緊急避難場所との住所同一": "1",
        "その他市町村長が必要と認める事項": null,
        "受入対象者": null,
        "備考": ""
      }
    },
    {
      "type": "Feature",
      "geometry": {
        "type": "Point",
        "coordinates": [
          139.332493,
          35.760981
        ]
      },
      "properties": {
        "NO": 27741,
        "共通ID": "E1322700010111",
        "都道府県名及び市町村名": "東京都羽村市",
        "施設・場所名": "武蔵野小学校",
        "住所": "東京都羽村市川崎693-1",
        "指定緊急避難場所との住所同一": "1",
        "その他市町村長が必要と認める事項": null,
        "受入対象者": null,
        "備考": ""
      }
    },
    {
      "type": "Feature",
      "geometry": {
        "type": "Point",
        "coordinates": [
          139.334213,
          35.761431
        ]
      },
      "properties": {
        "NO": 27742,
        "共通ID": "E1322700011111",
        "都道府県名及び市町村名": "東京都羽村市",
        "施設・場所名": "羽村第三中学校",
        "住所": "東京都羽村市川崎697-1",
        "指定緊急避難場所との住所同一": "1",
        "その他市町村長が必要と認める事項": null,
        "受入対象者": null,
        "備考": ""
      }
    },
    {
      "type": "Feature",
      "geometry": {
        "type": "Point",
        "coordinates": [
          139.324887,
          35.764878
        ]
      },
      "properties": {
        "NO": 27743,
        "共通ID": "E1322700012111",
        "都道府県名及び市町村名": "東京都羽村市",
        "施設・場所名": "羽村第二中学校",
        "住所": "東京都羽村市富士見平1-16",
        "指定緊急避難場所との住所同一": "1",
        "その他市町村長が必要と認める事項": null,
        "受入対象者": null,
        "備考": ""
      }
    }
  ]
}