{
  "type": "FeatureCollection",
  "name": "133612",
  "features": [
    {
      "type": "Feature",
      "geometry": {
        "type": "Point",
        "coordinates": [
          139.381139,
          34.784945
        ]
      },
      "properties": {
        "NO": 27867,
        "共通ID": "E1336100003112",
        "都道府県名及び市町村名": "東京都大島町",
        "施設・場所名": "第二中学校体育館",
        "住所": "東京都大島町岡田",
        "指定緊急避難場所との住所同一": "1",
        "その他市町村長が必要と認める事項": "",
        "受入対象者": "",
        "備考": ""
      }
    },
    {
      "type": "Feature",
      "geometry": {
        "type": "Point",
        "coordinates": [
          139.383078,
          34.784183
        ]
      },
      "properties": {
        "NO": 27868,
        "共通ID": "E1336100003113",
        "都道府県名及び市町村名": "東京都大島町",
        "施設・場所名": "さくら小学校体育館",
        "住所": "東京都大島町岡田",
        "指定緊急避難場所との住所同一": "1",
        "その他市町村長が必要と認める事項": "",
        "受入対象者": "",
        "備考": ""
      }
    },
    {
      "type": "Feature",
      "geometry": {
        "type": "Point",
        "coordinates": [
          139.381482,
          34.784826
        ]
      },
      "properties": {
        "NO": 27869,
        "共通ID": "E1336100003111",
        "都道府県名及び市町村名": "東京都大島町",
        "施設・場所名": "第二中学校校舎２・３階",
        "住所": "東京都大島町岡田",
        "指定緊急避難場所との住所同一": "1",
        "その他市町村長が必要と認める事項": "",
        "受入対象者": "",
        "備考": ""
      }
    },
    {
      "type": "Feature",
      "geometry": {
        "type": "Point",
        "coordinates": [
          139.391648,
          34.785312
        ]
      },
      "properties": {
        "NO": 27870,
        "共通ID": "E1336100001111",
        "都道府県名及び市町村名": "東京都大島町",
        "施設・場所名": "岡田コミュニティーセンター",
        "住所": "東京都大島町岡田字助田",
        "指定緊急避難場所との住所同一": "",
        "その他市町村長が必要と認める事項": "",
        "受入対象者": "",
        "備考": ""
      }
    },
    {
      "type": "Feature",
      "geometry": {
        "type": "Point",
        "coordinates": [
          139.382358,
          34.782717
        ]
      },
      "properties": {
        "NO": 27871,
        "共通ID": "E1336100029111",
        "都道府県名及び市町村名": "東京都大島町",
        "施設・場所名": "けんこうセンター",
        "住所": "東京都大島町岡田字沢立111-1",
        "指定緊急避難場所との住所同一": "",
        "その他市町村長が必要と認める事項": null,
        "受入対象者": null,
        "備考": ""
      }
    },
    {
      "type": "Feature",
      "geometry": {
        "type": "Point",
        "coordinates": [
          139.360231,
          34.749768
        ]
      },
      "properties": {
        "NO": 27872,
        "共通ID": "E1336100005111",
        "都道府県名及び市町村名": "東京都大島町",
        "施設・場所名": "つばき小学校体育館",
        "住所": "東京都大島町元町",
        "指定緊急避難場所との住所同一": "1",
        "その他市町村長が必要と認める事項": "",
        "受入対象者": "",
        "備考": ""
      }
    },
    {
      "type": "Feature",
      "geometry": {
        "type": "Point",
        "coordinates": [
          139.360161,
          34.757565
        ]
      },
      "properties": {
        "NO": 27873,
        "共通ID": "E1336100008111",
        "都道府県名及び市町村名": "東京都大島町",
        "施設・場所名": "第一中学校体育館",
        "住所": "東京都大島町元町",
        "指定緊急避難場所との住所同一": "",
        "その他市町村長が必要と認める事項": "",
        "受入対象者": "",
        "備考": ""
      }
    },
    {
      "type": "Feature",
      "geometry": {
        "type": "Point",
        "coordinates": [
          139.355412,
          34.750079
        ]
      },
      "properties": {
        "NO": 27874,
        "共通ID": "E1336100004121",
        "都道府県名及び市町村名": "東京都大島町",
        "施設・場所名": "大島町役場庁舎",
        "住所": "東京都大島町元町1-1-14",
        "指定緊急避難場所との住所同一": "1",
        "その他市町村長が必要と認める事項": "",
        "受入対象者": "要配慮者",
        "備考": ""
      }
    },
    {
      "type": "Feature",
      "geometry": {
        "type": "Point",
        "coordinates": [
          139.355478,
          34.750181
        ]
      },
      "properties": {
        "NO": 27875,
        "共通ID": "E1336100004111",
        "都道府県名及び市町村名": "東京都大島町",
        "施設・場所名": "開発総合センター・大島町役場２階、３階",
        "住所": "東京都大島町元町1-1-14",
        "指定緊急避難場所との住所同一": "1",
        "その他市町村長が必要と認める事項": null,
        "受入対象者": null,
        "備考": ""
      }
    },
    {
      "type": "Feature",
      "geometry": {
        "type": "Point",
        "coordinates": [
          139.355429,
          34.750216
        ]
      },
      "properties": {
        "NO": 27876,
        "共通ID": "E1336100004112",
        "都道府県名及び市町村名": "東京都大島町",
        "施設・場所名": "開発総合センター・大島町役場１階、Ｂ１階",
        "住所": "東京都大島町元町1-1-14",
        "指定緊急避難場所との住所同一": "1",
        "その他市町村長が必要と認める事項": null,
        "受入対象者": null,
        "備考": ""
      }
    },
    {
      "type": "Feature",
      "geometry": {
        "type": "Point",
        "coordinates": [
          139.361222,
          34.7773
        ]
      },
      "properties": {
        "NO": 27877,
        "共通ID": "E1336100007112",
        "都道府県名及び市町村名": "東京都大島町",
        "施設・場所名": "旧北小体育館",
        "住所": "東京都大島町元町字佐吾右衛門野地",
        "指定緊急避難場所との住所同一": "",
        "その他市町村長が必要と認める事項": "",
        "受入対象者": "",
        "備考": ""
      }
    },
    {
      "type": "Feature",
      "geometry": {
        "type": "Point",
        "coordinates": [
          139.360943,
          34.776969
        ]
      },
      "properties": {
        "NO": 27878,
        "共通ID": "E1336100007111",
        "都道府県名及び市町村名": "東京都大島町",
        "施設・場所名": "北の山公民館",
        "住所": "東京都大島町元町字佐吾右衛門野地",
        "指定緊急避難場所との住所同一": "",
        "その他市町村長が必要と認める事項": "",
        "受入対象者": "",
        "備考": ""
      }
    },
    {
      "type": "Feature",
      "geometry": {
        "type": "Point",
        "coordinates": [
          139.359816,
          34.765453
        ]
      },
      "properties": {
        "NO": 27879,
        "共通ID": "E1336100011111",
        "都道府県名及び市町村名": "東京都大島町",
        "施設・場所名": "大島高校校舎３階",
        "住所": "東京都大島町元町字八重の水127",
        "指定緊急避難場所との住所同一": "1",
        "その他市町村長が必要と認める事項": "",
        "受入対象者": "",
        "備考": ""
      }
    },
    {
      "type": "Feature",
      "geometry": {
        "type": "Point",
        "coordinates": [
          139.358861,
          34.764902
        ]
      },
      "properties": {
        "NO": 27880,
        "共通ID": "E1336100011112",
        "都道府県名及び市町村名": "東京都大島町",
        "施設・場所名": "大島高校",
        "住所": "東京都大島町元町字八重の水127",
        "指定緊急避難場所との住所同一": "1",
        "その他市町村長が必要と認める事項": "",
        "受入対象者": "",
        "備考": ""
      }
    },
    {
      "type": "Feature",
      "geometry": {
        "type": "Point",
        "coordinates": [
          139.433595,
          34.685901
        ]
      },
      "properties": {
        "NO": 27881,
        "共通ID": "E1336100014112",
        "都道府県名及び市町村名": "東京都大島町",
        "施設・場所名": "第三中学校体育館",
        "住所": "東京都大島町差木地",
        "指定緊急避難場所との住所同一": "1",
        "その他市町村長が必要と認める事項": "",
        "受入対象者": "",
        "備考": ""
      }
    },
    {
      "type": "Feature",
      "geometry": {
        "type": "Point",
        "coordinates": [
          139.432813,
          34.682239
        ]
      },
      "properties": {
        "NO": 27882,
        "共通ID": "E1336100015112",
        "都道府県名及び市町村名": "東京都大島町",
        "施設・場所名": "大島海洋国際高校",
        "住所": "東京都大島町差木地",
        "指定緊急避難場所との住所同一": "1",
        "その他市町村長が必要と認める事項": "",
        "受入対象者": "",
        "備考": ""
      }
    },
    {
      "type": "Feature",
      "geometry": {
        "type": "Point",
        "coordinates": [
          139.434244,
          34.685808
        ]
      },
      "properties": {
        "NO": 27883,
        "共通ID": "E1336100014111",
        "都道府県名及び市町村名": "東京都大島町",
        "施設・場所名": "つつじ小学校多目的室",
        "住所": "東京都大島町差木地",
        "指定緊急避難場所との住所同一": "1",
        "その他市町村長が必要と認める事項": "",
        "受入対象者": "",
        "備考": ""
      }
    },
    {
      "type": "Feature",
      "geometry": {
        "type": "Point",
        "coordinates": [
          139.434417,
          34.68234
        ]
      },
      "properties": {
        "NO": 27884,
        "共通ID": "E1336100015111",
        "都道府県名及び市町村名": "東京都大島町",
        "施設・場所名": "クダッチ老人福祉会館",
        "住所": "東京都大島町差木地",
        "指定緊急避難場所との住所同一": "1",
        "その他市町村長が必要と認める事項": "",
        "受入対象者": "",
        "備考": ""
      }
    },
    {
      "type": "Feature",
      "geometry": {
        "type": "Point",
        "coordinates": [
          139.414145,
          34.683747
        ]
      },
      "properties": {
        "NO": 27885,
        "共通ID": "E1336100012111",
        "都道府県名及び市町村名": "東京都大島町",
        "施設・場所名": "差木地公民館",
        "住所": "東京都大島町差木地1",
        "指定緊急避難場所との住所同一": "",
        "その他市町村長が必要と認める事項": "",
        "受入対象者": "",
        "備考": ""
      }
    },
    {
      "type": "Feature",
      "geometry": {
        "type": "Point",
        "coordinates": [
          139.413968,
          34.684859
        ]
      },
      "properties": {
        "NO": 27886,
        "共通ID": "E1336100012112",
        "都道府県名及び市町村名": "東京都大島町",
        "施設・場所名": "旧差木地小学校体育館",
        "住所": "東京都大島町差木地1",
        "指定緊急避難場所との住所同一": "",
        "その他市町村長が必要と認める事項": "",
        "受入対象者": "",
        "備考": ""
      }
    },
    {
      "type": "Feature",
      "geometry": {
        "type": "Point",
        "coordinates": [
          139.412787,
          34.78327
        ]
      },
      "properties": {
        "NO": 27887,
        "共通ID": "E1336100016111",
        "都道府県名及び市町村名": "東京都大島町",
        "施設・場所名": "泉津公民館",
        "住所": "東京都大島町泉津字川之原",
        "指定緊急避難場所との住所同一": "",
        "その他市町村長が必要と認める事項": "",
        "受入対象者": "",
        "備考": ""
      }
    },
    {
      "type": "Feature",
      "geometry": {
        "type": "Point",
        "coordinates": [
          139.422335,
          34.778731
        ]
      },
      "properties": {
        "NO": 27888,
        "共通ID": "E1336100018111",
        "都道府県名及び市町村名": "東京都大島町",
        "施設・場所名": "旧泉津小学校体育館",
        "住所": "東京都大島町泉津字不重",
        "指定緊急避難場所との住所同一": "",
        "その他市町村長が必要と認める事項": "",
        "受入対象者": "",
        "備考": ""
      }
    },
    {
      "type": "Feature",
      "geometry": {
        "type": "Point",
        "coordinates": [
          139.440251,
          34.690674
        ]
      },
      "properties": {
        "NO": 27889,
        "共通ID": "E1336100020111",
        "都道府県名及び市町村名": "東京都大島町",
        "施設・場所名": "旧波浮小学校体育館",
        "住所": "東京都大島町波浮港17",
        "指定緊急避難場所との住所同一": "",
        "その他市町村長が必要と認める事項": "",
        "受入対象者": "",
        "備考": ""
      }
    },
    {
      "type": "Feature",
      "geometry": {
        "type": "Point",
        "coordinates": [
          139.440867,
          34.686741
        ]
      },
      "properties": {
        "NO": 27890,
        "共通ID": "E1336100021111",
        "都道府県名及び市町村名": "東京都大島町",
        "施設・場所名": "波浮港老人福祉館",
        "住所": "東京都大島町波浮港6",
        "指定緊急避難場所との住所同一": "1",
        "その他市町村長が必要と認める事項": "",
        "受入対象者": "",
        "備考": ""
      }
    },
    {
      "type": "Feature",
      "geometry": {
        "type": "Point",
        "coordinates": [
          139.353632,
          34.72888
        ]
      },
      "properties": {
        "NO": 27891,
        "共通ID": "E1336100024111",
        "都道府県名及び市町村名": "東京都大島町",
        "施設・場所名": "野増公民館",
        "住所": "東京都大島町野増5",
        "指定緊急避難場所との住所同一": "",
        "その他市町村長が必要と認める事項": "",
        "受入対象者": "",
        "備考": ""
      }
    },
    {
      "type": "Feature",
      "geometry": {
        "type": "Point",
        "coordinates": [
          139.386115,
          34.69606
        ]
      },
      "properties": {
        "NO": 27892,
        "共通ID": "E1336100025111",
        "都道府県名及び市町村名": "東京都大島町",
        "施設・場所名": "間伏文化会館",
        "住所": "東京都大島町野増字間伏",
        "指定緊急避難場所との住所同一": "1",
        "その他市町村長が必要と認める事項": "",
        "受入対象者": "",
        "備考": ""
      }
    },
    {
      "type": "Feature",
      "geometry": {
        "type": "Point",
        "coordinates": [
          139.35609,
          34.733121
        ]
      },
      "properties": {
        "NO": 27893,
        "共通ID": "E1336100027111",
        "都道府県名及び市町村名": "東京都大島町",
        "施設・場所名": "旧野増小学校体育館",
        "住所": "東京都大島町野増字大宮",
        "指定緊急避難場所との住所同一": "1",
        "その他市町村長が必要と認める事項": "",
        "受入対象者": "",
        "備考": ""
      }
    },
    {
      "type": "Feature",
      "geometry": {
        "type": "Point",
        "coordinates": [
          139.356487,
          34.733381
        ]
      },
      "properties": {
        "NO": 27894,
        "共通ID": "E1336100027112",
        "都道府県名及び市町村名": "東京都大島町",
        "施設・場所名": "野増地域センター（旧野増小学校）　校舎２階",
        "住所": "東京都大島町野増字大宮",
        "指定緊急避難場所との住所同一": "1",
        "その他市町村長が必要と認める事項": "",
        "受入対象者": "",
        "備考": ""
      }
    }
  ]
}