{
  "type": "FeatureCollection",
  "name": "141003",
  "features": [
    {
      "type": "Feature",
      "geometry": {
        "type": "Point",
        "coordinates": [
          139.522979,
          35.456799
        ]
      },
      "properties": {
        "NO": 27954,
        "共通ID": "E1410000001111",
        "都道府県名及び市町村名": "神奈川県横浜市",
        "施設・場所名": "横浜市立さちが丘小学校",
        "住所": "神奈川県横浜市旭区さちが丘110-1",
        "指定緊急避難場所との住所同一": "1",
        "その他市町村長が必要と認める事項": null,
        "受入対象者": null,
        "備考": ""
      }
    },
    {
      "type": "Feature",
      "geometry": {
        "type": "Point",
        "coordinates": [
          139.517766,
          35.47419
        ]
      },
      "properties": {
        "NO": 27955,
        "共通ID": "E1410000002111",
        "都道府県名及び市町村名": "神奈川県横浜市",
        "施設・場所名": "横浜市立旭中学校",
        "住所": "神奈川県横浜市旭区今宿2-40-1",
        "指定緊急避難場所との住所同一": "1",
        "その他市町村長が必要と認める事項": null,
        "受入対象者": null,
        "備考": ""
      }
    },
    {
      "type": "Feature",
      "geometry": {
        "type": "Point",
        "coordinates": [
          139.536816,
          35.484803
        ]
      },
      "properties": {
        "NO": 27956,
        "共通ID": "E1410000003111",
        "都道府県名及び市町村名": "神奈川県横浜市",
        "施設・場所名": "横浜市立今宿中学校",
        "住所": "神奈川県横浜市旭区今宿東町825",
        "指定緊急避難場所との住所同一": "1",
        "その他市町村長が必要と認める事項": null,
        "受入対象者": null,
        "備考": ""
      }
    },
    {
      "type": "Feature",
      "geometry": {
        "type": "Point",
        "coordinates": [
          139.536386,
          35.484229
        ]
      },
      "properties": {
        "NO": 27957,
        "共通ID": "E1410000004111",
        "都道府県名及び市町村名": "神奈川県横浜市",
        "施設・場所名": "横浜市立今宿小学校",
        "住所": "神奈川県横浜市旭区今宿東町829",
        "指定緊急避難場所との住所同一": "1",
        "その他市町村長が必要と認める事項": null,
        "受入対象者": null,
        "備考": ""
      }
    },
    {
      "type": "Feature",
      "geometry": {
        "type": "Point",
        "coordinates": [
          139.529192,
          35.47915
        ]
      },
      "properties": {
        "NO": 27958,
        "共通ID": "E1410000005111",
        "都道府県名及び市町村名": "神奈川県横浜市",
        "施設・場所名": "横浜市立今宿南小学校",
        "住所": "神奈川県横浜市旭区今宿南町1879-2",
        "指定緊急避難場所との住所同一": "1",
        "その他市町村長が必要と認める事項": null,
        "受入対象者": null,
        "備考": ""
      }
    },
    {
      "type": "Feature",
      "geometry": {
        "type": "Point",
        "coordinates": [
          139.5562,
          35.457144
        ]
      },
      "properties": {
        "NO": 27959,
        "共通ID": "E1410000006111",
        "都道府県名及び市町村名": "神奈川県横浜市",
        "施設・場所名": "横浜市立左近山特別支援学校",
        "住所": "神奈川県横浜市旭区左近山1011",
        "指定緊急避難場所との住所同一": "1",
        "その他市町村長が必要と認める事項": null,
        "受入対象者": null,
        "備考": ""
      }
    },
    {
      "type": "Feature",
      "geometry": {
        "type": "Point",
        "coordinates": [
          139.551072,
          35.459581
        ]
      },
      "properties": {
        "NO": 27960,
        "共通ID": "E1410000583111",
        "都道府県名及び市町村名": "神奈川県横浜市",
        "施設・場所名": "横浜市立左近山中学校",
        "住所": "神奈川県横浜市旭区左近山1333-3",
        "指定緊急避難場所との住所同一": "",
        "その他市町村長が必要と認める事項": null,
        "受入対象者": null,
        "備考": ""
      }
    },
    {
      "type": "Feature",
      "geometry": {
        "type": "Point",
        "coordinates": [
          139.549768,
          35.462385
        ]
      },
      "properties": {
        "NO": 27961,
        "共通ID": "E1410000007111",
        "都道府県名及び市町村名": "神奈川県横浜市",
        "施設・場所名": "横浜市立左近山小学校",
        "住所": "神奈川県横浜市旭区左近山1997-2",
        "指定緊急避難場所との住所同一": "1",
        "その他市町村長が必要と認める事項": null,
        "受入対象者": null,
        "備考": ""
      }
    },
    {
      "type": "Feature",
      "geometry": {
        "type": "Point",
        "coordinates": [
          139.510343,
          35.473488
        ]
      },
      "properties": {
        "NO": 27962,
        "共通ID": "E1410000008111",
        "都道府県名及び市町村名": "神奈川県横浜市",
        "施設・場所名": "横浜市立笹野台小学校",
        "住所": "神奈川県横浜市旭区笹野台4-48-1",
        "指定緊急避難場所との住所同一": "1",
        "その他市町村長が必要と認める事項": null,
        "受入対象者": null,
        "備考": ""
      }
    },
    {
      "type": "Feature",
      "geometry": {
        "type": "Point",
        "coordinates": [
          139.558852,
          35.461672
        ]
      },
      "properties": {
        "NO": 27963,
        "共通ID": "E1410000009111",
        "都道府県名及び市町村名": "神奈川県横浜市",
        "施設・場所名": "横浜市立市沢小学校",
        "住所": "神奈川県横浜市旭区市沢町781",
        "指定緊急避難場所との住所同一": "1",
        "その他市町村長が必要と認める事項": null,
        "受入対象者": null,
        "備考": ""
      }
    },
    {
      "type": "Feature",
      "geometry": {
        "type": "Point",
        "coordinates": [
          139.502101,
          35.502833
        ]
      },
      "properties": {
        "NO": 27964,
        "共通ID": "E1410000010111",
        "都道府県名及び市町村名": "神奈川県横浜市",
        "施設・場所名": "横浜市立若葉台特別支援学校",
        "住所": "神奈川県横浜市旭区若葉台2-1-1",
        "指定緊急避難場所との住所同一": "1",
        "その他市町村長が必要と認める事項": null,
        "受入対象者": null,
        "備考": ""
      }
    },
    {
      "type": "Feature",
      "geometry": {
        "type": "Point",
        "coordinates": [
          139.500543,
          35.508279
        ]
      },
      "properties": {
        "NO": 27965,
        "共通ID": "E1410000011111",
        "都道府県名及び市町村名": "神奈川県横浜市",
        "施設・場所名": "横浜市立若葉台小学校",
        "住所": "神奈川県横浜市旭区若葉台2-14-1",
        "指定緊急避難場所との住所同一": "1",
        "その他市町村長が必要と認める事項": null,
        "受入対象者": null,
        "備考": ""
      }
    },
    {
      "type": "Feature",
      "geometry": {
        "type": "Point",
        "coordinates": [
          139.491532,
          35.505298
        ]
      },
      "properties": {
        "NO": 27966,
        "共通ID": "E1410000012111",
        "都道府県名及び市町村名": "神奈川県横浜市",
        "施設・場所名": "旧横浜市立若葉台西中学校",
        "住所": "神奈川県横浜市旭区若葉台4-34-1",
        "指定緊急避難場所との住所同一": "1",
        "その他市町村長が必要と認める事項": null,
        "受入対象者": null,
        "備考": ""
      }
    },
    {
      "type": "Feature",
      "geometry": {
        "type": "Point",
        "coordinates": [
          139.503051,
          35.498566
        ]
      },
      "properties": {
        "NO": 27967,
        "共通ID": "E1410000014111",
        "都道府県名及び市町村名": "神奈川県横浜市",
        "施設・場所名": "横浜市立上川井小学校",
        "住所": "神奈川県横浜市旭区上川井町2913",
        "指定緊急避難場所との住所同一": "1",
        "その他市町村長が必要と認める事項": null,
        "受入対象者": null,
        "備考": ""
      }
    },
    {
      "type": "Feature",
      "geometry": {
        "type": "Point",
        "coordinates": [
          139.539484,
          35.495518
        ]
      },
      "properties": {
        "NO": 27968,
        "共通ID": "E1410000015111",
        "都道府県名及び市町村名": "神奈川県横浜市",
        "施設・場所名": "横浜市立上白根小学校",
        "住所": "神奈川県横浜市旭区上白根2-45-1",
        "指定緊急避難場所との住所同一": "1",
        "その他市町村長が必要と認める事項": null,
        "受入対象者": null,
        "備考": ""
      }
    },
    {
      "type": "Feature",
      "geometry": {
        "type": "Point",
        "coordinates": [
          139.53743,
          35.49521
        ]
      },
      "properties": {
        "NO": 27969,
        "共通ID": "E1410000016111",
        "都道府県名及び市町村名": "神奈川県横浜市",
        "施設・場所名": "横浜市立旭北中学校",
        "住所": "神奈川県横浜市旭区上白根2-47-1",
        "指定緊急避難場所との住所同一": "1",
        "その他市町村長が必要と認める事項": null,
        "受入対象者": null,
        "備考": ""
      }
    },
    {
      "type": "Feature",
      "geometry": {
        "type": "Point",
        "coordinates": [
          139.532433,
          35.498244
        ]
      },
      "properties": {
        "NO": 27970,
        "共通ID": "E1410000017111",
        "都道府県名及び市町村名": "神奈川県横浜市",
        "施設・場所名": "横浜市立上白根中学校",
        "住所": "神奈川県横浜市旭区上白根町868",
        "指定緊急避難場所との住所同一": "1",
        "その他市町村長が必要と認める事項": null,
        "受入対象者": null,
        "備考": ""
      }
    },
    {
      "type": "Feature",
      "geometry": {
        "type": "Point",
        "coordinates": [
          139.531797,
          35.496532
        ]
      },
      "properties": {
        "NO": 27971,
        "共通ID": "E1410000018111",
        "都道府県名及び市町村名": "神奈川県横浜市",
        "施設・場所名": "横浜市立四季の森小学校",
        "住所": "神奈川県横浜市旭区上白根町901",
        "指定緊急避難場所との住所同一": "1",
        "その他市町村長が必要と認める事項": null,
        "受入対象者": null,
        "備考": ""
      }
    },
    {
      "type": "Feature",
      "geometry": {
        "type": "Point",
        "coordinates": [
          139.520659,
          35.493941
        ]
      },
      "properties": {
        "NO": 27972,
        "共通ID": "E1410000019111",
        "都道府県名及び市町村名": "神奈川県横浜市",
        "施設・場所名": "横浜市立川井小学校",
        "住所": "神奈川県横浜市旭区川井宿町32-2",
        "指定緊急避難場所との住所同一": "1",
        "その他市町村長が必要と認める事項": null,
        "受入対象者": null,
        "備考": ""
      }
    },
    {
      "type": "Feature",
      "geometry": {
        "type": "Point",
        "coordinates": [
          139.547607,
          35.464107
        ]
      },
      "properties": {
        "NO": 27973,
        "共通ID": "E1410000020111",
        "都道府県名及び市町村名": "神奈川県横浜市",
        "施設・場所名": "横浜市立本宿中学校",
        "住所": "神奈川県横浜市旭区川島町1979",
        "指定緊急避難場所との住所同一": "1",
        "その他市町村長が必要と認める事項": null,
        "受入対象者": null,
        "備考": ""
      }
    },
    {
      "type": "Feature",
      "geometry": {
        "type": "Point",
        "coordinates": [
          139.516408,
          35.451214
        ]
      },
      "properties": {
        "NO": 27974,
        "共通ID": "E1410000021111",
        "都道府県名及び市町村名": "神奈川県横浜市",
        "施設・場所名": "横浜市立善部小学校",
        "住所": "神奈川県横浜市旭区善部町4-1",
        "指定緊急避難場所との住所同一": "1",
        "その他市町村長が必要と認める事項": null,
        "受入対象者": null,
        "備考": ""
      }
    },
    {
      "type": "Feature",
      "geometry": {
        "type": "Point",
        "coordinates": [
          139.533823,
          35.45276
        ]
      },
      "properties": {
        "NO": 27975,
        "共通ID": "E1410000022111",
        "都道府県名及び市町村名": "神奈川県横浜市",
        "施設・場所名": "横浜市立万騎が原小学校",
        "住所": "神奈川県横浜市旭区大池町66",
        "指定緊急避難場所との住所同一": "1",
        "その他市町村長が必要と認める事項": null,
        "受入対象者": null,
        "備考": ""
      }
    },
    {
      "type": "Feature",
      "geometry": {
        "type": "Point",
        "coordinates": [
          139.512479,
          35.459082
        ]
      },
      "properties": {
        "NO": 27976,
        "共通ID": "E1410000023111",
        "都道府県名及び市町村名": "神奈川県横浜市",
        "施設・場所名": "横浜市立希望ケ丘小学校",
        "住所": "神奈川県横浜市旭区中希望が丘124",
        "指定緊急避難場所との住所同一": "1",
        "その他市町村長が必要と認める事項": null,
        "受入対象者": null,
        "備考": ""
      }
    },
    {
      "type": "Feature",
      "geometry": {
        "type": "Point",
        "coordinates": [
          139.522283,
          35.47465
        ]
      },
      "properties": {
        "NO": 27977,
        "共通ID": "E1410000024111",
        "都道府県名及び市町村名": "神奈川県横浜市",
        "施設・場所名": "横浜市立中沢小学校",
        "住所": "神奈川県横浜市旭区中沢3-25-1",
        "指定緊急避難場所との住所同一": "1",
        "その他市町村長が必要と認める事項": null,
        "受入対象者": null,
        "備考": ""
      }
    },
    {
      "type": "Feature",
      "geometry": {
        "type": "Point",
        "coordinates": [
          139.544472,
          35.487863
        ]
      },
      "properties": {
        "NO": 27978,
        "共通ID": "E1410000025111",
        "都道府県名及び市町村名": "神奈川県横浜市",
        "施設・場所名": "横浜市立白根小学校",
        "住所": "神奈川県横浜市旭区中白根1-9-1",
        "指定緊急避難場所との住所同一": "1",
        "その他市町村長が必要と認める事項": null,
        "受入対象者": null,
        "備考": ""
      }
    },
    {
      "type": "Feature",
      "geometry": {
        "type": "Point",
        "coordinates": [
          139.522579,
          35.465537
        ]
      },
      "properties": {
        "NO": 27979,
        "共通ID": "E1410000026111",
        "都道府県名及び市町村名": "神奈川県横浜市",
        "施設・場所名": "横浜市立中尾小学校",
        "住所": "神奈川県横浜市旭区中尾1-8-1",
        "指定緊急避難場所との住所同一": "1",
        "その他市町村長が必要と認める事項": null,
        "受入対象者": null,
        "備考": ""
      }
    },
    {
      "type": "Feature",
      "geometry": {
        "type": "Point",
        "coordinates": [
          139.551954,
          35.471896
        ]
      },
      "properties": {
        "NO": 27980,
        "共通ID": "E1410000027111",
        "都道府県名及び市町村名": "神奈川県横浜市",
        "施設・場所名": "横浜市立鶴ケ峯小学校",
        "住所": "神奈川県横浜市旭区鶴ケ峰1-42",
        "指定緊急避難場所との住所同一": "1",
        "その他市町村長が必要と認める事項": null,
        "受入対象者": null,
        "備考": ""
      }
    },
    {
      "type": "Feature",
      "geometry": {
        "type": "Point",
        "coordinates": [
          139.542429,
          35.481613
        ]
      },
      "properties": {
        "NO": 27981,
        "共通ID": "E1410000028111",
        "都道府県名及び市町村名": "神奈川県横浜市",
        "施設・場所名": "横浜市立鶴ケ峯中学校",
        "住所": "神奈川県横浜市旭区鶴ケ峰本町3-28-1",
        "指定緊急避難場所との住所同一": "1",
        "その他市町村長が必要と認める事項": null,
        "受入対象者": null,
        "備考": ""
      }
    },
    {
      "type": "Feature",
      "geometry": {
        "type": "Point",
        "coordinates": [
          139.521098,
          35.485299
        ]
      },
      "properties": {
        "NO": 27982,
        "共通ID": "E1410000029111",
        "都道府県名及び市町村名": "神奈川県横浜市",
        "施設・場所名": "横浜市立都岡小学校",
        "住所": "神奈川県横浜市旭区都岡町4-8",
        "指定緊急避難場所との住所同一": "1",
        "その他市町村長が必要と認める事項": null,
        "受入対象者": null,
        "備考": ""
      }
    },
    {
      "type": "Feature",
      "geometry": {
        "type": "Point",
        "coordinates": [
          139.511479,
          35.464492
        ]
      },
      "properties": {
        "NO": 27983,
        "共通ID": "E1410000030111",
        "都道府県名及び市町村名": "神奈川県横浜市",
        "施設・場所名": "横浜市立東希望が丘小学校",
        "住所": "神奈川県横浜市旭区東希望が丘155",
        "指定緊急避難場所との住所同一": "1",
        "その他市町村長が必要と認める事項": null,
        "受入対象者": null,
        "備考": ""
      }
    },
    {
      "type": "Feature",
      "geometry": {
        "type": "Point",
        "coordinates": [
          139.509427,
          35.456821
        ]
      },
      "properties": {
        "NO": 27984,
        "共通ID": "E1410000031111",
        "都道府県名及び市町村名": "神奈川県横浜市",
        "施設・場所名": "横浜市立南希望が丘中学校",
        "住所": "神奈川県横浜市旭区南希望が丘108-8",
        "指定緊急避難場所との住所同一": "1",
        "その他市町村長が必要と認める事項": null,
        "受入対象者": null,
        "備考": ""
      }
    },
    {
      "type": "Feature",
      "geometry": {
        "type": "Point",
        "coordinates": [
          139.538388,
          35.458414
        ]
      },
      "properties": {
        "NO": 27985,
        "共通ID": "E1410000032111",
        "都道府県名及び市町村名": "神奈川県横浜市",
        "施設・場所名": "横浜市立南本宿小学校",
        "住所": "神奈川県横浜市旭区南本宿町79",
        "指定緊急避難場所との住所同一": "1",
        "その他市町村長が必要と認める事項": null,
        "受入対象者": null,
        "備考": ""
      }
    },
    {
      "type": "Feature",
      "geometry": {
        "type": "Point",
        "coordinates": [
          139.529108,
          35.463947
        ]
      },
      "properties": {
        "NO": 27986,
        "共通ID": "E1410000033111",
        "都道府県名及び市町村名": "神奈川県横浜市",
        "施設・場所名": "横浜市立二俣川小学校",
        "住所": "神奈川県横浜市旭区二俣川1-33",
        "指定緊急避難場所との住所同一": "1",
        "その他市町村長が必要と認める事項": null,
        "受入対象者": null,
        "備考": ""
      }
    },
    {
      "type": "Feature",
      "geometry": {
        "type": "Point",
        "coordinates": [
          139.550117,
          35.483407
        ]
      },
      "properties": {
        "NO": 27987,
        "共通ID": "E1410000034111",
        "都道府県名及び市町村名": "神奈川県横浜市",
        "施設・場所名": "横浜市立不動丸小学校",
        "住所": "神奈川県横浜市旭区白根3-33-1",
        "指定緊急避難場所との住所同一": "1",
        "その他市町村長が必要と認める事項": null,
        "受入対象者": null,
        "備考": ""
      }
    },
    {
      "type": "Feature",
      "geometry": {
        "type": "Point",
        "coordinates": [
          139.544832,
          35.46903
        ]
      },
      "properties": {
        "NO": 27988,
        "共通ID": "E1410000035111",
        "都道府県名及び市町村名": "神奈川県横浜市",
        "施設・場所名": "横浜市立本宿小学校",
        "住所": "神奈川県横浜市旭区本宿町16",
        "指定緊急避難場所との住所同一": "1",
        "その他市町村長が必要と認める事項": null,
        "受入対象者": null,
        "備考": ""
      }
    },
    {
      "type": "Feature",
      "geometry": {
        "type": "Point",
        "coordinates": [
          139.536515,
          35.458053
        ]
      },
      "properties": {
        "NO": 27989,
        "共通ID": "E1410000036111",
        "都道府県名及び市町村名": "神奈川県横浜市",
        "施設・場所名": "横浜市立万騎が原中学校",
        "住所": "神奈川県横浜市旭区万騎が原31",
        "指定緊急避難場所との住所同一": "1",
        "その他市町村長が必要と認める事項": null,
        "受入対象者": null,
        "備考": ""
      }
    },
    {
      "type": "Feature",
      "geometry": {
        "type": "Point",
        "coordinates": [
          139.614303,
          35.407677
        ]
      },
      "properties": {
        "NO": 27990,
        "共通ID": "E1410000037111",
        "都道府県名及び市町村名": "神奈川県横浜市",
        "施設・場所名": "横浜市立山王台小学校",
        "住所": "神奈川県横浜市磯子区磯子5-2-1",
        "指定緊急避難場所との住所同一": "1",
        "その他市町村長が必要と認める事項": null,
        "受入対象者": null,
        "備考": ""
      }
    },
    {
      "type": "Feature",
      "geometry": {
        "type": "Point",
        "coordinates": [
          139.613355,
          35.405752
        ]
      },
      "properties": {
        "NO": 27991,
        "共通ID": "E1410000038111",
        "都道府県名及び市町村名": "神奈川県横浜市",
        "施設・場所名": "横浜市立浜小学校",
        "住所": "神奈川県横浜市磯子区磯子台23-1",
        "指定緊急避難場所との住所同一": "1",
        "その他市町村長が必要と認める事項": null,
        "受入対象者": null,
        "備考": ""
      }
    },
    {
      "type": "Feature",
      "geometry": {
        "type": "Point",
        "coordinates": [
          139.617177,
          35.41663
        ]
      },
      "properties": {
        "NO": 27992,
        "共通ID": "E1410000039111",
        "都道府県名及び市町村名": "神奈川県横浜市",
        "施設・場所名": "横浜市立岡村中学校",
        "住所": "神奈川県横浜市磯子区岡村1-14-1",
        "指定緊急避難場所との住所同一": "1",
        "その他市町村長が必要と認める事項": null,
        "受入対象者": null,
        "備考": ""
      }
    },
    {
      "type": "Feature",
      "geometry": {
        "type": "Point",
        "coordinates": [
          139.611294,
          35.421327
        ]
      },
      "properties": {
        "NO": 27993,
        "共通ID": "E1410000040111",
        "都道府県名及び市町村名": "神奈川県横浜市",
        "施設・場所名": "横浜市立岡村小学校",
        "住所": "神奈川県横浜市磯子区岡村4-7-1",
        "指定緊急避難場所との住所同一": "1",
        "その他市町村長が必要と認める事項": null,
        "受入対象者": null,
        "備考": ""
      }
    },
    {
      "type": "Feature",
      "geometry": {
        "type": "Point",
        "coordinates": [
          139.62106,
          35.42195
        ]
      },
      "properties": {
        "NO": 27994,
        "共通ID": "E1410000041111",
        "都道府県名及び市町村名": "神奈川県横浜市",
        "施設・場所名": "横浜市立滝頭小学校",
        "住所": "神奈川県横浜市磯子区丸山2-25-1",
        "指定緊急避難場所との住所同一": "1",
        "その他市町村長が必要と認める事項": null,
        "受入対象者": null,
        "備考": ""
      }
    },
    {
      "type": "Feature",
      "geometry": {
        "type": "Point",
        "coordinates": [
          139.622091,
          35.414186
        ]
      },
      "properties": {
        "NO": 27995,
        "共通ID": "E1410000042111",
        "都道府県名及び市町村名": "神奈川県横浜市",
        "施設・場所名": "横浜市立磯子小学校",
        "住所": "神奈川県横浜市磯子区久木町11-1",
        "指定緊急避難場所との住所同一": "1",
        "その他市町村長が必要と認める事項": null,
        "受入対象者": null,
        "備考": ""
      }
    },
    {
      "type": "Feature",
      "geometry": {
        "type": "Point",
        "coordinates": [
          139.611229,
          35.407342
        ]
      },
      "properties": {
        "NO": 27996,
        "共通ID": "E1410000043111",
        "都道府県名及び市町村名": "神奈川県横浜市",
        "施設・場所名": "横浜市立汐見台中学校",
        "住所": "神奈川県横浜市磯子区汐見台1-2-1",
        "指定緊急避難場所との住所同一": "1",
        "その他市町村長が必要と認める事項": null,
        "受入対象者": null,
        "備考": ""
      }
    },
    {
      "type": "Feature",
      "geometry": {
        "type": "Point",
        "coordinates": [
          139.606749,
          35.401124
        ]
      },
      "properties": {
        "NO": 27997,
        "共通ID": "E1410000044111",
        "都道府県名及び市町村名": "神奈川県横浜市",
        "施設・場所名": "横浜市立汐見台小学校",
        "住所": "神奈川県横浜市磯子区汐見台3-6",
        "指定緊急避難場所との住所同一": "1",
        "その他市町村長が必要と認める事項": null,
        "受入対象者": null,
        "備考": ""
      }
    },
    {
      "type": "Feature",
      "geometry": {
        "type": "Point",
        "coordinates": [
          139.609233,
          35.369192
        ]
      },
      "properties": {
        "NO": 27998,
        "共通ID": "E1410000045111",
        "都道府県名及び市町村名": "神奈川県横浜市",
        "施設・場所名": "横浜市立さわの里小学校",
        "住所": "神奈川県横浜市磯子区上中里町548",
        "指定緊急避難場所との住所同一": "1",
        "その他市町村長が必要と認める事項": null,
        "受入対象者": null,
        "備考": ""
      }
    },
    {
      "type": "Feature",
      "geometry": {
        "type": "Point",
        "coordinates": [
          139.615993,
          35.397481
        ]
      },
      "properties": {
        "NO": 27999,
        "共通ID": "E1410000046111",
        "都道府県名及び市町村名": "神奈川県横浜市",
        "施設・場所名": "横浜市立森東小学校",
        "住所": "神奈川県横浜市磯子区森1-4",
        "指定緊急避難場所との住所同一": "1",
        "その他市町村長が必要と認める事項": null,
        "受入対象者": null,
        "備考": ""
      }
    },
    {
      "type": "Feature",
      "geometry": {
        "type": "Point",
        "coordinates": [
          139.614031,
          35.391065
        ]
      },
      "properties": {
        "NO": 28000,
        "共通ID": "E1410000047111",
        "都道府県名及び市町村名": "神奈川県横浜市",
        "施設・場所名": "横浜市立屏風浦小学校",
        "住所": "神奈川県横浜市磯子区森3-11-1",
        "指定緊急避難場所との住所同一": "1",
        "その他市町村長が必要と認める事項": null,
        "受入対象者": null,
        "備考": ""
      }
    },
    {
      "type": "Feature",
      "geometry": {
        "type": "Point",
        "coordinates": [
          139.605287,
          35.392492
        ]
      },
      "properties": {
        "NO": 28001,
        "共通ID": "E1410000048111",
        "都道府県名及び市町村名": "神奈川県横浜市",
        "施設・場所名": "横浜市立森中学校",
        "住所": "神奈川県横浜市磯子区森5-22-1",
        "指定緊急避難場所との住所同一": "1",
        "その他市町村長が必要と認める事項": null,
        "受入対象者": null,
        "備考": ""
      }
    },
    {
      "type": "Feature",
      "geometry": {
        "type": "Point",
        "coordinates": [
          139.616815,
          35.385554
        ]
      },
      "properties": {
        "NO": 28002,
        "共通ID": "E1410000049111",
        "都道府県名及び市町村名": "神奈川県横浜市",
        "施設・場所名": "横浜市立杉田小学校",
        "住所": "神奈川県横浜市磯子区杉田1-8-1",
        "指定緊急避難場所との住所同一": "1",
        "その他市町村長が必要と認める事項": null,
        "受入対象者": null,
        "備考": ""
      }
    },
    {
      "type": "Feature",
      "geometry": {
        "type": "Point",
        "coordinates": [
          139.6111,
          35.379145
        ]
      },
      "properties": {
        "NO": 28003,
        "共通ID": "E1410000050111",
        "都道府県名及び市町村名": "神奈川県横浜市",
        "施設・場所名": "横浜市立浜中学校",
        "住所": "神奈川県横浜市磯子区杉田3-30-11",
        "指定緊急避難場所との住所同一": "1",
        "その他市町村長が必要と認める事項": null,
        "受入対象者": null,
        "備考": ""
      }
    },
    {
      "type": "Feature",
      "geometry": {
        "type": "Point",
        "coordinates": [
          139.61987,
          35.377524
        ]
      },
      "properties": {
        "NO": 28004,
        "共通ID": "E1410000051111",
        "都道府県名及び市町村名": "神奈川県横浜市",
        "施設・場所名": "横浜市立梅林小学校",
        "住所": "神奈川県横浜市磯子区杉田5-13-1",
        "指定緊急避難場所との住所同一": "1",
        "その他市町村長が必要と認める事項": null,
        "受入対象者": null,
        "備考": ""
      }
    },
    {
      "type": "Feature",
      "geometry": {
        "type": "Point",
        "coordinates": [
          139.631575,
          35.415026
        ]
      },
      "properties": {
        "NO": 28005,
        "共通ID": "E1410000052111",
        "都道府県名及び市町村名": "神奈川県横浜市",
        "施設・場所名": "横浜市立根岸中学校",
        "住所": "神奈川県横浜市磯子区西町17-13",
        "指定緊急避難場所との住所同一": "1",
        "その他市町村長が必要と認める事項": null,
        "受入対象者": null,
        "備考": ""
      }
    },
    {
      "type": "Feature",
      "geometry": {
        "type": "Point",
        "coordinates": [
          139.632908,
          35.417721
        ]
      },
      "properties": {
        "NO": 28006,
        "共通ID": "E1410000053111",
        "都道府県名及び市町村名": "神奈川県横浜市",
        "施設・場所名": "横浜市立根岸小学校",
        "住所": "神奈川県横浜市磯子区西町2-46",
        "指定緊急避難場所との住所同一": "1",
        "その他市町村長が必要と認める事項": null,
        "受入対象者": null,
        "備考": ""
      }
    },
    {
      "type": "Feature",
      "geometry": {
        "type": "Point",
        "coordinates": [
          139.595563,
          35.384219
        ]
      },
      "properties": {
        "NO": 28007,
        "共通ID": "E1410000054111",
        "都道府県名及び市町村名": "神奈川県横浜市",
        "施設・場所名": "横浜市立洋光台第一小学校",
        "住所": "神奈川県横浜市磯子区洋光台1-4-1",
        "指定緊急避難場所との住所同一": "1",
        "その他市町村長が必要と認める事項": null,
        "受入対象者": null,
        "備考": ""
      }
    },
    {
      "type": "Feature",
      "geometry": {
        "type": "Point",
        "coordinates": [
          139.590028,
          35.382323
        ]
      },
      "properties": {
        "NO": 28008,
        "共通ID": "E1410000055111",
        "都道府県名及び市町村名": "神奈川県横浜市",
        "施設・場所名": "横浜市立洋光台第三小学校",
        "住所": "神奈川県横浜市磯子区洋光台2-4",
        "指定緊急避難場所との住所同一": "1",
        "その他市町村長が必要と認める事項": null,
        "受入対象者": null,
        "備考": ""
      }
    },
    {
      "type": "Feature",
      "geometry": {
        "type": "Point",
        "coordinates": [
          139.599925,
          35.376415
        ]
      },
      "properties": {
        "NO": 28009,
        "共通ID": "E1410000056111",
        "都道府県名及び市町村名": "神奈川県横浜市",
        "施設・場所名": "横浜市立洋光台第二小学校",
        "住所": "神奈川県横浜市磯子区洋光台4-15-1",
        "指定緊急避難場所との住所同一": "1",
        "その他市町村長が必要と認める事項": null,
        "受入対象者": null,
        "備考": ""
      }
    },
    {
      "type": "Feature",
      "geometry": {
        "type": "Point",
        "coordinates": [
          139.597417,
          35.373123
        ]
      },
      "properties": {
        "NO": 28010,
        "共通ID": "E1410000057111",
        "都道府県名及び市町村名": "神奈川県横浜市",
        "施設・場所名": "横浜市立洋光台第四小学校",
        "住所": "神奈川県横浜市磯子区洋光台6-6-1",
        "指定緊急避難場所との住所同一": "1",
        "その他市町村長が必要と認める事項": null,
        "受入対象者": null,
        "備考": ""
      }
    },
    {
      "type": "Feature",
      "geometry": {
        "type": "Point",
        "coordinates": [
          139.532079,
          35.36177
        ]
      },
      "properties": {
        "NO": 28011,
        "共通ID": "E1410000058111",
        "都道府県名及び市町村名": "神奈川県横浜市",
        "施設・場所名": "横浜市立笠間小学校",
        "住所": "神奈川県横浜市栄区笠間3-28-1",
        "指定緊急避難場所との住所同一": "1",
        "その他市町村長が必要と認める事項": null,
        "受入対象者": null,
        "備考": ""
      }
    },
    {
      "type": "Feature",
      "geometry": {
        "type": "Point",
        "coordinates": [
          139.564715,
          35.353832
        ]
      },
      "properties": {
        "NO": 28012,
        "共通ID": "E1410000059111",
        "都道府県名及び市町村名": "神奈川県横浜市",
        "施設・場所名": "横浜市立桂台中学校",
        "住所": "神奈川県横浜市栄区桂台中5-1",
        "指定緊急避難場所との住所同一": "1",
        "その他市町村長が必要と認める事項": null,
        "受入対象者": null,
        "備考": ""
      }
    },
    {
      "type": "Feature",
      "geometry": {
        "type": "Point",
        "coordinates": [
          139.563904,
          35.352687
        ]
      },
      "properties": {
        "NO": 28013,
        "共通ID": "E1410000060111",
        "都道府県名及び市町村名": "神奈川県横浜市",
        "施設・場所名": "横浜市立桂台小学校",
        "住所": "神奈川県横浜市栄区桂台南1-1-1",
        "指定緊急避難場所との住所同一": "1",
        "その他市町村長が必要と認める事項": null,
        "受入対象者": null,
        "備考": ""
      }
    },
    {
      "type": "Feature",
      "geometry": {
        "type": "Point",
        "coordinates": [
          139.550546,
          35.364861
        ]
      },
      "properties": {
        "NO": 28014,
        "共通ID": "E1410000061111",
        "都道府県名及び市町村名": "神奈川県横浜市",
        "施設・場所名": "横浜市立本郷中学校",
        "住所": "神奈川県横浜市栄区桂町84-14",
        "指定緊急避難場所との住所同一": "1",
        "その他市町村長が必要と認める事項": null,
        "受入対象者": null,
        "備考": ""
      }
    },
    {
      "type": "Feature",
      "geometry": {
        "type": "Point",
        "coordinates": [
          139.571726,
          35.357649
        ]
      },
      "properties": {
        "NO": 28015,
        "共通ID": "E1410000062111",
        "都道府県名及び市町村名": "神奈川県横浜市",
        "施設・場所名": "横浜市立上郷小学校",
        "住所": "神奈川県横浜市栄区犬山町6-1",
        "指定緊急避難場所との住所同一": "1",
        "その他市町村長が必要と認める事項": null,
        "受入対象者": null,
        "備考": ""
      }
    },
    {
      "type": "Feature",
      "geometry": {
        "type": "Point",
        "coordinates": [
          139.553799,
          35.354377
        ]
      },
      "properties": {
        "NO": 28016,
        "共通ID": "E1410000063111",
        "都道府県名及び市町村名": "神奈川県横浜市",
        "施設・場所名": "横浜市立公田小学校",
        "住所": "神奈川県横浜市栄区公田町354-3",
        "指定緊急避難場所との住所同一": "1",
        "その他市町村長が必要と認める事項": null,
        "受入対象者": null,
        "備考": ""
      }
    },
    {
      "type": "Feature",
      "geometry": {
        "type": "Point",
        "coordinates": [
          139.557802,
          35.380097
        ]
      },
      "properties": {
        "NO": 28017,
        "共通ID": "E1410000064111",
        "都道府県名及び市町村名": "神奈川県横浜市",
        "施設・場所名": "横浜市立小山台小学校",
        "住所": "神奈川県横浜市栄区小山台1-15-1",
        "指定緊急避難場所との住所同一": "1",
        "その他市町村長が必要と認める事項": null,
        "受入対象者": null,
        "備考": ""
      }
    },
    {
      "type": "Feature",
      "geometry": {
        "type": "Point",
        "coordinates": [
          139.543008,
          35.363831
        ]
      },
      "properties": {
        "NO": 28018,
        "共通ID": "E1410000065111",
        "都道府県名及び市町村名": "神奈川県横浜市",
        "施設・場所名": "横浜市立西本郷中学校",
        "住所": "神奈川県横浜市栄区小菅ケ谷1-29-1",
        "指定緊急避難場所との住所同一": "1",
        "その他市町村長が必要と認める事項": null,
        "受入対象者": null,
        "備考": ""
      }
    },
    {
      "type": "Feature",
      "geometry": {
        "type": "Point",
        "coordinates": [
          139.541976,
          35.365775
        ]
      },
      "properties": {
        "NO": 28019,
        "共通ID": "E1410000066111",
        "都道府県名及び市町村名": "神奈川県横浜市",
        "施設・場所名": "横浜市立西本郷小学校",
        "住所": "神奈川県横浜市栄区小菅ケ谷2-22-1",
        "指定緊急避難場所との住所同一": "1",
        "その他市町村長が必要と認める事項": null,
        "受入対象者": null,
        "備考": ""
      }
    },
    {
      "type": "Feature",
      "geometry": {
        "type": "Point",
        "coordinates": [
          139.584355,
          35.353086
        ]
      },
      "properties": {
        "NO": 28020,
        "共通ID": "E1410000067111",
        "都道府県名及び市町村名": "神奈川県横浜市",
        "施設・場所名": "横浜市立庄戸小学校",
        "住所": "神奈川県横浜市栄区庄戸1-15-1",
        "指定緊急避難場所との住所同一": "1",
        "その他市町村長が必要と認める事項": null,
        "受入対象者": null,
        "備考": ""
      }
    },
    {
      "type": "Feature",
      "geometry": {
        "type": "Point",
        "coordinates": [
          139.585319,
          35.351888
        ]
      },
      "properties": {
        "NO": 28021,
        "共通ID": "E1410000068111",
        "都道府県名及び市町村名": "神奈川県横浜市",
        "施設・場所名": "旧横浜市立庄戸中学校",
        "住所": "神奈川県横浜市栄区庄戸3-1-1",
        "指定緊急避難場所との住所同一": "1",
        "その他市町村長が必要と認める事項": null,
        "受入対象者": null,
        "備考": ""
      }
    },
    {
      "type": "Feature",
      "geometry": {
        "type": "Point",
        "coordinates": [
          139.572333,
          35.366095
        ]
      },
      "properties": {
        "NO": 28022,
        "共通ID": "E1410000069111",
        "都道府県名及び市町村名": "神奈川県横浜市",
        "施設・場所名": "横浜市立桜井小学校",
        "住所": "神奈川県横浜市栄区上郷町242-2",
        "指定緊急避難場所との住所同一": "1",
        "その他市町村長が必要と認める事項": null,
        "受入対象者": null,
        "備考": ""
      }
    },
    {
      "type": "Feature",
      "geometry": {
        "type": "Point",
        "coordinates": [
          139.561559,
          35.36316
        ]
      },
      "properties": {
        "NO": 28023,
        "共通ID": "E1410000070111",
        "都道府県名及び市町村名": "神奈川県横浜市",
        "施設・場所名": "横浜市立本郷小学校",
        "住所": "神奈川県横浜市栄区中野町16-1",
        "指定緊急避難場所との住所同一": "1",
        "その他市町村長が必要と認める事項": null,
        "受入対象者": null,
        "備考": ""
      }
    },
    {
      "type": "Feature",
      "geometry": {
        "type": "Point",
        "coordinates": [
          139.53594,
          35.382618
        ]
      },
      "properties": {
        "NO": 28024,
        "共通ID": "E1410000071111",
        "都道府県名及び市町村名": "神奈川県横浜市",
        "施設・場所名": "横浜市立豊田小学校",
        "住所": "神奈川県横浜市栄区長沼町125-4",
        "指定緊急避難場所との住所同一": "1",
        "その他市町村長が必要と認める事項": null,
        "受入対象者": null,
        "備考": ""
      }
    },
    {
      "type": "Feature",
      "geometry": {
        "type": "Point",
        "coordinates": [
          139.519825,
          35.371608
        ]
      },
      "properties": {
        "NO": 28025,
        "共通ID": "E1410000072111",
        "都道府県名及び市町村名": "神奈川県横浜市",
        "施設・場所名": "横浜市立千秀小学校",
        "住所": "神奈川県横浜市栄区田谷町1832",
        "指定緊急避難場所との住所同一": "1",
        "その他市町村長が必要と認める事項": null,
        "受入対象者": null,
        "備考": ""
      }
    },
    {
      "type": "Feature",
      "geometry": {
        "type": "Point",
        "coordinates": [
          139.532059,
          35.372776
        ]
      },
      "properties": {
        "NO": 28026,
        "共通ID": "E1410000073111",
        "都道府県名及び市町村名": "神奈川県横浜市",
        "施設・場所名": "横浜市立飯島中学校",
        "住所": "神奈川県横浜市栄区飯島町746-1",
        "指定緊急避難場所との住所同一": "1",
        "その他市町村長が必要と認める事項": null,
        "受入対象者": null,
        "備考": ""
      }
    },
    {
      "type": "Feature",
      "geometry": {
        "type": "Point",
        "coordinates": [
          139.535315,
          35.373235
        ]
      },
      "properties": {
        "NO": 28027,
        "共通ID": "E1410000074111",
        "都道府県名及び市町村名": "神奈川県横浜市",
        "施設・場所名": "横浜市立飯島小学校",
        "住所": "神奈川県横浜市栄区飯島町771-2",
        "指定緊急避難場所との住所同一": "1",
        "その他市町村長が必要と認める事項": null,
        "受入対象者": null,
        "備考": ""
      }
    },
    {
      "type": "Feature",
      "geometry": {
        "type": "Point",
        "coordinates": [
          139.549317,
          35.371321
        ]
      },
      "properties": {
        "NO": 28028,
        "共通ID": "E1410000075111",
        "都道府県名及び市町村名": "神奈川県横浜市",
        "施設・場所名": "横浜市立本郷台小学校",
        "住所": "神奈川県横浜市栄区本郷台1-6-1",
        "指定緊急避難場所との住所同一": "1",
        "その他市町村長が必要と認める事項": null,
        "受入対象者": null,
        "備考": ""
      }
    },
    {
      "type": "Feature",
      "geometry": {
        "type": "Point",
        "coordinates": [
          139.548187,
          35.377048
        ]
      },
      "properties": {
        "NO": 28029,
        "共通ID": "E1410000076111",
        "都道府県名及び市町村名": "神奈川県横浜市",
        "施設・場所名": "横浜市立小菅ケ谷小学校",
        "住所": "神奈川県横浜市栄区本郷台4-31-1",
        "指定緊急避難場所との住所同一": "1",
        "その他市町村長が必要と認める事項": null,
        "受入対象者": null,
        "備考": ""
      }
    },
    {
      "type": "Feature",
      "geometry": {
        "type": "Point",
        "coordinates": [
          139.57894,
          35.34606
        ]
      },
      "properties": {
        "NO": 28030,
        "共通ID": "E1410000077111",
        "都道府県名及び市町村名": "神奈川県横浜市",
        "施設・場所名": "旧横浜市立野七里小学校",
        "住所": "神奈川県横浜市栄区野七里2-3-1",
        "指定緊急避難場所との住所同一": "1",
        "その他市町村長が必要と認める事項": null,
        "受入対象者": null,
        "備考": ""
      }
    },
    {
      "type": "Feature",
      "geometry": {
        "type": "Point",
        "coordinates": [
          139.593495,
          35.343883
        ]
      },
      "properties": {
        "NO": 28031,
        "共通ID": "E1410000078111",
        "都道府県名及び市町村名": "神奈川県横浜市",
        "施設・場所名": "横浜市立西金沢義務教育学校",
        "住所": "神奈川県横浜市金沢区釜利谷西4-19-1",
        "指定緊急避難場所との住所同一": "1",
        "その他市町村長が必要と認める事項": null,
        "受入対象者": null,
        "備考": ""
      }
    },
    {
      "type": "Feature",
      "geometry": {
        "type": "Point",
        "coordinates": [
          139.617207,
          35.344527
        ]
      },
      "properties": {
        "NO": 28032,
        "共通ID": "E1410000079111",
        "都道府県名及び市町村名": "神奈川県横浜市",
        "施設・場所名": "横浜市立釜利谷東小学校",
        "住所": "神奈川県横浜市金沢区釜利谷東2-12-1",
        "指定緊急避難場所との住所同一": "1",
        "その他市町村長が必要と認める事項": null,
        "受入対象者": null,
        "備考": ""
      }
    },
    {
      "type": "Feature",
      "geometry": {
        "type": "Point",
        "coordinates": [
          139.608101,
          35.343774
        ]
      },
      "properties": {
        "NO": 28033,
        "共通ID": "E1410000080111",
        "都道府県名及び市町村名": "神奈川県横浜市",
        "施設・場所名": "横浜市立釜利谷小学校",
        "住所": "神奈川県横浜市金沢区釜利谷東6-37-1",
        "指定緊急避難場所との住所同一": "1",
        "その他市町村長が必要と認める事項": null,
        "受入対象者": null,
        "備考": ""
      }
    },
    {
      "type": "Feature",
      "geometry": {
        "type": "Point",
        "coordinates": [
          139.605844,
          35.338798
        ]
      },
      "properties": {
        "NO": 28034,
        "共通ID": "E1410000081111",
        "都道府県名及び市町村名": "神奈川県横浜市",
        "施設・場所名": "横浜市立釜利谷南小学校",
        "住所": "神奈川県横浜市金沢区釜利谷南4-12-1",
        "指定緊急避難場所との住所同一": "1",
        "その他市町村長が必要と認める事項": null,
        "受入対象者": null,
        "備考": ""
      }
    },
    {
      "type": "Feature",
      "geometry": {
        "type": "Point",
        "coordinates": [
          139.607746,
          35.333768
        ]
      },
      "properties": {
        "NO": 28035,
        "共通ID": "E1410000082111",
        "都道府県名及び市町村名": "神奈川県横浜市",
        "施設・場所名": "横浜市立高舟台小学校",
        "住所": "神奈川県横浜市金沢区高舟台1-35-1",
        "指定緊急避難場所との住所同一": "1",
        "その他市町村長が必要と認める事項": null,
        "受入対象者": null,
        "備考": ""
      }
    },
    {
      "type": "Feature",
      "geometry": {
        "type": "Point",
        "coordinates": [
          139.6311,
          35.3401
        ]
      },
      "properties": {
        "NO": 28036,
        "共通ID": "E1410000083111",
        "都道府県名及び市町村名": "神奈川県横浜市",
        "施設・場所名": "横浜市立文庫小学校",
        "住所": "神奈川県横浜市金沢区寺前2-21-7",
        "指定緊急避難場所との住所同一": "1",
        "その他市町村長が必要と認める事項": null,
        "受入対象者": null,
        "備考": ""
      }
    },
    {
      "type": "Feature",
      "geometry": {
        "type": "Point",
        "coordinates": [
          139.629267,
          35.352808
        ]
      },
      "properties": {
        "NO": 28037,
        "共通ID": "E1410000084111",
        "都道府県名及び市町村名": "神奈川県横浜市",
        "施設・場所名": "横浜市立西柴中学校",
        "住所": "神奈川県横浜市金沢区西柴1-23-1",
        "指定緊急避難場所との住所同一": "1",
        "その他市町村長が必要と認める事項": null,
        "受入対象者": null,
        "備考": ""
      }
    },
    {
      "type": "Feature",
      "geometry": {
        "type": "Point",
        "coordinates": [
          139.633016,
          35.347629
        ]
      },
      "properties": {
        "NO": 28038,
        "共通ID": "E1410000085111",
        "都道府県名及び市町村名": "神奈川県横浜市",
        "施設・場所名": "横浜市立西柴小学校",
        "住所": "神奈川県横浜市金沢区西柴4-23-1",
        "指定緊急避難場所との住所同一": "1",
        "その他市町村長が必要と認める事項": null,
        "受入対象者": null,
        "備考": ""
      }
    },
    {
      "type": "Feature",
      "geometry": {
        "type": "Point",
        "coordinates": [
          139.601419,
          35.330871
        ]
      },
      "properties": {
        "NO": 28039,
        "共通ID": "E1410000086111",
        "都道府県名及び市町村名": "神奈川県横浜市",
        "施設・場所名": "横浜市立大道中学校",
        "住所": "神奈川県横浜市金沢区大道1-85-1",
        "指定緊急避難場所との住所同一": "1",
        "その他市町村長が必要と認める事項": null,
        "受入対象者": null,
        "備考": ""
      }
    },
    {
      "type": "Feature",
      "geometry": {
        "type": "Point",
        "coordinates": [
          139.610975,
          35.326435
        ]
      },
      "properties": {
        "NO": 28040,
        "共通ID": "E1410000087111",
        "都道府県名及び市町村名": "神奈川県横浜市",
        "施設・場所名": "横浜市立大道小学校",
        "住所": "神奈川県横浜市金沢区大道2-3-1",
        "指定緊急避難場所との住所同一": "1",
        "その他市町村長が必要と認める事項": null,
        "受入対象者": null,
        "備考": ""
      }
    },
    {
      "type": "Feature",
      "geometry": {
        "type": "Point",
        "coordinates": [
          139.629809,
          35.335677
        ]
      },
      "properties": {
        "NO": 28041,
        "共通ID": "E1410000088111",
        "都道府県名及び市町村名": "神奈川県横浜市",
        "施設・場所名": "横浜市立金沢小学校",
        "住所": "神奈川県横浜市金沢区町屋町26-26",
        "指定緊急避難場所との住所同一": "1",
        "その他市町村長が必要と認める事項": null,
        "受入対象者": null,
        "備考": ""
      }
    },
    {
      "type": "Feature",
      "geometry": {
        "type": "Point",
        "coordinates": [
          139.621926,
          35.338661
        ]
      },
      "properties": {
        "NO": 28042,
        "共通ID": "E1410000089111",
        "都道府県名及び市町村名": "神奈川県横浜市",
        "施設・場所名": "横浜市立八景小学校",
        "住所": "神奈川県横浜市金沢区泥亀1-21-2",
        "指定緊急避難場所との住所同一": "1",
        "その他市町村長が必要と認める事項": null,
        "受入対象者": null,
        "備考": ""
      }
    },
    {
      "type": "Feature",
      "geometry": {
        "type": "Point",
        "coordinates": [
          139.595038,
          35.323257
        ]
      },
      "properties": {
        "NO": 28043,
        "共通ID": "E1410000099111",
        "都道府県名及び市町村名": "神奈川県横浜市",
        "施設・場所名": "横浜市立朝比奈小学校",
        "住所": "神奈川県横浜市金沢区東朝比奈2-53-1",
        "指定緊急避難場所との住所同一": "1",
        "その他市町村長が必要と認める事項": null,
        "受入対象者": null,
        "備考": ""
      }
    },
    {
      "type": "Feature",
      "geometry": {
        "type": "Point",
        "coordinates": [
          139.622435,
          35.357776
        ]
      },
      "properties": {
        "NO": 28044,
        "共通ID": "E1410000100111",
        "都道府県名及び市町村名": "神奈川県横浜市",
        "施設・場所名": "横浜市立能見台小学校",
        "住所": "神奈川県横浜市金沢区能見台3-32-1",
        "指定緊急避難場所との住所同一": "1",
        "その他市町村長が必要と認める事項": null,
        "受入対象者": null,
        "備考": ""
      }
    },
    {
      "type": "Feature",
      "geometry": {
        "type": "Point",
        "coordinates": [
          139.6153,
          35.353251
        ]
      },
      "properties": {
        "NO": 28045,
        "共通ID": "E1410000101111",
        "都道府県名及び市町村名": "神奈川県横浜市",
        "施設・場所名": "横浜市立能見台南小学校",
        "住所": "神奈川県横浜市金沢区能見台6-3-1",
        "指定緊急避難場所との住所同一": "1",
        "その他市町村長が必要と認める事項": null,
        "受入対象者": null,
        "備考": ""
      }
    },
    {
      "type": "Feature",
      "geometry": {
        "type": "Point",
        "coordinates": [
          139.620364,
          35.371802
        ]
      },
      "properties": {
        "NO": 28046,
        "共通ID": "E1410000102111",
        "都道府県名及び市町村名": "神奈川県横浜市",
        "施設・場所名": "横浜市立小田小学校",
        "住所": "神奈川県横浜市金沢区富岡西1-69-1",
        "指定緊急避難場所との住所同一": "1",
        "その他市町村長が必要と認める事項": null,
        "受入対象者": null,
        "備考": ""
      }
    },
    {
      "type": "Feature",
      "geometry": {
        "type": "Point",
        "coordinates": [
          139.614258,
          35.36211
        ]
      },
      "properties": {
        "NO": 28047,
        "共通ID": "E1410000103111",
        "都道府県名及び市町村名": "神奈川県横浜市",
        "施設・場所名": "横浜市立西富岡小学校",
        "住所": "神奈川県横浜市金沢区富岡西5-49-1",
        "指定緊急避難場所との住所同一": "1",
        "その他市町村長が必要と認める事項": null,
        "受入対象者": null,
        "備考": ""
      }
    },
    {
      "type": "Feature",
      "geometry": {
        "type": "Point",
        "coordinates": [
          139.624735,
          35.366706
        ]
      },
      "properties": {
        "NO": 28048,
        "共通ID": "E1410000104111",
        "都道府県名及び市町村名": "神奈川県横浜市",
        "施設・場所名": "横浜市立富岡小学校",
        "住所": "神奈川県横浜市金沢区富岡西7-13-1",
        "指定緊急避難場所との住所同一": "1",
        "その他市町村長が必要と認める事項": null,
        "受入対象者": null,
        "備考": ""
      }
    },
    {
      "type": "Feature",
      "geometry": {
        "type": "Point",
        "coordinates": [
          139.641204,
          35.366501
        ]
      },
      "properties": {
        "NO": 28049,
        "共通ID": "E1410000105111",
        "都道府県名及び市町村名": "神奈川県横浜市",
        "施設・場所名": "横浜市立並木中央小学校",
        "住所": "神奈川県横浜市金沢区並木1-25-1",
        "指定緊急避難場所との住所同一": "1",
        "その他市町村長が必要と認める事項": null,
        "受入対象者": null,
        "備考": ""
      }
    },
    {
      "type": "Feature",
      "geometry": {
        "type": "Point",
        "coordinates": [
          139.63921,
          35.37335
        ]
      },
      "properties": {
        "NO": 28050,
        "共通ID": "E1410000106111",
        "都道府県名及び市町村名": "神奈川県横浜市",
        "施設・場所名": "横浜市立並木第一小学校",
        "住所": "神奈川県横浜市金沢区並木1-7-1",
        "指定緊急避難場所との住所同一": "1",
        "その他市町村長が必要と認める事項": null,
        "受入対象者": null,
        "備考": ""
      }
    },
    {
      "type": "Feature",
      "geometry": {
        "type": "Point",
        "coordinates": [
          139.641413,
          35.355923
        ]
      },
      "properties": {
        "NO": 28051,
        "共通ID": "E1410000107111",
        "都道府県名及び市町村名": "神奈川県横浜市",
        "施設・場所名": "横浜市立並木第四小学校",
        "住所": "神奈川県横浜市金沢区並木3-10-1",
        "指定緊急避難場所との住所同一": "1",
        "その他市町村長が必要と認める事項": null,
        "受入対象者": null,
        "備考": ""
      }
    },
    {
      "type": "Feature",
      "geometry": {
        "type": "Point",
        "coordinates": [
          139.640832,
          35.359236
        ]
      },
      "properties": {
        "NO": 28052,
        "共通ID": "E1410000108111",
        "都道府県名及び市町村名": "神奈川県横浜市",
        "施設・場所名": "横浜市立並木中学校",
        "住所": "神奈川県横浜市金沢区並木3-4-1",
        "指定緊急避難場所との住所同一": "1",
        "その他市町村長が必要と認める事項": null,
        "受入対象者": null,
        "備考": ""
      }
    },
    {
      "type": "Feature",
      "geometry": {
        "type": "Point",
        "coordinates": [
          139.617833,
          35.324676
        ]
      },
      "properties": {
        "NO": 28053,
        "共通ID": "E1410000109111",
        "都道府県名及び市町村名": "神奈川県横浜市",
        "施設・場所名": "横浜市立六浦中学校",
        "住所": "神奈川県横浜市金沢区六浦1-24-4",
        "指定緊急避難場所との住所同一": "1",
        "その他市町村長が必要と認める事項": null,
        "受入対象者": null,
        "備考": ""
      }
    },
    {
      "type": "Feature",
      "geometry": {
        "type": "Point",
        "coordinates": [
          139.612631,
          35.329888
        ]
      },
      "properties": {
        "NO": 28054,
        "共通ID": "E1410000110111",
        "都道府県名及び市町村名": "神奈川県横浜市",
        "施設・場所名": "横浜市立六浦小学校",
        "住所": "神奈川県横浜市金沢区六浦3-11-1",
        "指定緊急避難場所との住所同一": "1",
        "その他市町村長が必要と認める事項": null,
        "受入対象者": null,
        "備考": ""
      }
    },
    {
      "type": "Feature",
      "geometry": {
        "type": "Point",
        "coordinates": [
          139.620123,
          35.319364
        ]
      },
      "properties": {
        "NO": 28055,
        "共通ID": "E1410000111111",
        "都道府県名及び市町村名": "神奈川県横浜市",
        "施設・場所名": "横浜市立瀬ケ崎小学校",
        "住所": "神奈川県横浜市金沢区六浦東3-2-1",
        "指定緊急避難場所との住所同一": "1",
        "その他市町村長が必要と認める事項": null,
        "受入対象者": null,
        "備考": ""
      }
    },
    {
      "type": "Feature",
      "geometry": {
        "type": "Point",
        "coordinates": [
          139.610912,
          35.315824
        ]
      },
      "properties": {
        "NO": 28056,
        "共通ID": "E1410000112111",
        "都道府県名及び市町村名": "神奈川県横浜市",
        "施設・場所名": "横浜市立六浦南小学校",
        "住所": "神奈川県横浜市金沢区六浦南3-22-1",
        "指定緊急避難場所との住所同一": "1",
        "その他市町村長が必要と認める事項": null,
        "受入対象者": null,
        "備考": ""
      }
    },
    {
      "type": "Feature",
      "geometry": {
        "type": "Point",
        "coordinates": [
          139.521303,
          35.399196
        ]
      },
      "properties": {
        "NO": 28057,
        "共通ID": "E1410000124111",
        "都道府県名及び市町村名": "神奈川県横浜市",
        "施設・場所名": "横浜市立東汲沢小学校",
        "住所": "神奈川県横浜市戸塚区汲沢1-16-1",
        "指定緊急避難場所との住所同一": "1",
        "その他市町村長が必要と認める事項": null,
        "受入対象者": null,
        "備考": ""
      }
    },
    {
      "type": "Feature",
      "geometry": {
        "type": "Point",
        "coordinates": [
          139.51382,
          35.39769
        ]
      },
      "properties": {
        "NO": 28058,
        "共通ID": "E1410000125111",
        "都道府県名及び市町村名": "神奈川県横浜市",
        "施設・場所名": "横浜市立汲沢小学校",
        "住所": "神奈川県横浜市戸塚区汲沢3-6-1",
        "指定緊急避難場所との住所同一": "1",
        "その他市町村長が必要と認める事項": null,
        "受入対象者": null,
        "備考": ""
      }
    },
    {
      "type": "Feature",
      "geometry": {
        "type": "Point",
        "coordinates": [
          139.507634,
          35.398536
        ]
      },
      "properties": {
        "NO": 28059,
        "共通ID": "E1410000126111",
        "都道府県名及び市町村名": "神奈川県横浜市",
        "施設・場所名": "横浜市立汲沢中学校",
        "住所": "神奈川県横浜市戸塚区汲沢町550-2",
        "指定緊急避難場所との住所同一": "1",
        "その他市町村長が必要と認める事項": null,
        "受入対象者": null,
        "備考": ""
      }
    },
    {
      "type": "Feature",
      "geometry": {
        "type": "Point",
        "coordinates": [
          139.503329,
          35.378357
        ]
      },
      "properties": {
        "NO": 28060,
        "共通ID": "E1410000127111",
        "都道府県名及び市町村名": "神奈川県横浜市",
        "施設・場所名": "横浜市立大正中学校",
        "住所": "神奈川県横浜市戸塚区原宿4-12-1",
        "指定緊急避難場所との住所同一": "1",
        "その他市町村長が必要と認める事項": null,
        "受入対象者": null,
        "備考": ""
      }
    },
    {
      "type": "Feature",
      "geometry": {
        "type": "Point",
        "coordinates": [
          139.503219,
          35.379499
        ]
      },
      "properties": {
        "NO": 28061,
        "共通ID": "E1410000128111",
        "都道府県名及び市町村名": "神奈川県横浜市",
        "施設・場所名": "横浜市立大正小学校",
        "住所": "神奈川県横浜市戸塚区原宿4-17-1",
        "指定緊急避難場所との住所同一": "1",
        "その他市町村長が必要と認める事項": null,
        "受入対象者": null,
        "備考": ""
      }
    },
    {
      "type": "Feature",
      "geometry": {
        "type": "Point",
        "coordinates": [
          139.524146,
          35.38644
        ]
      },
      "properties": {
        "NO": 28062,
        "共通ID": "E1410000131111",
        "都道府県名及び市町村名": "神奈川県横浜市",
        "施設・場所名": "横浜市立下郷小学校",
        "住所": "神奈川県横浜市戸塚区戸塚町2447-2",
        "指定緊急避難場所との住所同一": "1",
        "その他市町村長が必要と認める事項": null,
        "受入対象者": null,
        "備考": ""
      }
    },
    {
      "type": "Feature",
      "geometry": {
        "type": "Point",
        "coordinates": [
          139.525718,
          35.388154
        ]
      },
      "properties": {
        "NO": 28063,
        "共通ID": "E1410000132111",
        "都道府県名及び市町村名": "神奈川県横浜市",
        "施設・場所名": "横浜市立南戸塚小学校",
        "住所": "神奈川県横浜市戸塚区戸塚町2790-3",
        "指定緊急避難場所との住所同一": "1",
        "その他市町村長が必要と認める事項": null,
        "受入対象者": null,
        "備考": ""
      }
    },
    {
      "type": "Feature",
      "geometry": {
        "type": "Point",
        "coordinates": [
          139.523977,
          35.401468
        ]
      },
      "properties": {
        "NO": 28064,
        "共通ID": "E1410000133111",
        "都道府県名及び市町村名": "神奈川県横浜市",
        "施設・場所名": "横浜市立戸塚中学校",
        "住所": "神奈川県横浜市戸塚区戸塚町4542",
        "指定緊急避難場所との住所同一": "1",
        "その他市町村長が必要と認める事項": null,
        "受入対象者": null,
        "備考": ""
      }
    },
    {
      "type": "Feature",
      "geometry": {
        "type": "Point",
        "coordinates": [
          139.54511,
          35.426418
        ]
      },
      "properties": {
        "NO": 28065,
        "共通ID": "E1410000134111",
        "都道府県名及び市町村名": "神奈川県横浜市",
        "施設・場所名": "横浜市立川上小学校",
        "住所": "神奈川県横浜市戸塚区秋葉町203-2",
        "指定緊急避難場所との住所同一": "1",
        "その他市町村長が必要と認める事項": null,
        "受入対象者": null,
        "備考": ""
      }
    },
    {
      "type": "Feature",
      "geometry": {
        "type": "Point",
        "coordinates": [
          139.544112,
          35.420777
        ]
      },
      "properties": {
        "NO": 28066,
        "共通ID": "E1410000135111",
        "都道府県名及び市町村名": "神奈川県横浜市",
        "施設・場所名": "横浜市立秋葉小学校",
        "住所": "神奈川県横浜市戸塚区秋葉町392-1",
        "指定緊急避難場所との住所同一": "1",
        "その他市町村長が必要と認める事項": null,
        "受入対象者": null,
        "備考": ""
      }
    },
    {
      "type": "Feature",
      "geometry": {
        "type": "Point",
        "coordinates": [
          139.511574,
          35.376971
        ]
      },
      "properties": {
        "NO": 28067,
        "共通ID": "E1410000136111",
        "都道府県名及び市町村名": "神奈川県横浜市",
        "施設・場所名": "横浜市立小雀小学校",
        "住所": "神奈川県横浜市戸塚区小雀町1845",
        "指定緊急避難場所との住所同一": "1",
        "その他市町村長が必要と認める事項": null,
        "受入対象者": null,
        "備考": ""
      }
    },
    {
      "type": "Feature",
      "geometry": {
        "type": "Point",
        "coordinates": [
          139.540939,
          35.389407
        ]
      },
      "properties": {
        "NO": 28068,
        "共通ID": "E1410000137111",
        "都道府県名及び市町村名": "神奈川県横浜市",
        "施設・場所名": "横浜市立倉田小学校",
        "住所": "神奈川県横浜市戸塚区上倉田町1426-6",
        "指定緊急避難場所との住所同一": "1",
        "その他市町村長が必要と認める事項": null,
        "受入対象者": null,
        "備考": ""
      }
    },
    {
      "type": "Feature",
      "geometry": {
        "type": "Point",
        "coordinates": [
          139.5284,
          35.423502
        ]
      },
      "properties": {
        "NO": 28069,
        "共通ID": "E1410000138111",
        "都道府県名及び市町村名": "神奈川県横浜市",
        "施設・場所名": "横浜市立上矢部小学校",
        "住所": "神奈川県横浜市戸塚区上矢部町1463-4",
        "指定緊急避難場所との住所同一": "1",
        "その他市町村長が必要と認める事項": null,
        "受入対象者": null,
        "備考": ""
      }
    },
    {
      "type": "Feature",
      "geometry": {
        "type": "Point",
        "coordinates": [
          139.499722,
          35.383361
        ]
      },
      "properties": {
        "NO": 28070,
        "共通ID": "E1410000139111",
        "都道府県名及び市町村名": "神奈川県横浜市",
        "施設・場所名": "横浜市立深谷中学校",
        "住所": "神奈川県横浜市戸塚区深谷町1071",
        "指定緊急避難場所との住所同一": "1",
        "その他市町村長が必要と認める事項": null,
        "受入対象者": null,
        "備考": ""
      }
    },
    {
      "type": "Feature",
      "geometry": {
        "type": "Point",
        "coordinates": [
          139.496509,
          35.388095
        ]
      },
      "properties": {
        "NO": 28071,
        "共通ID": "E1410000140111",
        "都道府県名及び市町村名": "神奈川県横浜市",
        "施設・場所名": "横浜市立横浜深谷台小学校",
        "住所": "神奈川県横浜市戸塚区深谷町1312-1",
        "指定緊急避難場所との住所同一": "1",
        "その他市町村長が必要と認める事項": null,
        "受入対象者": null,
        "備考": ""
      }
    },
    {
      "type": "Feature",
      "geometry": {
        "type": "Point",
        "coordinates": [
          139.502785,
          35.391957
        ]
      },
      "properties": {
        "NO": 28072,
        "共通ID": "E1410000141111",
        "都道府県名及び市町村名": "神奈川県横浜市",
        "施設・場所名": "横浜市立深谷小学校",
        "住所": "神奈川県横浜市戸塚区深谷町1688-2",
        "指定緊急避難場所との住所同一": "1",
        "その他市町村長が必要と認める事項": null,
        "受入対象者": null,
        "備考": ""
      }
    },
    {
      "type": "Feature",
      "geometry": {
        "type": "Point",
        "coordinates": [
          139.554171,
          35.429054
        ]
      },
      "properties": {
        "NO": 28073,
        "共通ID": "E1410000142111",
        "都道府県名及び市町村名": "神奈川県横浜市",
        "施設・場所名": "横浜市立川上北小学校",
        "住所": "神奈川県横浜市戸塚区川上町63-1",
        "指定緊急避難場所との住所同一": "1",
        "その他市町村長が必要と認める事項": null,
        "受入対象者": null,
        "備考": ""
      }
    },
    {
      "type": "Feature",
      "geometry": {
        "type": "Point",
        "coordinates": [
          139.496377,
          35.367896
        ]
      },
      "properties": {
        "NO": 28074,
        "共通ID": "E1410000144111",
        "都道府県名及び市町村名": "神奈川県横浜市",
        "施設・場所名": "横浜市立東俣野小学校",
        "住所": "神奈川県横浜市戸塚区東俣野町1103-1",
        "指定緊急避難場所との住所同一": "1",
        "その他市町村長が必要と認める事項": null,
        "受入対象者": null,
        "備考": ""
      }
    },
    {
      "type": "Feature",
      "geometry": {
        "type": "Point",
        "coordinates": [
          139.554906,
          35.389088
        ]
      },
      "properties": {
        "NO": 28075,
        "共通ID": "E1410000145111",
        "都道府県名及び市町村名": "神奈川県横浜市",
        "施設・場所名": "横浜市立南舞岡小学校",
        "住所": "神奈川県横浜市戸塚区南舞岡4-15-1",
        "指定緊急避難場所との住所同一": "1",
        "その他市町村長が必要と認める事項": null,
        "受入対象者": null,
        "備考": ""
      }
    },
    {
      "type": "Feature",
      "geometry": {
        "type": "Point",
        "coordinates": [
          139.551864,
          35.414908
        ]
      },
      "properties": {
        "NO": 28076,
        "共通ID": "E1410000146111",
        "都道府県名及び市町村名": "神奈川県横浜市",
        "施設・場所名": "横浜市立柏尾小学校",
        "住所": "神奈川県横浜市戸塚区柏尾町1317",
        "指定緊急避難場所との住所同一": "1",
        "その他市町村長が必要と認める事項": null,
        "受入対象者": null,
        "備考": ""
      }
    },
    {
      "type": "Feature",
      "geometry": {
        "type": "Point",
        "coordinates": [
          139.557531,
          35.425856
        ]
      },
      "properties": {
        "NO": 28077,
        "共通ID": "E1410000147111",
        "都道府県名及び市町村名": "神奈川県横浜市",
        "施設・場所名": "横浜市立品濃小学校",
        "住所": "神奈川県横浜市戸塚区品濃町504-1",
        "指定緊急避難場所との住所同一": "1",
        "その他市町村長が必要と認める事項": null,
        "受入対象者": null,
        "備考": ""
      }
    },
    {
      "type": "Feature",
      "geometry": {
        "type": "Point",
        "coordinates": [
          139.568456,
          35.436847
        ]
      },
      "properties": {
        "NO": 28078,
        "共通ID": "E1410000151111",
        "都道府県名及び市町村名": "神奈川県横浜市",
        "施設・場所名": "横浜市立境木小学校",
        "住所": "神奈川県横浜市戸塚区平戸3-48-1",
        "指定緊急避難場所との住所同一": "1",
        "その他市町村長が必要と認める事項": null,
        "受入対象者": null,
        "備考": ""
      }
    },
    {
      "type": "Feature",
      "geometry": {
        "type": "Point",
        "coordinates": [
          139.569373,
          35.436959
        ]
      },
      "properties": {
        "NO": 28079,
        "共通ID": "E1410000152111",
        "都道府県名及び市町村名": "神奈川県横浜市",
        "施設・場所名": "横浜市立境木中学校",
        "住所": "神奈川県横浜市戸塚区平戸3-48-2",
        "指定緊急避難場所との住所同一": "1",
        "その他市町村長が必要と認める事項": null,
        "受入対象者": null,
        "備考": ""
      }
    },
    {
      "type": "Feature",
      "geometry": {
        "type": "Point",
        "coordinates": [
          139.56793,
          35.423052
        ]
      },
      "properties": {
        "NO": 28080,
        "共通ID": "E1410000153111",
        "都道府県名及び市町村名": "神奈川県横浜市",
        "施設・場所名": "横浜市立平戸台小学校",
        "住所": "神奈川県横浜市戸塚区平戸町1165",
        "指定緊急避難場所との住所同一": "1",
        "その他市町村長が必要と認める事項": null,
        "受入対象者": null,
        "備考": ""
      }
    },
    {
      "type": "Feature",
      "geometry": {
        "type": "Point",
        "coordinates": [
          139.543554,
          35.433984
        ]
      },
      "properties": {
        "NO": 28081,
        "共通ID": "E1410000156111",
        "都道府県名及び市町村名": "神奈川県横浜市",
        "施設・場所名": "横浜市立名瀬中学校",
        "住所": "神奈川県横浜市戸塚区名瀬町791-6",
        "指定緊急避難場所との住所同一": "1",
        "その他市町村長が必要と認める事項": null,
        "受入対象者": null,
        "備考": ""
      }
    },
    {
      "type": "Feature",
      "geometry": {
        "type": "Point",
        "coordinates": [
          139.523293,
          35.407161
        ]
      },
      "properties": {
        "NO": 28082,
        "共通ID": "E1410000157111",
        "都道府県名及び市町村名": "神奈川県横浜市",
        "施設・場所名": "横浜市立矢部小学校",
        "住所": "神奈川県横浜市戸塚区矢部町1698",
        "指定緊急避難場所との住所同一": "1",
        "その他市町村長が必要と認める事項": null,
        "受入対象者": null,
        "備考": ""
      }
    },
    {
      "type": "Feature",
      "geometry": {
        "type": "Point",
        "coordinates": [
          139.541672,
          35.382167
        ]
      },
      "properties": {
        "NO": 28083,
        "共通ID": "E1410000113111",
        "都道府県名及び市町村名": "神奈川県横浜市",
        "施設・場所名": "横浜市立豊田中学校",
        "住所": "神奈川県横浜市戸塚区下倉田町950",
        "指定緊急避難場所との住所同一": "",
        "その他市町村長が必要と認める事項": null,
        "受入対象者": null,
        "備考": ""
      }
    },
    {
      "type": "Feature",
      "geometry": {
        "type": "Point",
        "coordinates": [
          139.538153,
          35.401428
        ]
      },
      "properties": {
        "NO": 28084,
        "共通ID": "E1410000114111",
        "都道府県名及び市町村名": "神奈川県横浜市",
        "施設・場所名": "横浜市立東戸塚小学校",
        "住所": "神奈川県横浜市戸塚区吉田町88",
        "指定緊急避難場所との住所同一": "",
        "その他市町村長が必要と認める事項": null,
        "受入対象者": null,
        "備考": ""
      }
    },
    {
      "type": "Feature",
      "geometry": {
        "type": "Point",
        "coordinates": [
          139.532364,
          35.397309
        ]
      },
      "properties": {
        "NO": 28085,
        "共通ID": "E1410000115111",
        "都道府県名及び市町村名": "神奈川県横浜市",
        "施設・場所名": "横浜市立戸塚小学校",
        "住所": "神奈川県横浜市戸塚区戸塚町132",
        "指定緊急避難場所との住所同一": "",
        "その他市町村長が必要と認める事項": null,
        "受入対象者": null,
        "備考": ""
      }
    },
    {
      "type": "Feature",
      "geometry": {
        "type": "Point",
        "coordinates": [
          139.518682,
          35.380973
        ]
      },
      "properties": {
        "NO": 28086,
        "共通ID": "E1410000581111",
        "都道府県名及び市町村名": "神奈川県横浜市",
        "施設・場所名": "横浜市立南戸塚中学校",
        "住所": "神奈川県横浜市戸塚区戸塚町1842-1",
        "指定緊急避難場所との住所同一": "",
        "その他市町村長が必要と認める事項": null,
        "受入対象者": null,
        "備考": ""
      }
    },
    {
      "type": "Feature",
      "geometry": {
        "type": "Point",
        "coordinates": [
          139.522392,
          35.410868
        ]
      },
      "properties": {
        "NO": 28087,
        "共通ID": "E1410000116111",
        "都道府県名及び市町村名": "神奈川県横浜市",
        "施設・場所名": "横浜市立鳥が丘小学校",
        "住所": "神奈川県横浜市戸塚区鳥が丘53",
        "指定緊急避難場所との住所同一": "",
        "その他市町村長が必要と認める事項": null,
        "受入対象者": null,
        "備考": ""
      }
    },
    {
      "type": "Feature",
      "geometry": {
        "type": "Point",
        "coordinates": [
          139.560616,
          35.434194
        ]
      },
      "properties": {
        "NO": 28088,
        "共通ID": "E1410000117111",
        "都道府県名及び市町村名": "神奈川県横浜市",
        "施設・場所名": "横浜市立東品濃小学校",
        "住所": "神奈川県横浜市戸塚区品濃町559",
        "指定緊急避難場所との住所同一": "",
        "その他市町村長が必要と認める事項": null,
        "受入対象者": null,
        "備考": ""
      }
    },
    {
      "type": "Feature",
      "geometry": {
        "type": "Point",
        "coordinates": [
          139.544525,
          35.409471
        ]
      },
      "properties": {
        "NO": 28089,
        "共通ID": "E1410000118111",
        "都道府県名及び市町村名": "神奈川県横浜市",
        "施設・場所名": "横浜市立舞岡中学校",
        "住所": "神奈川県横浜市戸塚区舞岡町226",
        "指定緊急避難場所との住所同一": "",
        "その他市町村長が必要と認める事項": null,
        "受入対象者": null,
        "備考": ""
      }
    },
    {
      "type": "Feature",
      "geometry": {
        "type": "Point",
        "coordinates": [
          139.550965,
          35.407056
        ]
      },
      "properties": {
        "NO": 28090,
        "共通ID": "E1410000119111",
        "都道府県名及び市町村名": "神奈川県横浜市",
        "施設・場所名": "横浜市立舞岡小学校",
        "住所": "神奈川県横浜市戸塚区舞岡町534",
        "指定緊急避難場所との住所同一": "",
        "その他市町村長が必要と認める事項": null,
        "受入対象者": null,
        "備考": ""
      }
    },
    {
      "type": "Feature",
      "geometry": {
        "type": "Point",
        "coordinates": [
          139.563746,
          35.426744
        ]
      },
      "properties": {
        "NO": 28091,
        "共通ID": "E1410000120111",
        "都道府県名及び市町村名": "神奈川県横浜市",
        "施設・場所名": "横浜市立平戸小学校",
        "住所": "神奈川県横浜市戸塚区平戸町542",
        "指定緊急避難場所との住所同一": "",
        "その他市町村長が必要と認める事項": null,
        "受入対象者": null,
        "備考": ""
      }
    },
    {
      "type": "Feature",
      "geometry": {
        "type": "Point",
        "coordinates": [
          139.541103,
          35.431082
        ]
      },
      "properties": {
        "NO": 28092,
        "共通ID": "E1410000121111",
        "都道府県名及び市町村名": "神奈川県横浜市",
        "施設・場所名": "横浜市立名瀬小学校",
        "住所": "神奈川県横浜市戸塚区名瀬町776",
        "指定緊急避難場所との住所同一": "",
        "その他市町村長が必要と認める事項": null,
        "受入対象者": null,
        "備考": ""
      }
    },
    {
      "type": "Feature",
      "geometry": {
        "type": "Point",
        "coordinates": [
          139.559623,
          35.41141
        ]
      },
      "properties": {
        "NO": 28093,
        "共通ID": "E1410000158111",
        "都道府県名及び市町村名": "神奈川県横浜市",
        "施設・場所名": "横浜市立永谷小学校",
        "住所": "神奈川県横浜市港南区下永谷5-48-15",
        "指定緊急避難場所との住所同一": "1",
        "その他市町村長が必要と認める事項": null,
        "受入対象者": null,
        "備考": ""
      }
    },
    {
      "type": "Feature",
      "geometry": {
        "type": "Point",
        "coordinates": [
          139.56848,
          35.400599
        ]
      },
      "properties": {
        "NO": 28094,
        "共通ID": "E1410000159111",
        "都道府県名及び市町村名": "神奈川県横浜市",
        "施設・場所名": "横浜市立丸山台小学校",
        "住所": "神奈川県横浜市港南区丸山台3-8-1",
        "指定緊急避難場所との住所同一": "1",
        "その他市町村長が必要と認める事項": null,
        "受入対象者": null,
        "備考": ""
      }
    },
    {
      "type": "Feature",
      "geometry": {
        "type": "Point",
        "coordinates": [
          139.565101,
          35.394914
        ]
      },
      "properties": {
        "NO": 28095,
        "共通ID": "E1410000160111",
        "都道府県名及び市町村名": "神奈川県横浜市",
        "施設・場所名": "横浜市立丸山台中学校",
        "住所": "神奈川県横浜市港南区丸山台4-1-1",
        "指定緊急避難場所との住所同一": "1",
        "その他市町村長が必要と認める事項": null,
        "受入対象者": null,
        "備考": ""
      }
    },
    {
      "type": "Feature",
      "geometry": {
        "type": "Point",
        "coordinates": [
          139.573892,
          35.417289
        ]
      },
      "properties": {
        "NO": 28096,
        "共通ID": "E1410000161111",
        "都道府県名及び市町村名": "神奈川県横浜市",
        "施設・場所名": "横浜市立芹が谷中学校",
        "住所": "神奈川県横浜市港南区芹が谷2-7-1",
        "指定緊急避難場所との住所同一": "1",
        "その他市町村長が必要と認める事項": null,
        "受入対象者": null,
        "備考": ""
      }
    },
    {
      "type": "Feature",
      "geometry": {
        "type": "Point",
        "coordinates": [
          139.573812,
          35.415544
        ]
      },
      "properties": {
        "NO": 28097,
        "共通ID": "E1410000162111",
        "都道府県名及び市町村名": "神奈川県横浜市",
        "施設・場所名": "横浜市立芹が谷小学校",
        "住所": "神奈川県横浜市港南区芹が谷3-32-1",
        "指定緊急避難場所との住所同一": "1",
        "その他市町村長が必要と認める事項": null,
        "受入対象者": null,
        "備考": ""
      }
    },
    {
      "type": "Feature",
      "geometry": {
        "type": "Point",
        "coordinates": [
          139.571287,
          35.41228
        ]
      },
      "properties": {
        "NO": 28098,
        "共通ID": "E1410000163111",
        "都道府県名及び市町村名": "神奈川県横浜市",
        "施設・場所名": "横浜市立芹が谷南小学校",
        "住所": "神奈川県横浜市港南区芹が谷4-22-1",
        "指定緊急避難場所との住所同一": "1",
        "その他市町村長が必要と認める事項": null,
        "受入対象者": null,
        "備考": ""
      }
    },
    {
      "type": "Feature",
      "geometry": {
        "type": "Point",
        "coordinates": [
          139.59191,
          35.397147
        ]
      },
      "properties": {
        "NO": 28099,
        "共通ID": "E1410000164111",
        "都道府県名及び市町村名": "神奈川県横浜市",
        "施設・場所名": "横浜市立南台小学校",
        "住所": "神奈川県横浜市港南区港南5-6-1",
        "指定緊急避難場所との住所同一": "1",
        "その他市町村長が必要と認める事項": null,
        "受入対象者": null,
        "備考": ""
      }
    },
    {
      "type": "Feature",
      "geometry": {
        "type": "Point",
        "coordinates": [
          139.593302,
          35.396535
        ]
      },
      "properties": {
        "NO": 28100,
        "共通ID": "E1410000165111",
        "都道府県名及び市町村名": "神奈川県横浜市",
        "施設・場所名": "横浜市立笹下中学校",
        "住所": "神奈川県横浜市港南区港南5-8-1",
        "指定緊急避難場所との住所同一": "1",
        "その他市町村長が必要と認める事項": null,
        "受入対象者": null,
        "備考": ""
      }
    },
    {
      "type": "Feature",
      "geometry": {
        "type": "Point",
        "coordinates": [
          139.582477,
          35.378993
        ]
      },
      "properties": {
        "NO": 28101,
        "共通ID": "E1410000166111",
        "都道府県名及び市町村名": "神奈川県横浜市",
        "施設・場所名": "横浜市立港南台第三小学校",
        "住所": "神奈川県横浜市港南区港南台2-14-1",
        "指定緊急避難場所との住所同一": "1",
        "その他市町村長が必要と認める事項": null,
        "受入対象者": null,
        "備考": ""
      }
    },
    {
      "type": "Feature",
      "geometry": {
        "type": "Point",
        "coordinates": [
          139.574272,
          35.376004
        ]
      },
      "properties": {
        "NO": 28102,
        "共通ID": "E1410000167111",
        "都道府県名及び市町村名": "神奈川県横浜市",
        "施設・場所名": "横浜市立小坪小学校",
        "住所": "神奈川県横浜市港南区港南台4-11-1",
        "指定緊急避難場所との住所同一": "1",
        "その他市町村長が必要と認める事項": null,
        "受入対象者": null,
        "備考": ""
      }
    },
    {
      "type": "Feature",
      "geometry": {
        "type": "Point",
        "coordinates": [
          139.568976,
          35.375326
        ]
      },
      "properties": {
        "NO": 28103,
        "共通ID": "E1410000168111",
        "都道府県名及び市町村名": "神奈川県横浜市",
        "施設・場所名": "横浜市立日野南中学校",
        "住所": "神奈川県横浜市港南区港南台4-37-1",
        "指定緊急避難場所との住所同一": "1",
        "その他市町村長が必要と認める事項": null,
        "受入対象者": null,
        "備考": ""
      }
    },
    {
      "type": "Feature",
      "geometry": {
        "type": "Point",
        "coordinates": [
          139.579245,
          35.371645
        ]
      },
      "properties": {
        "NO": 28104,
        "共通ID": "E1410000169111",
        "都道府県名及び市町村名": "神奈川県横浜市",
        "施設・場所名": "横浜市立港南台第二小学校",
        "住所": "神奈川県横浜市港南区港南台5-4-1",
        "指定緊急避難場所との住所同一": "1",
        "その他市町村長が必要と認める事項": null,
        "受入対象者": null,
        "備考": ""
      }
    },
    {
      "type": "Feature",
      "geometry": {
        "type": "Point",
        "coordinates": [
          139.58646,
          35.371448
        ]
      },
      "properties": {
        "NO": 28105,
        "共通ID": "E1410000170111",
        "都道府県名及び市町村名": "神奈川県横浜市",
        "施設・場所名": "横浜市立港南台第一中学校",
        "住所": "神奈川県横浜市港南区港南台6-6-1",
        "指定緊急避難場所との住所同一": "1",
        "その他市町村長が必要と認める事項": null,
        "受入対象者": null,
        "備考": ""
      }
    },
    {
      "type": "Feature",
      "geometry": {
        "type": "Point",
        "coordinates": [
          139.587134,
          35.370676
        ]
      },
      "properties": {
        "NO": 28106,
        "共通ID": "E1410000171111",
        "都道府県名及び市町村名": "神奈川県横浜市",
        "施設・場所名": "横浜市立港南台第一小学校",
        "住所": "神奈川県横浜市港南区港南台6-7-1",
        "指定緊急避難場所との住所同一": "1",
        "その他市町村長が必要と認める事項": null,
        "受入対象者": null,
        "備考": ""
      }
    },
    {
      "type": "Feature",
      "geometry": {
        "type": "Point",
        "coordinates": [
          139.590622,
          35.401858
        ]
      },
      "properties": {
        "NO": 28107,
        "共通ID": "E1410000172111",
        "都道府県名及び市町村名": "神奈川県横浜市",
        "施設・場所名": "横浜市立港南中学校",
        "住所": "神奈川県横浜市港南区港南中央通6-1",
        "指定緊急避難場所との住所同一": "1",
        "その他市町村長が必要と認める事項": null,
        "受入対象者": null,
        "備考": ""
      }
    },
    {
      "type": "Feature",
      "geometry": {
        "type": "Point",
        "coordinates": [
          139.601756,
          35.390385
        ]
      },
      "properties": {
        "NO": 28108,
        "共通ID": "E1410000173111",
        "都道府県名及び市町村名": "神奈川県横浜市",
        "施設・場所名": "横浜市立日下小学校",
        "住所": "神奈川県横浜市港南区笹下3-9-1",
        "指定緊急避難場所との住所同一": "1",
        "その他市町村長が必要と認める事項": null,
        "受入対象者": null,
        "備考": ""
      }
    },
    {
      "type": "Feature",
      "geometry": {
        "type": "Point",
        "coordinates": [
          139.58072,
          35.402518
        ]
      },
      "properties": {
        "NO": 28109,
        "共通ID": "E1410000174111",
        "都道府県名及び市町村名": "神奈川県横浜市",
        "施設・場所名": "横浜市立相武山小学校",
        "住所": "神奈川県横浜市港南区上永谷1-7-5",
        "指定緊急避難場所との住所同一": "1",
        "その他市町村長が必要と認める事項": null,
        "受入対象者": null,
        "備考": ""
      }
    },
    {
      "type": "Feature",
      "geometry": {
        "type": "Point",
        "coordinates": [
          139.570284,
          35.405816
        ]
      },
      "properties": {
        "NO": 28110,
        "共通ID": "E1410000175111",
        "都道府県名及び市町村名": "神奈川県横浜市",
        "施設・場所名": "横浜市立永野小学校",
        "住所": "神奈川県横浜市港南区上永谷2-21-10",
        "指定緊急避難場所との住所同一": "1",
        "その他市町村長が必要と認める事項": null,
        "受入対象者": null,
        "備考": ""
      }
    },
    {
      "type": "Feature",
      "geometry": {
        "type": "Point",
        "coordinates": [
          139.569175,
          35.409945
        ]
      },
      "properties": {
        "NO": 28111,
        "共通ID": "E1410000176111",
        "都道府県名及び市町村名": "神奈川県横浜市",
        "施設・場所名": "横浜市立上永谷中学校",
        "住所": "神奈川県横浜市港南区上永谷4-12-14",
        "指定緊急避難場所との住所同一": "1",
        "その他市町村長が必要と認める事項": null,
        "受入対象者": null,
        "備考": ""
      }
    },
    {
      "type": "Feature",
      "geometry": {
        "type": "Point",
        "coordinates": [
          139.603733,
          35.404471
        ]
      },
      "properties": {
        "NO": 28112,
        "共通ID": "E1410000177111",
        "都道府県名及び市町村名": "神奈川県横浜市",
        "施設・場所名": "横浜市立上大岡小学校",
        "住所": "神奈川県横浜市港南区上大岡東3-11-1",
        "指定緊急避難場所との住所同一": "1",
        "その他市町村長が必要と認める事項": null,
        "受入対象者": null,
        "備考": ""
      }
    },
    {
      "type": "Feature",
      "geometry": {
        "type": "Point",
        "coordinates": [
          139.59376,
          35.412476
        ]
      },
      "properties": {
        "NO": 28113,
        "共通ID": "E1410000178111",
        "都道府県名及び市町村名": "神奈川県横浜市",
        "施設・場所名": "横浜市立桜岡小学校",
        "住所": "神奈川県横浜市港南区大久保1-6-43",
        "指定緊急避難場所との住所同一": "1",
        "その他市町村長が必要と認める事項": null,
        "受入対象者": null,
        "備考": ""
      }
    },
    {
      "type": "Feature",
      "geometry": {
        "type": "Point",
        "coordinates": [
          139.58176,
          35.408576
        ]
      },
      "properties": {
        "NO": 28114,
        "共通ID": "E1410000179111",
        "都道府県名及び市町村名": "神奈川県横浜市",
        "施設・場所名": "横浜市立下永谷小学校",
        "住所": "神奈川県横浜市港南区東永谷1-36-1",
        "指定緊急避難場所との住所同一": "1",
        "その他市町村長が必要と認める事項": null,
        "受入対象者": null,
        "備考": ""
      }
    },
    {
      "type": "Feature",
      "geometry": {
        "type": "Point",
        "coordinates": [
          139.578787,
          35.406559
        ]
      },
      "properties": {
        "NO": 28115,
        "共通ID": "E1410000180111",
        "都道府県名及び市町村名": "神奈川県横浜市",
        "施設・場所名": "横浜市立東永谷中学校",
        "住所": "神奈川県横浜市港南区東永谷2-14-7",
        "指定緊急避難場所との住所同一": "1",
        "その他市町村長が必要と認める事項": null,
        "受入対象者": null,
        "備考": ""
      }
    },
    {
      "type": "Feature",
      "geometry": {
        "type": "Point",
        "coordinates": [
          139.559792,
          35.393838
        ]
      },
      "properties": {
        "NO": 28116,
        "共通ID": "E1410000181111",
        "都道府県名及び市町村名": "神奈川県横浜市",
        "施設・場所名": "横浜市立日限山小学校",
        "住所": "神奈川県横浜市港南区日限山2-16-1",
        "指定緊急避難場所との住所同一": "1",
        "その他市町村長が必要と認める事項": null,
        "受入対象者": null,
        "備考": ""
      }
    },
    {
      "type": "Feature",
      "geometry": {
        "type": "Point",
        "coordinates": [
          139.557164,
          35.386886
        ]
      },
      "properties": {
        "NO": 28117,
        "共通ID": "E1410000182111",
        "都道府県名及び市町村名": "神奈川県横浜市",
        "施設・場所名": "横浜市立日限山中学校",
        "住所": "神奈川県横浜市港南区日限山4-33-1",
        "指定緊急避難場所との住所同一": "1",
        "その他市町村長が必要と認める事項": null,
        "受入対象者": null,
        "備考": ""
      }
    },
    {
      "type": "Feature",
      "geometry": {
        "type": "Point",
        "coordinates": [
          139.583598,
          35.397433
        ]
      },
      "properties": {
        "NO": 28118,
        "共通ID": "E1410000183111",
        "都道府県名及び市町村名": "神奈川県横浜市",
        "施設・場所名": "横浜市立吉原小学校",
        "住所": "神奈川県横浜市港南区日野2-20-40",
        "指定緊急避難場所との住所同一": "1",
        "その他市町村長が必要と認める事項": null,
        "受入対象者": null,
        "備考": ""
      }
    },
    {
      "type": "Feature",
      "geometry": {
        "type": "Point",
        "coordinates": [
          139.579691,
          35.387512
        ]
      },
      "properties": {
        "NO": 28119,
        "共通ID": "E1410000184111",
        "都道府県名及び市町村名": "神奈川県横浜市",
        "施設・場所名": "横浜市立日野小学校",
        "住所": "神奈川県横浜市港南区日野7-11-1",
        "指定緊急避難場所との住所同一": "1",
        "その他市町村長が必要と認める事項": null,
        "受入対象者": null,
        "備考": ""
      }
    },
    {
      "type": "Feature",
      "geometry": {
        "type": "Point",
        "coordinates": [
          139.562132,
          35.375097
        ]
      },
      "properties": {
        "NO": 28120,
        "共通ID": "E1410000185111",
        "都道府県名及び市町村名": "神奈川県横浜市",
        "施設・場所名": "横浜市立日野南小学校",
        "住所": "神奈川県横浜市港南区日野南6-35-1",
        "指定緊急避難場所との住所同一": "1",
        "その他市町村長が必要と認める事項": null,
        "受入対象者": null,
        "備考": ""
      }
    },
    {
      "type": "Feature",
      "geometry": {
        "type": "Point",
        "coordinates": [
          139.574895,
          35.387778
        ]
      },
      "properties": {
        "NO": 28121,
        "共通ID": "E1410000186111",
        "都道府県名及び市町村名": "神奈川県横浜市",
        "施設・場所名": "横浜市立野庭すずかけ小学校",
        "住所": "神奈川県横浜市港南区野庭町346-2",
        "指定緊急避難場所との住所同一": "1",
        "その他市町村長が必要と認める事項": null,
        "受入対象者": null,
        "備考": ""
      }
    },
    {
      "type": "Feature",
      "geometry": {
        "type": "Point",
        "coordinates": [
          139.571615,
          35.392989
        ]
      },
      "properties": {
        "NO": 28122,
        "共通ID": "E1410000187111",
        "都道府県名及び市町村名": "神奈川県横浜市",
        "施設・場所名": "横浜市立下野庭小学校",
        "住所": "神奈川県横浜市港南区野庭町602",
        "指定緊急避難場所との住所同一": "1",
        "その他市町村長が必要と認める事項": null,
        "受入対象者": null,
        "備考": ""
      }
    },
    {
      "type": "Feature",
      "geometry": {
        "type": "Point",
        "coordinates": [
          139.570596,
          35.386777
        ]
      },
      "properties": {
        "NO": 28123,
        "共通ID": "E1410000188111",
        "都道府県名及び市町村名": "神奈川県横浜市",
        "施設・場所名": "旧横浜市立野庭中学校",
        "住所": "神奈川県横浜市港南区野庭町630",
        "指定緊急避難場所との住所同一": "1",
        "その他市町村長が必要と認める事項": null,
        "受入対象者": null,
        "備考": ""
      }
    },
    {
      "type": "Feature",
      "geometry": {
        "type": "Point",
        "coordinates": [
          139.630358,
          35.557202
        ]
      },
      "properties": {
        "NO": 28124,
        "共通ID": "E1410000189111",
        "都道府県名及び市町村名": "神奈川県横浜市",
        "施設・場所名": "横浜市立下田小学校",
        "住所": "神奈川県横浜市港北区下田町4-10-1",
        "指定緊急避難場所との住所同一": "1",
        "その他市町村長が必要と認める事項": null,
        "受入対象者": null,
        "備考": ""
      }
    },
    {
      "type": "Feature",
      "geometry": {
        "type": "Point",
        "coordinates": [
          139.635974,
          35.500061
        ]
      },
      "properties": {
        "NO": 28125,
        "共通ID": "E1410000190111",
        "都道府県名及び市町村名": "神奈川県横浜市",
        "施設・場所名": "横浜市立港北小学校",
        "住所": "神奈川県横浜市港北区菊名2-15-1",
        "指定緊急避難場所との住所同一": "1",
        "その他市町村長が必要と認める事項": null,
        "受入対象者": null,
        "備考": ""
      }
    },
    {
      "type": "Feature",
      "geometry": {
        "type": "Point",
        "coordinates": [
          139.635356,
          35.512978
        ]
      },
      "properties": {
        "NO": 28126,
        "共通ID": "E1410000191111",
        "都道府県名及び市町村名": "神奈川県横浜市",
        "施設・場所名": "横浜市立菊名小学校",
        "住所": "神奈川県横浜市港北区菊名5-18-1",
        "指定緊急避難場所との住所同一": "1",
        "その他市町村長が必要と認める事項": null,
        "受入対象者": null,
        "備考": ""
      }
    },
    {
      "type": "Feature",
      "geometry": {
        "type": "Point",
        "coordinates": [
          139.62794,
          35.537353
        ]
      },
      "properties": {
        "NO": 28127,
        "共通ID": "E1410000192111",
        "都道府県名及び市町村名": "神奈川県横浜市",
        "施設・場所名": "横浜市立綱島小学校",
        "住所": "神奈川県横浜市港北区綱島西3-11-1",
        "指定緊急避難場所との住所同一": "1",
        "その他市町村長が必要と認める事項": null,
        "受入対象者": null,
        "備考": ""
      }
    },
    {
      "type": "Feature",
      "geometry": {
        "type": "Point",
        "coordinates": [
          139.630787,
          35.543833
        ]
      },
      "properties": {
        "NO": 28128,
        "共通ID": "E1410000202111",
        "都道府県名及び市町村名": "神奈川県横浜市",
        "施設・場所名": "横浜市立北綱島小学校",
        "住所": "神奈川県横浜市港北区綱島西5-14-40",
        "指定緊急避難場所との住所同一": "1",
        "その他市町村長が必要と認める事項": null,
        "受入対象者": null,
        "備考": ""
      }
    },
    {
      "type": "Feature",
      "geometry": {
        "type": "Point",
        "coordinates": [
          139.64049,
          35.53776
        ]
      },
      "properties": {
        "NO": 28129,
        "共通ID": "E1410000203111",
        "都道府県名及び市町村名": "神奈川県横浜市",
        "施設・場所名": "横浜市立綱島東小学校",
        "住所": "神奈川県横浜市港北区綱島東3-1-30",
        "指定緊急避難場所との住所同一": "1",
        "その他市町村長が必要と認める事項": null,
        "受入対象者": null,
        "備考": ""
      }
    },
    {
      "type": "Feature",
      "geometry": {
        "type": "Point",
        "coordinates": [
          139.617302,
          35.556634
        ]
      },
      "properties": {
        "NO": 28130,
        "共通ID": "E1410000216111",
        "都道府県名及び市町村名": "神奈川県横浜市",
        "施設・場所名": "横浜市立高田中学校",
        "住所": "神奈川県横浜市港北区高田町2439",
        "指定緊急避難場所との住所同一": "1",
        "その他市町村長が必要と認める事項": null,
        "受入対象者": null,
        "備考": ""
      }
    },
    {
      "type": "Feature",
      "geometry": {
        "type": "Point",
        "coordinates": [
          139.624991,
          35.552327
        ]
      },
      "properties": {
        "NO": 28131,
        "共通ID": "E1410000217111",
        "都道府県名及び市町村名": "神奈川県横浜市",
        "施設・場所名": "横浜市立高田東小学校",
        "住所": "神奈川県横浜市港北区高田東2-33-1",
        "指定緊急避難場所との住所同一": "1",
        "その他市町村長が必要と認める事項": null,
        "受入対象者": null,
        "備考": ""
      }
    },
    {
      "type": "Feature",
      "geometry": {
        "type": "Point",
        "coordinates": [
          139.63859,
          35.523632
        ]
      },
      "properties": {
        "NO": 28132,
        "共通ID": "E1410000218111",
        "都道府県名及び市町村名": "神奈川県横浜市",
        "施設・場所名": "横浜市立師岡小学校",
        "住所": "神奈川県横浜市港北区師岡町986",
        "指定緊急避難場所との住所同一": "1",
        "その他市町村長が必要と認める事項": null,
        "受入対象者": null,
        "備考": ""
      }
    },
    {
      "type": "Feature",
      "geometry": {
        "type": "Point",
        "coordinates": [
          139.615022,
          35.501991
        ]
      },
      "properties": {
        "NO": 28133,
        "共通ID": "E1410000219111",
        "都道府県名及び市町村名": "神奈川県横浜市",
        "施設・場所名": "横浜市立篠原西小学校",
        "住所": "神奈川県横浜市港北区篠原町1241-1",
        "指定緊急避難場所との住所同一": "1",
        "その他市町村長が必要と認める事項": null,
        "受入対象者": null,
        "備考": ""
      }
    },
    {
      "type": "Feature",
      "geometry": {
        "type": "Point",
        "coordinates": [
          139.626932,
          35.50292
        ]
      },
      "properties": {
        "NO": 28134,
        "共通ID": "E1410000220111",
        "都道府県名及び市町村名": "神奈川県横浜市",
        "施設・場所名": "横浜市立篠原小学校",
        "住所": "神奈川県横浜市港北区篠原東3-27-1",
        "指定緊急避難場所との住所同一": "1",
        "その他市町村長が必要と認める事項": null,
        "受入対象者": null,
        "備考": ""
      }
    },
    {
      "type": "Feature",
      "geometry": {
        "type": "Point",
        "coordinates": [
          139.597824,
          35.505378
        ]
      },
      "properties": {
        "NO": 28135,
        "共通ID": "E1410000221111",
        "都道府県名及び市町村名": "神奈川県横浜市",
        "施設・場所名": "横浜市立小机小学校",
        "住所": "神奈川県横浜市港北区小机町1382-10",
        "指定緊急避難場所との住所同一": "1",
        "その他市町村長が必要と認める事項": null,
        "受入対象者": null,
        "備考": ""
      }
    },
    {
      "type": "Feature",
      "geometry": {
        "type": "Point",
        "coordinates": [
          139.587302,
          35.505799
        ]
      },
      "properties": {
        "NO": 28136,
        "共通ID": "E1410000222111",
        "都道府県名及び市町村名": "神奈川県横浜市",
        "施設・場所名": "横浜市立城郷中学校",
        "住所": "神奈川県横浜市港北区小机町325",
        "指定緊急避難場所との住所同一": "1",
        "その他市町村長が必要と認める事項": null,
        "受入対象者": null,
        "備考": ""
      }
    },
    {
      "type": "Feature",
      "geometry": {
        "type": "Point",
        "coordinates": [
          139.607981,
          35.522683
        ]
      },
      "properties": {
        "NO": 28137,
        "共通ID": "E1410000223111",
        "都道府県名及び市町村名": "神奈川県横浜市",
        "施設・場所名": "横浜市立新羽小学校",
        "住所": "神奈川県横浜市港北区新羽町1452-2",
        "指定緊急避難場所との住所同一": "1",
        "その他市町村長が必要と認める事項": null,
        "受入対象者": null,
        "備考": ""
      }
    },
    {
      "type": "Feature",
      "geometry": {
        "type": "Point",
        "coordinates": [
          139.609986,
          35.533307
        ]
      },
      "properties": {
        "NO": 28138,
        "共通ID": "E1410000224111",
        "都道府県名及び市町村名": "神奈川県横浜市",
        "施設・場所名": "横浜市立新田小学校",
        "住所": "神奈川県横浜市港北区新吉田町3226",
        "指定緊急避難場所との住所同一": "1",
        "その他市町村長が必要と認める事項": null,
        "受入対象者": null,
        "備考": ""
      }
    },
    {
      "type": "Feature",
      "geometry": {
        "type": "Point",
        "coordinates": [
          139.612777,
          35.549655
        ]
      },
      "properties": {
        "NO": 28139,
        "共通ID": "E1410000225111",
        "都道府県名及び市町村名": "神奈川県横浜市",
        "施設・場所名": "横浜市立新吉田第二小学校",
        "住所": "神奈川県横浜市港北区新吉田町491-1",
        "指定緊急避難場所との住所同一": "1",
        "その他市町村長が必要と認める事項": null,
        "受入対象者": null,
        "備考": ""
      }
    },
    {
      "type": "Feature",
      "geometry": {
        "type": "Point",
        "coordinates": [
          139.622504,
          35.541215
        ]
      },
      "properties": {
        "NO": 28140,
        "共通ID": "E1410000226111",
        "都道府県名及び市町村名": "神奈川県横浜市",
        "施設・場所名": "横浜市立新田中学校",
        "住所": "神奈川県横浜市港北区新吉田東5-25-1",
        "指定緊急避難場所との住所同一": "1",
        "その他市町村長が必要と認める事項": null,
        "受入対象者": null,
        "備考": ""
      }
    },
    {
      "type": "Feature",
      "geometry": {
        "type": "Point",
        "coordinates": [
          139.617657,
          35.538458
        ]
      },
      "properties": {
        "NO": 28141,
        "共通ID": "E1410000227111",
        "都道府県名及び市町村名": "神奈川県横浜市",
        "施設・場所名": "横浜市立新吉田小学校",
        "住所": "神奈川県横浜市港北区新吉田東6-44-1",
        "指定緊急避難場所との住所同一": "1",
        "その他市町村長が必要と認める事項": null,
        "受入対象者": null,
        "備考": ""
      }
    },
    {
      "type": "Feature",
      "geometry": {
        "type": "Point",
        "coordinates": [
          139.629756,
          35.531834
        ]
      },
      "properties": {
        "NO": 28142,
        "共通ID": "E1410000228111",
        "都道府県名及び市町村名": "神奈川県横浜市",
        "施設・場所名": "横浜市立大曽根小学校",
        "住所": "神奈川県横浜市港北区大曽根2-31-1",
        "指定緊急避難場所との住所同一": "1",
        "その他市町村長が必要と認める事項": null,
        "受入対象者": null,
        "備考": ""
      }
    },
    {
      "type": "Feature",
      "geometry": {
        "type": "Point",
        "coordinates": [
          139.625613,
          35.518932
        ]
      },
      "properties": {
        "NO": 28143,
        "共通ID": "E1410000229111",
        "都道府県名及び市町村名": "神奈川県横浜市",
        "施設・場所名": "横浜市立大綱小学校",
        "住所": "神奈川県横浜市港北区大倉山4-2-1",
        "指定緊急避難場所との住所同一": "1",
        "その他市町村長が必要と認める事項": null,
        "受入対象者": null,
        "備考": ""
      }
    },
    {
      "type": "Feature",
      "geometry": {
        "type": "Point",
        "coordinates": [
          139.619063,
          35.524203
        ]
      },
      "properties": {
        "NO": 28144,
        "共通ID": "E1410000230111",
        "都道府県名及び市町村名": "神奈川県横浜市",
        "施設・場所名": "横浜市立太尾小学校",
        "住所": "神奈川県横浜市港北区大倉山7-34-1",
        "指定緊急避難場所との住所同一": "1",
        "その他市町村長が必要と認める事項": null,
        "受入対象者": null,
        "備考": ""
      }
    },
    {
      "type": "Feature",
      "geometry": {
        "type": "Point",
        "coordinates": [
          139.621997,
          35.515915
        ]
      },
      "properties": {
        "NO": 28145,
        "共通ID": "E1410000231111",
        "都道府県名及び市町村名": "神奈川県横浜市",
        "施設・場所名": "横浜市立大豆戸小学校",
        "住所": "神奈川県横浜市港北区大豆戸町759",
        "指定緊急避難場所との住所同一": "1",
        "その他市町村長が必要と認める事項": null,
        "受入対象者": null,
        "備考": ""
      }
    },
    {
      "type": "Feature",
      "geometry": {
        "type": "Point",
        "coordinates": [
          139.642096,
          35.528188
        ]
      },
      "properties": {
        "NO": 28146,
        "共通ID": "E1410000232111",
        "都道府県名及び市町村名": "神奈川県横浜市",
        "施設・場所名": "横浜市立樽町中学校",
        "住所": "神奈川県横浜市港北区樽町4-15-1",
        "指定緊急避難場所との住所同一": "1",
        "その他市町村長が必要と認める事項": null,
        "受入対象者": null,
        "備考": ""
      }
    },
    {
      "type": "Feature",
      "geometry": {
        "type": "Point",
        "coordinates": [
          139.602417,
          35.504979
        ]
      },
      "properties": {
        "NO": 28147,
        "共通ID": "E1410000247111",
        "都道府県名及び市町村名": "神奈川県横浜市",
        "施設・場所名": "横浜市立城郷小学校",
        "住所": "神奈川県横浜市港北区鳥山町814",
        "指定緊急避難場所との住所同一": "1",
        "その他市町村長が必要と認める事項": null,
        "受入対象者": null,
        "備考": ""
      }
    },
    {
      "type": "Feature",
      "geometry": {
        "type": "Point",
        "coordinates": [
          139.657468,
          35.554149
        ]
      },
      "properties": {
        "NO": 28148,
        "共通ID": "E1410000248111",
        "都道府県名及び市町村名": "神奈川県横浜市",
        "施設・場所名": "横浜市立矢上小学校",
        "住所": "神奈川県横浜市港北区日吉3-23-1",
        "指定緊急避難場所との住所同一": "1",
        "その他市町村長が必要と認める事項": null,
        "受入対象者": null,
        "備考": ""
      }
    },
    {
      "type": "Feature",
      "geometry": {
        "type": "Point",
        "coordinates": [
          139.643466,
          35.552809
        ]
      },
      "properties": {
        "NO": 28149,
        "共通ID": "E1410000249111",
        "都道府県名及び市町村名": "神奈川県横浜市",
        "施設・場所名": "横浜市立日吉台小学校",
        "住所": "神奈川県横浜市港北区日吉本町1-34-21",
        "指定緊急避難場所との住所同一": "1",
        "その他市町村長が必要と認める事項": null,
        "受入対象者": null,
        "備考": ""
      }
    },
    {
      "type": "Feature",
      "geometry": {
        "type": "Point",
        "coordinates": [
          139.635257,
          35.552534
        ]
      },
      "properties": {
        "NO": 28150,
        "共通ID": "E1410000250111",
        "都道府県名及び市町村名": "神奈川県横浜市",
        "施設・場所名": "横浜市立駒林小学校",
        "住所": "神奈川県横浜市港北区日吉本町2-51-1",
        "指定緊急避難場所との住所同一": "1",
        "その他市町村長が必要と認める事項": null,
        "受入対象者": null,
        "備考": ""
      }
    },
    {
      "type": "Feature",
      "geometry": {
        "type": "Point",
        "coordinates": [
          139.639347,
          35.544848
        ]
      },
      "properties": {
        "NO": 28151,
        "共通ID": "E1410000251111",
        "都道府県名及び市町村名": "神奈川県横浜市",
        "施設・場所名": "横浜市立日吉南小学校",
        "住所": "神奈川県横浜市港北区日吉本町4-2-6",
        "指定緊急避難場所との住所同一": "1",
        "その他市町村長が必要と認める事項": null,
        "受入対象者": null,
        "備考": ""
      }
    },
    {
      "type": "Feature",
      "geometry": {
        "type": "Point",
        "coordinates": [
          139.645309,
          35.544933
        ]
      },
      "properties": {
        "NO": 28152,
        "共通ID": "E1410000252111",
        "都道府県名及び市町村名": "神奈川県横浜市",
        "施設・場所名": "横浜市立箕輪小学校",
        "住所": "神奈川県横浜市港北区箕輪町2-7-1",
        "指定緊急避難場所との住所同一": "1",
        "その他市町村長が必要と認める事項": null,
        "受入対象者": null,
        "備考": ""
      }
    },
    {
      "type": "Feature",
      "geometry": {
        "type": "Point",
        "coordinates": [
          139.587223,
          35.488543
        ]
      },
      "properties": {
        "NO": 28153,
        "共通ID": "E1410000253111",
        "都道府県名及び市町村名": "神奈川県横浜市",
        "施設・場所名": "横浜市立羽沢小学校",
        "住所": "神奈川県横浜市神奈川区羽沢町935",
        "指定緊急避難場所との住所同一": "1",
        "その他市町村長が必要と認める事項": null,
        "受入対象者": null,
        "備考": ""
      }
    },
    {
      "type": "Feature",
      "geometry": {
        "type": "Point",
        "coordinates": [
          139.63672,
          35.48396
        ]
      },
      "properties": {
        "NO": 28154,
        "共通ID": "E1410000254111",
        "都道府県名及び市町村名": "神奈川県横浜市",
        "施設・場所名": "横浜市立浦島小学校",
        "住所": "神奈川県横浜市神奈川区浦島丘16",
        "指定緊急避難場所との住所同一": "1",
        "その他市町村長が必要と認める事項": null,
        "受入対象者": null,
        "備考": ""
      }
    },
    {
      "type": "Feature",
      "geometry": {
        "type": "Point",
        "coordinates": [
          139.625712,
          35.473465
        ]
      },
      "properties": {
        "NO": 28155,
        "共通ID": "E1410000255111",
        "都道府県名及び市町村名": "神奈川県横浜市",
        "施設・場所名": "横浜市立青木小学校",
        "住所": "神奈川県横浜市神奈川区桐畑17",
        "指定緊急避難場所との住所同一": "1",
        "その他市町村長が必要と認める事項": null,
        "受入対象者": null,
        "備考": ""
      }
    },
    {
      "type": "Feature",
      "geometry": {
        "type": "Point",
        "coordinates": [
          139.624348,
          35.477009
        ]
      },
      "properties": {
        "NO": 28156,
        "共通ID": "E1410000256111",
        "都道府県名及び市町村名": "神奈川県横浜市",
        "施設・場所名": "横浜市立栗田谷中学校",
        "住所": "神奈川県横浜市神奈川区栗田谷3-1",
        "指定緊急避難場所との住所同一": "1",
        "その他市町村長が必要と認める事項": null,
        "受入対象者": null,
        "備考": ""
      }
    },
    {
      "type": "Feature",
      "geometry": {
        "type": "Point",
        "coordinates": [
          139.630499,
          35.471371
        ]
      },
      "properties": {
        "NO": 28157,
        "共通ID": "E1410000257111",
        "都道府県名及び市町村名": "神奈川県横浜市",
        "施設・場所名": "横浜市立幸ケ谷小学校",
        "住所": "神奈川県横浜市神奈川区幸ケ谷1-1",
        "指定緊急避難場所との住所同一": "1",
        "その他市町村長が必要と認める事項": null,
        "受入対象者": null,
        "備考": ""
      }
    },
    {
      "type": "Feature",
      "geometry": {
        "type": "Point",
        "coordinates": [
          139.623243,
          35.482107
        ]
      },
      "properties": {
        "NO": 28158,
        "共通ID": "E1410000258111",
        "都道府県名及び市町村名": "神奈川県横浜市",
        "施設・場所名": "横浜市立斎藤分小学校",
        "住所": "神奈川県横浜市神奈川区斎藤分町34-1",
        "指定緊急避難場所との住所同一": "1",
        "その他市町村長が必要と認める事項": null,
        "受入対象者": null,
        "備考": ""
      }
    },
    {
      "type": "Feature",
      "geometry": {
        "type": "Point",
        "coordinates": [
          139.615056,
          35.480246
        ]
      },
      "properties": {
        "NO": 28159,
        "共通ID": "E1410000259111",
        "都道府県名及び市町村名": "神奈川県横浜市",
        "施設・場所名": "横浜市立松本中学校",
        "住所": "神奈川県横浜市神奈川区三ツ沢下町30-1",
        "指定緊急避難場所との住所同一": "1",
        "その他市町村長が必要と認める事項": null,
        "受入対象者": null,
        "備考": ""
      }
    },
    {
      "type": "Feature",
      "geometry": {
        "type": "Point",
        "coordinates": [
          139.608285,
          35.47605
        ]
      },
      "properties": {
        "NO": 28160,
        "共通ID": "E1410000260111",
        "都道府県名及び市町村名": "神奈川県横浜市",
        "施設・場所名": "横浜市立三ツ沢小学校",
        "住所": "神奈川県横浜市神奈川区三ツ沢中町4-17",
        "指定緊急避難場所との住所同一": "1",
        "その他市町村長が必要と認める事項": null,
        "受入対象者": null,
        "備考": ""
      }
    },
    {
      "type": "Feature",
      "geometry": {
        "type": "Point",
        "coordinates": [
          139.653348,
          35.488458
        ]
      },
      "properties": {
        "NO": 28161,
        "共通ID": "E1410000261111",
        "都道府県名及び市町村名": "神奈川県横浜市",
        "施設・場所名": "横浜市立子安小学校",
        "住所": "神奈川県横浜市神奈川区新子安1-36-1",
        "指定緊急避難場所との住所同一": "1",
        "その他市町村長が必要と認める事項": null,
        "受入対象者": null,
        "備考": ""
      }
    },
    {
      "type": "Feature",
      "geometry": {
        "type": "Point",
        "coordinates": [
          139.612187,
          35.485066
        ]
      },
      "properties": {
        "NO": 28162,
        "共通ID": "E1410000262111",
        "都道府県名及び市町村名": "神奈川県横浜市",
        "施設・場所名": "横浜市立南神大寺小学校",
        "住所": "神奈川県横浜市神奈川区神大寺2-9-16",
        "指定緊急避難場所との住所同一": "1",
        "その他市町村長が必要と認める事項": null,
        "受入対象者": null,
        "備考": ""
      }
    },
    {
      "type": "Feature",
      "geometry": {
        "type": "Point",
        "coordinates": [
          139.602862,
          35.482261
        ]
      },
      "properties": {
        "NO": 28163,
        "共通ID": "E1410000263111",
        "都道府県名及び市町村名": "神奈川県横浜市",
        "施設・場所名": "横浜市立中丸小学校",
        "住所": "神奈川県横浜市神奈川区神大寺3-17-1",
        "指定緊急避難場所との住所同一": "1",
        "その他市町村長が必要と認める事項": null,
        "受入対象者": null,
        "備考": ""
      }
    },
    {
      "type": "Feature",
      "geometry": {
        "type": "Point",
        "coordinates": [
          139.608912,
          35.487901
        ]
      },
      "properties": {
        "NO": 28164,
        "共通ID": "E1410000264111",
        "都道府県名及び市町村名": "神奈川県横浜市",
        "施設・場所名": "横浜市立神大寺小学校",
        "住所": "神奈川県横浜市神奈川区神大寺3-34-1",
        "指定緊急避難場所との住所同一": "1",
        "その他市町村長が必要と認める事項": null,
        "受入対象者": null,
        "備考": ""
      }
    },
    {
      "type": "Feature",
      "geometry": {
        "type": "Point",
        "coordinates": [
          139.585938,
          35.496262
        ]
      },
      "properties": {
        "NO": 28165,
        "共通ID": "E1410000610111",
        "都道府県名及び市町村名": "神奈川県横浜市",
        "施設・場所名": "横浜市立菅田の丘小学校",
        "住所": "神奈川県横浜市神奈川区菅田町1393",
        "指定緊急避難場所との住所同一": "1",
        "その他市町村長が必要と認める事項": "",
        "受入対象者": "",
        "備考": ""
      }
    },
    {
      "type": "Feature",
      "geometry": {
        "type": "Point",
        "coordinates": [
          139.57805,
          35.495914
        ]
      },
      "properties": {
        "NO": 28166,
        "共通ID": "E1410000270111",
        "都道府県名及び市町村名": "神奈川県横浜市",
        "施設・場所名": "横浜市立旧菅田小学校",
        "住所": "神奈川県横浜市神奈川区菅田町674",
        "指定緊急避難場所との住所同一": "1",
        "その他市町村長が必要と認める事項": "",
        "受入対象者": "",
        "備考": ""
      }
    },
    {
      "type": "Feature",
      "geometry": {
        "type": "Point",
        "coordinates": [
          139.646851,
          35.499019
        ]
      },
      "properties": {
        "NO": 28167,
        "共通ID": "E1410000271111",
        "都道府県名及び市町村名": "神奈川県横浜市",
        "施設・場所名": "横浜市立西寺尾第二小学校",
        "住所": "神奈川県横浜市神奈川区西寺尾2-15-1",
        "指定緊急避難場所との住所同一": "1",
        "その他市町村長が必要と認める事項": null,
        "受入対象者": null,
        "備考": ""
      }
    },
    {
      "type": "Feature",
      "geometry": {
        "type": "Point",
        "coordinates": [
          139.645607,
          35.497062
        ]
      },
      "properties": {
        "NO": 28168,
        "共通ID": "E1410000272111",
        "都道府県名及び市町村名": "神奈川県横浜市",
        "施設・場所名": "横浜市立西寺尾小学校",
        "住所": "神奈川県横浜市神奈川区西寺尾2-5-1",
        "指定緊急避難場所との住所同一": "1",
        "その他市町村長が必要と認める事項": null,
        "受入対象者": null,
        "備考": ""
      }
    },
    {
      "type": "Feature",
      "geometry": {
        "type": "Point",
        "coordinates": [
          139.651055,
          35.495911
        ]
      },
      "properties": {
        "NO": 28169,
        "共通ID": "E1410000273111",
        "都道府県名及び市町村名": "神奈川県横浜市",
        "施設・場所名": "横浜市立錦台中学校",
        "住所": "神奈川県横浜市神奈川区西寺尾3-10-1",
        "指定緊急避難場所との住所同一": "1",
        "その他市町村長が必要と認める事項": null,
        "受入対象者": null,
        "備考": ""
      }
    },
    {
      "type": "Feature",
      "geometry": {
        "type": "Point",
        "coordinates": [
          139.638159,
          35.491992
        ]
      },
      "properties": {
        "NO": 28170,
        "共通ID": "E1410000274111",
        "都道府県名及び市町村名": "神奈川県横浜市",
        "施設・場所名": "横浜市立神奈川中学校",
        "住所": "神奈川県横浜市神奈川区西大口141",
        "指定緊急避難場所との住所同一": "1",
        "その他市町村長が必要と認める事項": null,
        "受入対象者": null,
        "備考": ""
      }
    },