{
  "type": "FeatureCollection",
  "name": "142069",
  "features": [
    {
      "type": "Feature",
      "geometry": {
        "type": "Point",
        "coordinates": [
          139.232314,
          35.292626
        ]
      },
      "properties": {
        "NO": 28991,
        "共通ID": "E1420600001111",
        "都道府県名及び市町村名": "神奈川県小田原市",
        "施設・場所名": "橘中学校",
        "住所": "神奈川県小田原市羽根尾410",
        "指定緊急避難場所との住所同一": "1",
        "その他市町村長が必要と認める事項": null,
        "受入対象者": null,
        "備考": ""
      }
    },
    {
      "type": "Feature",
      "geometry": {
        "type": "Point",
        "coordinates": [
          139.176382,
          35.284235
        ]
      },
      "properties": {
        "NO": 28992,
        "共通ID": "E1420600002111",
        "都道府県名及び市町村名": "神奈川県小田原市",
        "施設・場所名": "鴨宮中学校",
        "住所": "神奈川県小田原市鴨宮547",
        "指定緊急避難場所との住所同一": "1",
        "その他市町村長が必要と認める事項": null,
        "受入対象者": null,
        "備考": ""
      }
    },
    {
      "type": "Feature",
      "geometry": {
        "type": "Point",
        "coordinates": [
          139.139046,
          35.307736
        ]
      },
      "properties": {
        "NO": 28993,
        "共通ID": "E1420600004111",
        "都道府県名及び市町村名": "神奈川県小田原市",
        "施設・場所名": "城北中学校",
        "住所": "神奈川県小田原市栢山2888",
        "指定緊急避難場所との住所同一": "1",
        "その他市町村長が必要と認める事項": null,
        "受入対象者": null,
        "備考": ""
      }
    },
    {
      "type": "Feature",
      "geometry": {
        "type": "Point",
        "coordinates": [
          139.136515,
          35.272772
        ]
      },
      "properties": {
        "NO": 28994,
        "共通ID": "E1420600005111",
        "都道府県名及び市町村名": "神奈川県小田原市",
        "施設・場所名": "久野小学校",
        "住所": "神奈川県小田原市久野1561",
        "指定緊急避難場所との住所同一": "1",
        "その他市町村長が必要と認める事項": null,
        "受入対象者": null,
        "備考": ""
      }
    },
    {
      "type": "Feature",
      "geometry": {
        "type": "Point",
        "coordinates": [
          139.132409,
          35.281088
        ]
      },
      "properties": {
        "NO": 28995,
        "共通ID": "E1420600007111",
        "都道府県名及び市町村名": "神奈川県小田原市",
        "施設・場所名": "県立おだわら諏訪の原公園",
        "住所": "神奈川県小田原市久野3821-1",
        "指定緊急避難場所との住所同一": "",
        "その他市町村長が必要と認める事項": null,
        "受入対象者": null,
        "備考": ""
      }
    },
    {
      "type": "Feature",
      "geometry": {
        "type": "Point",
        "coordinates": [
          139.199656,
          35.284003
        ]
      },
      "properties": {
        "NO": 28996,
        "共通ID": "E1420600008111",
        "都道府県名及び市町村名": "神奈川県小田原市",
        "施設・場所名": "国府津中学校",
        "住所": "神奈川県小田原市国府津2372",
        "指定緊急避難場所との住所同一": "1",
        "その他市町村長が必要と認める事項": null,
        "受入対象者": null,
        "備考": ""
      }
    },
    {
      "type": "Feature",
      "geometry": {
        "type": "Point",
        "coordinates": [
          139.202337,
          35.282407
        ]
      },
      "properties": {
        "NO": 28997,
        "共通ID": "E1420600009111",
        "都道府県名及び市町村名": "神奈川県小田原市",
        "施設・場所名": "国府津小学校",
        "住所": "神奈川県小田原市国府津2485",
        "指定緊急避難場所との住所同一": "1",
        "その他市町村長が必要と認める事項": null,
        "受入対象者": null,
        "備考": ""
      }
    },
    {
      "type": "Feature",
      "geometry": {
        "type": "Point",
        "coordinates": [
          139.139439,
          35.206101
        ]
      },
      "properties": {
        "NO": 28998,
        "共通ID": "E1420600010111",
        "都道府県名及び市町村名": "神奈川県小田原市",
        "施設・場所名": "星槎小田原キャンパス（旧片浦中学校）",
        "住所": "神奈川県小田原市根府川41",
        "指定緊急避難場所との住所同一": "1",
        "その他市町村長が必要と認める事項": null,
        "受入対象者": null,
        "備考": ""
      }
    },
    {
      "type": "Feature",
      "geometry": {
        "type": "Point",
        "coordinates": [
          139.186906,
          35.264274
        ]
      },
      "properties": {
        "NO": 28999,
        "共通ID": "E1420600013111",
        "都道府県名及び市町村名": "神奈川県小田原市",
        "施設・場所名": "酒匂中学校",
        "住所": "神奈川県小田原市酒匂3-4-1",
        "指定緊急避難場所との住所同一": "1",
        "その他市町村長が必要と認める事項": null,
        "受入対象者": null,
        "備考": ""
      }
    },
    {
      "type": "Feature",
      "geometry": {
        "type": "Point",
        "coordinates": [
          139.194545,
          35.270414
        ]
      },
      "properties": {
        "NO": 29000,
        "共通ID": "E1420600014111",
        "都道府県名及び市町村名": "神奈川県小田原市",
        "施設・場所名": "酒匂小学校",
        "住所": "神奈川県小田原市酒匂5-15-3",
        "指定緊急避難場所との住所同一": "1",
        "その他市町村長が必要と認める事項": null,
        "受入対象者": null,
        "備考": ""
      }
    },
    {
      "type": "Feature",
      "geometry": {
        "type": "Point",
        "coordinates": [
          139.187538,
          35.278527
        ]
      },
      "properties": {
        "NO": 29001,
        "共通ID": "E1420600015111",
        "都道府県名及び市町村名": "神奈川県小田原市",
        "施設・場所名": "下府中小学校",
        "住所": "神奈川県小田原市酒匂930",
        "指定緊急避難場所との住所同一": "1",
        "その他市町村長が必要と認める事項": null,
        "受入対象者": null,
        "備考": ""
      }
    },
    {
      "type": "Feature",
      "geometry": {
        "type": "Point",
        "coordinates": [
          139.166981,
          35.261056
        ]
      },
      "properties": {
        "NO": 29002,
        "共通ID": "E1420600016111",
        "都道府県名及び市町村名": "神奈川県小田原市",
        "施設・場所名": "町田小学校",
        "住所": "神奈川県小田原市寿町2-7-25",
        "指定緊急避難場所との住所同一": "1",
        "その他市町村長が必要と認める事項": null,
        "受入対象者": null,
        "備考": ""
      }
    },
    {
      "type": "Feature",
      "geometry": {
        "type": "Point",
        "coordinates": [
          139.225089,
          35.301856
        ]
      },
      "properties": {
        "NO": 29003,
        "共通ID": "E1420600017111",
        "都道府県名及び市町村名": "神奈川県小田原市",
        "施設・場所名": "下中小学校",
        "住所": "神奈川県小田原市小船178",
        "指定緊急避難場所との住所同一": "1",
        "その他市町村長が必要と認める事項": null,
        "受入対象者": null,
        "備考": ""
      }
    },
    {
      "type": "Feature",
      "geometry": {
        "type": "Point",
        "coordinates": [
          139.140181,
          35.301322
        ]
      },
      "properties": {
        "NO": 29004,
        "共通ID": "E1420600018111",
        "都道府県名及び市町村名": "神奈川県小田原市",
        "施設・場所名": "報徳小学校",
        "住所": "神奈川県小田原市小台405",
        "指定緊急避難場所との住所同一": "1",
        "その他市町村長が必要と認める事項": null,
        "受入対象者": null,
        "備考": ""
      }
    },
    {
      "type": "Feature",
      "geometry": {
        "type": "Point",
        "coordinates": [
          139.151697,
          35.255211
        ]
      },
      "properties": {
        "NO": 29005,
        "共通ID": "E1420600020111",
        "都道府県名及び市町村名": "神奈川県小田原市",
        "施設・場所名": "城山中学校",
        "住所": "神奈川県小田原市城山3-4-1",
        "指定緊急避難場所との住所同一": "1",
        "その他市町村長が必要と認める事項": null,
        "受入対象者": null,
        "備考": ""
      }
    },
    {
      "type": "Feature",
      "geometry": {
        "type": "Point",
        "coordinates": [
          139.165625,
          35.286224
        ]
      },
      "properties": {
        "NO": 29006,
        "共通ID": "E1420600021111",
        "都道府県名及び市町村名": "神奈川県小田原市",
        "施設・場所名": "豊川小学校",
        "住所": "神奈川県小田原市成田530-1",
        "指定緊急避難場所との住所同一": "1",
        "その他市町村長が必要と認める事項": null,
        "受入対象者": null,
        "備考": ""
      }
    },
    {
      "type": "Feature",
      "geometry": {
        "type": "Point",
        "coordinates": [
          139.178179,
          35.29544
        ]
      },
      "properties": {
        "NO": 29007,
        "共通ID": "E1420600022111",
        "都道府県名及び市町村名": "神奈川県小田原市",
        "施設・場所名": "千代小学校",
        "住所": "神奈川県小田原市千代687",
        "指定緊急避難場所との住所同一": "1",
        "その他市町村長が必要と認める事項": null,
        "受入対象者": null,
        "備考": ""
      }
    },
    {
      "type": "Feature",
      "geometry": {
        "type": "Point",
        "coordinates": [
          139.176035,
          35.294976
        ]
      },
      "properties": {
        "NO": 29008,
        "共通ID": "E1420600023111",
        "都道府県名及び市町村名": "神奈川県小田原市",
        "施設・場所名": "千代中学校",
        "住所": "神奈川県小田原市千代800",
        "指定緊急避難場所との住所同一": "1",
        "その他市町村長が必要と認める事項": null,
        "受入対象者": null,
        "備考": ""
      }
    },
    {
      "type": "Feature",
      "geometry": {
        "type": "Point",
        "coordinates": [
          139.157127,
          35.264797
        ]
      },
      "properties": {
        "NO": 29009,
        "共通ID": "E1420600024111",
        "都道府県名及び市町村名": "神奈川県小田原市",
        "施設・場所名": "芦子小学校",
        "住所": "神奈川県小田原市扇町1-37-7",
        "指定緊急避難場所との住所同一": "1",
        "その他市町村長が必要と認める事項": null,
        "受入対象者": null,
        "備考": ""
      }
    },
    {
      "type": "Feature",
      "geometry": {
        "type": "Point",
        "coordinates": [
          139.156627,
          35.26898
        ]
      },
      "properties": {
        "NO": 29010,
        "共通ID": "E1420600025111",
        "都道府県名及び市町村名": "神奈川県小田原市",
        "施設・場所名": "足柄小学校",
        "住所": "神奈川県小田原市扇町3-21-7",
        "指定緊急避難場所との住所同一": "1",
        "その他市町村長が必要と認める事項": null,
        "受入対象者": null,
        "備考": ""
      }
    },
    {
      "type": "Feature",
      "geometry": {
        "type": "Point",
        "coordinates": [
          139.156362,
          35.273314
        ]
      },
      "properties": {
        "NO": 29011,
        "共通ID": "E1420600026111",
        "都道府県名及び市町村名": "神奈川県小田原市",
        "施設・場所名": "白山中学校",
        "住所": "神奈川県小田原市扇町5-7-17",
        "指定緊急避難場所との住所同一": "1",
        "その他市町村長が必要と認める事項": null,
        "受入対象者": null,
        "備考": ""
      }
    },
    {
      "type": "Feature",
      "geometry": {
        "type": "Point",
        "coordinates": [
          139.22666,
          35.285333
        ]
      },
      "properties": {
        "NO": 29012,
        "共通ID": "E1420600027111",
        "都道府県名及び市町村名": "神奈川県小田原市",
        "施設・場所名": "前羽小学校",
        "住所": "神奈川県小田原市前川858",
        "指定緊急避難場所との住所同一": "1",
        "その他市町村長が必要と認める事項": null,
        "受入対象者": null,
        "備考": ""
      }
    },
    {
      "type": "Feature",
      "geometry": {
        "type": "Point",
        "coordinates": [
          139.190588,
          35.299835
        ]
      },
      "properties": {
        "NO": 29013,
        "共通ID": "E1420600028111",
        "都道府県名及び市町村名": "神奈川県小田原市",
        "施設・場所名": "下曽我小学校",
        "住所": "神奈川県小田原市曽我原333",
        "指定緊急避難場所との住所同一": "1",
        "その他市町村長が必要と認める事項": null,
        "受入対象者": null,
        "備考": ""
      }
    },
    {
      "type": "Feature",
      "geometry": {
        "type": "Point",
        "coordinates": [
          139.166349,
          35.316994
        ]
      },
      "properties": {
        "NO": 29014,
        "共通ID": "E1420600029111",
        "都道府県名及び市町村名": "神奈川県小田原市",
        "施設・場所名": "曽我小学校",
        "住所": "神奈川県小田原市曽我大沢69",
        "指定緊急避難場所との住所同一": "1",
        "その他市町村長が必要と認める事項": null,
        "受入対象者": null,
        "備考": ""
      }
    },
    {
      "type": "Feature",
      "geometry": {
        "type": "Point",
        "coordinates": [
          139.139426,
          35.310493
        ]
      },
      "properties": {
        "NO": 29015,
        "共通ID": "E1420600031111",
        "都道府県名及び市町村名": "神奈川県小田原市",
        "施設・場所名": "桜井小学校",
        "住所": "神奈川県小田原市曽比1943",
        "指定緊急避難場所との住所同一": "1",
        "その他市町村長が必要と認める事項": null,
        "受入対象者": null,
        "備考": ""
      }
    },
    {
      "type": "Feature",
      "geometry": {
        "type": "Point",
        "coordinates": [
          139.143812,
          35.243411
        ]
      },
      "properties": {
        "NO": 29016,
        "共通ID": "E1420600032111",
        "都道府県名及び市町村名": "神奈川県小田原市",
        "施設・場所名": "早川小学校",
        "住所": "神奈川県小田原市早川2-14-1",
        "指定緊急避難場所との住所同一": "1",
        "その他市町村長が必要と認める事項": null,
        "受入対象者": null,
        "備考": ""
      }
    },
    {
      "type": "Feature",
      "geometry": {
        "type": "Point",
        "coordinates": [
          139.154412,
          35.291516
        ]
      },
      "properties": {
        "NO": 29017,
        "共通ID": "E1420600034111",
        "都道府県名及び市町村名": "神奈川県小田原市",
        "施設・場所名": "東富水小学校",
        "住所": "神奈川県小田原市中曽根359-1",
        "指定緊急避難場所との住所同一": "",
        "その他市町村長が必要と認める事項": null,
        "受入対象者": null,
        "備考": ""
      }
    },
    {
      "type": "Feature",
      "geometry": {
        "type": "Point",
        "coordinates": [
          139.175925,
          35.257661
        ]
      },
      "properties": {
        "NO": 29018,
        "共通ID": "E1420600035111",
        "都道府県名及び市町村名": "神奈川県小田原市",
        "施設・場所名": "山王小学校",
        "住所": "神奈川県小田原市東町2-9-1",
        "指定緊急避難場所との住所同一": "1",
        "その他市町村長が必要と認める事項": null,
        "受入対象者": null,
        "備考": ""
      }
    },
    {
      "type": "Feature",
      "geometry": {
        "type": "Point",
        "coordinates": [
          139.180593,
          35.260336
        ]
      },
      "properties": {
        "NO": 29019,
        "共通ID": "E1420600036111",
        "都道府県名及び市町村名": "神奈川県小田原市",
        "施設・場所名": "白鴎中学校",
        "住所": "神奈川県小田原市東町4-13-1",
        "指定緊急避難場所との住所同一": "1",
        "その他市町村長が必要と認める事項": null,
        "受入対象者": null,
        "備考": ""
      }
    },
    {
      "type": "Feature",
      "geometry": {
        "type": "Point",
        "coordinates": [
          139.182429,
          35.270732
        ]
      },
      "properties": {
        "NO": 29020,
        "共通ID": "E1420600038111",
        "都道府県名及び市町村名": "神奈川県小田原市",
        "施設・場所名": "富士見小学校",
        "住所": "神奈川県小田原市南鴨宮3-25-1",
        "指定緊急避難場所との住所同一": "1",
        "その他市町村長が必要と認める事項": null,
        "受入対象者": null,
        "備考": ""
      }
    },
    {
      "type": "Feature",
      "geometry": {
        "type": "Point",
        "coordinates": [
          139.141551,
          35.25244
        ]
      },
      "properties": {
        "NO": 29021,
        "共通ID": "E1420600039111",
        "都道府県名及び市町村名": "神奈川県小田原市",
        "施設・場所名": "城南中学校",
        "住所": "神奈川県小田原市板橋875-1",
        "指定緊急避難場所との住所同一": "1",
        "その他市町村長が必要と認める事項": null,
        "受入対象者": null,
        "備考": ""
      }
    },
    {
      "type": "Feature",
      "geometry": {
        "type": "Point",
        "coordinates": [
          139.13655,
          35.250512
        ]
      },
      "properties": {
        "NO": 29022,
        "共通ID": "E1420600040111",
        "都道府県名及び市町村名": "神奈川県小田原市",
        "施設・場所名": "大窪小学校",
        "住所": "神奈川県小田原市板橋985",
        "指定緊急避難場所との住所同一": "1",
        "その他市町村長が必要と認める事項": null,
        "受入対象者": null,
        "備考": ""
      }
    },
    {
      "type": "Feature",
      "geometry": {
        "type": "Point",
        "coordinates": [
          139.147163,
          35.287453
        ]
      },
      "properties": {
        "NO": 29023,
        "共通ID": "E1420600041111",
        "都道府県名及び市町村名": "神奈川県小田原市",
        "施設・場所名": "泉中学校",
        "住所": "神奈川県小田原市飯田岡22",
        "指定緊急避難場所との住所同一": "1",
        "その他市町村長が必要と認める事項": null,
        "受入対象者": null,
        "備考": ""
      }
    },
    {
      "type": "Feature",
      "geometry": {
        "type": "Point",
        "coordinates": [
          139.141166,
          35.288785
        ]
      },
      "properties": {
        "NO": 29024,
        "共通ID": "E1420600043111",
        "都道府県名及び市町村名": "神奈川県小田原市",
        "施設・場所名": "富水小学校",
        "住所": "神奈川県小田原市飯田岡481",
        "指定緊急避難場所との住所同一": "1",
        "その他市町村長が必要と認める事項": null,
        "受入対象者": null,
        "備考": ""
      }
    },
    {
      "type": "Feature",
      "geometry": {
        "type": "Point",
        "coordinates": [
          139.16464,
          35.255501
        ]
      },
      "properties": {
        "NO": 29025,
        "共通ID": "E1420600044111",
        "都道府県名及び市町村名": "神奈川県小田原市",
        "施設・場所名": "新玉小学校",
        "住所": "神奈川県小田原市浜町2-1-20",
        "指定緊急避難場所との住所同一": "1",
        "その他市町村長が必要と認める事項": null,
        "受入対象者": null,
        "備考": ""
      }
    },
    {
      "type": "Feature",
      "geometry": {
        "type": "Point",
        "coordinates": [
          139.137109,
          35.203666
        ]
      },
      "properties": {
        "NO": 29026,
        "共通ID": "E1420600045111",
        "都道府県名及び市町村名": "神奈川県小田原市",
        "施設・場所名": "片浦小学校",
        "住所": "神奈川県小田原市片浦534-1",
        "指定緊急避難場所との住所同一": "",
        "その他市町村長が必要と認める事項": null,
        "受入対象者": null,
        "備考": ""
      }
    },
    {
      "type": "Feature",
      "geometry": {
        "type": "Point",
        "coordinates": [
          139.156072,
          35.248467
        ]
      },
      "properties": {
        "NO": 29027,
        "共通ID": "E1420600046111",
        "都道府県名及び市町村名": "神奈川県小田原市",
        "施設・場所名": "三の丸小学校",
        "住所": "神奈川県小田原市本町1-12-49",
        "指定緊急避難場所との住所同一": "1",
        "その他市町村長が必要と認める事項": null,
        "受入対象者": null,
        "備考": ""
      }
    },
    {
      "type": "Feature",
      "geometry": {
        "type": "Point",
        "coordinates": [
          139.176648,
          35.287087
        ]
      },
      "properties": {
        "NO": 29028,
        "共通ID": "E1420600047111",
        "都道府県名及び市町村名": "神奈川県小田原市",
        "施設・場所名": "矢作小学校",
        "住所": "神奈川県小田原市矢作227",
        "指定緊急避難場所との住所同一": "1",
        "その他市町村長が必要と認める事項": null,
        "受入対象者": null,
        "備考": ""
      }
    }
  ]
}