{
  "type": "FeatureCollection",
  "name": "142174",
  "features": [
    {
      "type": "Feature",
      "geometry": {
        "type": "Point",
        "coordinates": [
          139.072314,
          35.331106
        ]
      },
      "properties": {
        "NO": 29316,
        "共通ID": "E1421700001111",
        "都道府県名及び市町村名": "神奈川県南足柄市",
        "施設・場所名": "北幼稚園",
        "住所": "神奈川県南足柄市苅野675",
        "指定緊急避難場所との住所同一": "",
        "その他市町村長が必要と認める事項": null,
        "受入対象者": null,
        "備考": ""
      }
    },
    {
      "type": "Feature",
      "geometry": {
        "type": "Point",
        "coordinates": [
          139.099153,
          35.322403
        ]
      },
      "properties": {
        "NO": 29317,
        "共通ID": "E1421700002111",
        "都道府県名及び市町村名": "神奈川県南足柄市",
        "施設・場所名": "南足柄小学校",
        "住所": "神奈川県南足柄市関本400",
        "指定緊急避難場所との住所同一": "1",
        "その他市町村長が必要と認める事項": null,
        "受入対象者": null,
        "備考": ""
      }
    },
    {
      "type": "Feature",
      "geometry": {
        "type": "Point",
        "coordinates": [
          139.098367,
          35.321584
        ]
      },
      "properties": {
        "NO": 29318,
        "共通ID": "E1421700003111",
        "都道府県名及び市町村名": "神奈川県南足柄市",
        "施設・場所名": "南足柄中学校",
        "住所": "神奈川県南足柄市関本433",
        "指定緊急避難場所との住所同一": "1",
        "その他市町村長が必要と認める事項": null,
        "受入対象者": null,
        "備考": ""
      }
    },
    {
      "type": "Feature",
      "geometry": {
        "type": "Point",
        "coordinates": [
          139.12924,
          35.296097
        ]
      },
      "properties": {
        "NO": 29319,
        "共通ID": "E1421700004111",
        "都道府県名及び市町村名": "神奈川県南足柄市",
        "施設・場所名": "岩原小学校",
        "住所": "神奈川県南足柄市岩原310",
        "指定緊急避難場所との住所同一": "1",
        "その他市町村長が必要と認める事項": null,
        "受入対象者": null,
        "備考": ""
      }
    },
    {
      "type": "Feature",
      "geometry": {
        "type": "Point",
        "coordinates": [
          139.112411,
          35.321116
        ]
      },
      "properties": {
        "NO": 29320,
        "共通ID": "E1421700005111",
        "都道府県名及び市町村名": "神奈川県南足柄市",
        "施設・場所名": "向田小学校",
        "住所": "神奈川県南足柄市向田555",
        "指定緊急避難場所との住所同一": "",
        "その他市町村長が必要と認める事項": null,
        "受入対象者": null,
        "備考": ""
      }
    },
    {
      "type": "Feature",
      "geometry": {
        "type": "Point",
        "coordinates": [
          139.106842,
          35.334781
        ]
      },
      "properties": {
        "NO": 29321,
        "共通ID": "E1421700006111",
        "都道府県名及び市町村名": "神奈川県南足柄市",
        "施設・場所名": "福沢小学校",
        "住所": "神奈川県南足柄市千津島632",
        "指定緊急避難場所との住所同一": "",
        "その他市町村長が必要と認める事項": null,
        "受入対象者": null,
        "備考": ""
      }
    },
    {
      "type": "Feature",
      "geometry": {
        "type": "Point",
        "coordinates": [
          139.12667,
          35.304286
        ]
      },
      "properties": {
        "NO": 29322,
        "共通ID": "E1421700007111",
        "都道府県名及び市町村名": "神奈川県南足柄市",
        "施設・場所名": "岡本中学校",
        "住所": "神奈川県南足柄市塚原1660",
        "指定緊急避難場所との住所同一": "",
        "その他市町村長が必要と認める事項": null,
        "受入対象者": null,
        "備考": ""
      }
    },
    {
      "type": "Feature",
      "geometry": {
        "type": "Point",
        "coordinates": [
          139.124831,
          35.305997
        ]
      },
      "properties": {
        "NO": 29323,
        "共通ID": "E1421700008111",
        "都道府県名及び市町村名": "神奈川県南足柄市",
        "施設・場所名": "岡本小学校",
        "住所": "神奈川県南足柄市塚原1769",
        "指定緊急避難場所との住所同一": "1",
        "その他市町村長が必要と認める事項": null,
        "受入対象者": null,
        "備考": ""
      }
    },
    {
      "type": "Feature",
      "geometry": {
        "type": "Point",
        "coordinates": [
          139.122306,
          35.303395
        ]
      },
      "properties": {
        "NO": 29324,
        "共通ID": "E1421700009111",
        "都道府県名及び市町村名": "神奈川県南足柄市",
        "施設・場所名": "岡本幼稚園・駒千代青少年広場",
        "住所": "神奈川県南足柄市塚原2212",
        "指定緊急避難場所との住所同一": "",
        "その他市町村長が必要と認める事項": null,
        "受入対象者": null,
        "備考": ""
      }
    },
    {
      "type": "Feature",
      "geometry": {
        "type": "Point",
        "coordinates": [
          139.121063,
          35.299146
        ]
      },
      "properties": {
        "NO": 29325,
        "共通ID": "E1421700010111",
        "都道府県名及び市町村名": "神奈川県南足柄市",
        "施設・場所名": "岡本コミュニティセンター",
        "住所": "神奈川県南足柄市塚原2832",
        "指定緊急避難場所との住所同一": "",
        "その他市町村長が必要と認める事項": null,
        "受入対象者": null,
        "備考": ""
      }
    },
    {
      "type": "Feature",
      "geometry": {
        "type": "Point",
        "coordinates": [
          139.103819,
          35.328616
        ]
      },
      "properties": {
        "NO": 29326,
        "共通ID": "E1421700011111",
        "都道府県名及び市町村名": "神奈川県南足柄市",
        "施設・場所名": "県立足柄高校",
        "住所": "神奈川県南足柄市怒田860",
        "指定緊急避難場所との住所同一": "",
        "その他市町村長が必要と認める事項": null,
        "受入対象者": null,
        "備考": ""
      }
    },
    {
      "type": "Feature",
      "geometry": {
        "type": "Point",
        "coordinates": [
          139.074159,
          35.344724
        ]
      },
      "properties": {
        "NO": 29327,
        "共通ID": "E1421700012111",
        "都道府県名及び市町村名": "神奈川県南足柄市",
        "施設・場所名": "北足柄小学校",
        "住所": "神奈川県南足柄市内山1051",
        "指定緊急避難場所との住所同一": "1",
        "その他市町村長が必要と認める事項": null,
        "受入対象者": null,
        "備考": ""
      }
    },
    {
      "type": "Feature",
      "geometry": {
        "type": "Point",
        "coordinates": [
          139.12621,
          35.315828
        ]
      },
      "properties": {
        "NO": 29328,
        "共通ID": "E1421700013111",
        "都道府県名及び市町村名": "神奈川県南足柄市",
        "施設・場所名": "体育センター",
        "住所": "神奈川県南足柄市和田河原1030",
        "指定緊急避難場所との住所同一": "1",
        "その他市町村長が必要と認める事項": null,
        "受入対象者": null,
        "備考": ""
      }
    }
  ]
}