{
  "type": "FeatureCollection",
  "name": "151009",
  "features": [
    {
      "type": "Feature",
      "geometry": {
        "type": "Point",
        "coordinates": [
          139.144323,
          37.85827
        ]
      },
      "properties": {
        "NO": 29492,
        "共通ID": "E1510000002111",
        "都道府県名及び市町村名": "新潟県新潟市",
        "施設・場所名": "横越総合体育館",
        "住所": "新潟県新潟市江南区いぶき野1-1-1",
        "指定緊急避難場所との住所同一": "1",
        "その他市町村長が必要と認める事項": null,
        "受入対象者": null,
        "備考": ""
      }
    },
    {
      "type": "Feature",
      "geometry": {
        "type": "Point",
        "coordinates": [
          139.136589,
          37.852818
        ]
      },
      "properties": {
        "NO": 29493,
        "共通ID": "E1510000010111",
        "都道府県名及び市町村名": "新潟県新潟市",
        "施設・場所名": "横越地区勤労者総合福祉センター",
        "住所": "新潟県新潟市江南区横越川根町2-20-1",
        "指定緊急避難場所との住所同一": "1",
        "その他市町村長が必要と認める事項": null,
        "受入対象者": null,
        "備考": ""
      }
    },
    {
      "type": "Feature",
      "geometry": {
        "type": "Point",
        "coordinates": [
          139.149183,
          37.854928
        ]
      },
      "properties": {
        "NO": 29494,
        "共通ID": "E1510000015111",
        "都道府県名及び市町村名": "新潟県新潟市",
        "施設・場所名": "横越中央保育園",
        "住所": "新潟県新潟市江南区横越中央3-2-8",
        "指定緊急避難場所との住所同一": "1",
        "その他市町村長が必要と認める事項": null,
        "受入対象者": null,
        "備考": ""
      }
    },
    {
      "type": "Feature",
      "geometry": {
        "type": "Point",
        "coordinates": [
          139.151251,
          37.854678
        ]
      },
      "properties": {
        "NO": 29495,
        "共通ID": "E1510000016111",
        "都道府県名及び市町村名": "新潟県新潟市",
        "施設・場所名": "横越中学校",
        "住所": "新潟県新潟市江南区横越中央3-4-1",
        "指定緊急避難場所との住所同一": "1",
        "その他市町村長が必要と認める事項": null,
        "受入対象者": null,
        "備考": ""
      }
    },
    {
      "type": "Feature",
      "geometry": {
        "type": "Point",
        "coordinates": [
          139.14854,
          37.851894
        ]
      },
      "properties": {
        "NO": 29496,
        "共通ID": "E1510000017111",
        "都道府県名及び市町村名": "新潟県新潟市",
        "施設・場所名": "横越小学校",
        "住所": "新潟県新潟市江南区横越中央6-3-1",
        "指定緊急避難場所との住所同一": "1",
        "その他市町村長が必要と認める事項": null,
        "受入対象者": null,
        "備考": ""
      }
    },
    {
      "type": "Feature",
      "geometry": {
        "type": "Point",
        "coordinates": [
          139.097364,
          37.856049
        ]
      },
      "properties": {
        "NO": 29497,
        "共通ID": "E1510000020111",
        "都道府県名及び市町村名": "新潟県新潟市",
        "施設・場所名": "亀田総合体育館",
        "住所": "新潟県新潟市江南区茅野山3-1-13",
        "指定緊急避難場所との住所同一": "1",
        "その他市町村長が必要と認める事項": null,
        "受入対象者": null,
        "備考": ""
      }
    },
    {
      "type": "Feature",
      "geometry": {
        "type": "Point",
        "coordinates": [
          139.129816,
          37.879182
        ]
      },
      "properties": {
        "NO": 29498,
        "共通ID": "E1510000021111",
        "都道府県名及び市町村名": "新潟県新潟市",
        "施設・場所名": "丸山小学校",
        "住所": "新潟県新潟市江南区丸山300",
        "指定緊急避難場所との住所同一": "1",
        "その他市町村長が必要と認める事項": null,
        "受入対象者": null,
        "備考": ""
      }
    },
    {
      "type": "Feature",
      "geometry": {
        "type": "Point",
        "coordinates": [
          139.108696,
          37.881245
        ]
      },
      "properties": {
        "NO": 29499,
        "共通ID": "E1510000024111",
        "都道府県名及び市町村名": "新潟県新潟市",
        "施設・場所名": "新潟向陽高等学校",
        "住所": "新潟県新潟市江南区亀田向陽4-3-1",
        "指定緊急避難場所との住所同一": "1",
        "その他市町村長が必要と認める事項": null,
        "受入対象者": null,
        "備考": ""
      }
    },
    {
      "type": "Feature",
      "geometry": {
        "type": "Point",
        "coordinates": [
          139.099842,
          37.870209
        ]
      },
      "properties": {
        "NO": 29500,
        "共通ID": "E1510000026111",
        "都道府県名及び市町村名": "新潟県新潟市",
        "施設・場所名": "亀田西小学校",
        "住所": "新潟県新潟市江南区亀田四ツ興野4-1-1",
        "指定緊急避難場所との住所同一": "1",
        "その他市町村長が必要と認める事項": null,
        "受入対象者": null,
        "備考": ""
      }
    },
    {
      "type": "Feature",
      "geometry": {
        "type": "Point",
        "coordinates": [
          139.110952,
          37.868124
        ]
      },
      "properties": {
        "NO": 29501,
        "共通ID": "E1510000027111",
        "都道府県名及び市町村名": "新潟県新潟市",
        "施設・場所名": "亀田小学校",
        "住所": "新潟県新潟市江南区亀田新明町1-1-46",
        "指定緊急避難場所との住所同一": "1",
        "その他市町村長が必要と認める事項": null,
        "受入対象者": null,
        "備考": ""
      }
    },
    {
      "type": "Feature",
      "geometry": {
        "type": "Point",
        "coordinates": [
          139.110326,
          37.867002
        ]
      },
      "properties": {
        "NO": 29502,
        "共通ID": "E1510000028111",
        "都道府県名及び市町村名": "新潟県新潟市",
        "施設・場所名": "亀田第一保育園",
        "住所": "新潟県新潟市江南区亀田新明町2-6-1",
        "指定緊急避難場所との住所同一": "1",
        "その他市町村長が必要と認める事項": null,
        "受入対象者": null,
        "備考": ""
      }
    },
    {
      "type": "Feature",
      "geometry": {
        "type": "Point",
        "coordinates": [
          139.118358,
          37.869057
        ]
      },
      "properties": {
        "NO": 29503,
        "共通ID": "E1510000029111",
        "都道府県名及び市町村名": "新潟県新潟市",
        "施設・場所名": "亀田東小学校",
        "住所": "新潟県新潟市江南区亀田水道町3-2-45",
        "指定緊急避難場所との住所同一": "1",
        "その他市町村長が必要と認める事項": null,
        "受入対象者": null,
        "備考": ""
      }
    },
    {
      "type": "Feature",
      "geometry": {
        "type": "Point",
        "coordinates": [
          139.103276,
          37.883511
        ]
      },
      "properties": {
        "NO": 29504,
        "共通ID": "E1510000030111",
        "都道府県名及び市町村名": "新潟県新潟市",
        "施設・場所名": "亀田第五保育園",
        "住所": "新潟県新潟市江南区亀田中島2-4-14",
        "指定緊急避難場所との住所同一": "1",
        "その他市町村長が必要と認める事項": null,
        "受入対象者": null,
        "備考": ""
      }
    },
    {
      "type": "Feature",
      "geometry": {
        "type": "Point",
        "coordinates": [
          139.115242,
          37.867488
        ]
      },
      "properties": {
        "NO": 29505,
        "共通ID": "E1510000033111",
        "都道府県名及び市町村名": "新潟県新潟市",
        "施設・場所名": "亀田第三保育園",
        "住所": "新潟県新潟市江南区亀田東町3-5-15",
        "指定緊急避難場所との住所同一": "1",
        "その他市町村長が必要と認める事項": null,
        "受入対象者": null,
        "備考": ""
      }
    },
    {
      "type": "Feature",
      "geometry": {
        "type": "Point",
        "coordinates": [
          139.072264,
          37.837907
        ]
      },
      "properties": {
        "NO": 29506,
        "共通ID": "E1510000039111",
        "都道府県名及び市町村名": "新潟県新潟市",
        "施設・場所名": "両川小学校",
        "住所": "新潟県新潟市江南区酒屋町687-1",
        "指定緊急避難場所との住所同一": "1",
        "その他市町村長が必要と認める事項": null,
        "受入対象者": null,
        "備考": ""
      }
    },
    {
      "type": "Feature",
      "geometry": {
        "type": "Point",
        "coordinates": [
          139.070947,
          37.837828
        ]
      },
      "properties": {
        "NO": 29507,
        "共通ID": "E1510000040111",
        "都道府県名及び市町村名": "新潟県新潟市",
        "施設・場所名": "両川中学校",
        "住所": "新潟県新潟市江南区酒屋町702-1",
        "指定緊急避難場所との住所同一": "1",
        "その他市町村長が必要と認める事項": null,
        "受入対象者": null,
        "備考": ""
      }
    },
    {
      "type": "Feature",
      "geometry": {
        "type": "Point",
        "coordinates": [
          139.162193,
          37.873816
        ]
      },
      "properties": {
        "NO": 29508,
        "共通ID": "E1510000042111",
        "都道府県名及び市町村名": "新潟県新潟市",
        "施設・場所名": "小杉地区コミュニティセンター",
        "住所": "新潟県新潟市江南区小杉3-11-26",
        "指定緊急避難場所との住所同一": "1",
        "その他市町村長が必要と認める事項": null,
        "受入対象者": null,
        "備考": ""
      }
    },
    {
      "type": "Feature",
      "geometry": {
        "type": "Point",
        "coordinates": [
          139.161404,
          37.875196
        ]
      },
      "properties": {
        "NO": 29509,
        "共通ID": "E1510000043111",
        "都道府県名及び市町村名": "新潟県新潟市",
        "施設・場所名": "横越小杉保育園",
        "住所": "新潟県新潟市江南区小杉3-14-16",
        "指定緊急避難場所との住所同一": "1",
        "その他市町村長が必要と認める事項": null,
        "受入対象者": null,
        "備考": ""
      }
    },
    {
      "type": "Feature",
      "geometry": {
        "type": "Point",
        "coordinates": [
          139.048949,
          37.868354
        ]
      },
      "properties": {
        "NO": 29510,
        "共通ID": "E1510000045111",
        "都道府県名及び市町村名": "新潟県新潟市",
        "施設・場所名": "東曽野木小学校",
        "住所": "新潟県新潟市江南区鐘木214-1",
        "指定緊急避難場所との住所同一": "1",
        "その他市町村長が必要と認める事項": null,
        "受入対象者": null,
        "備考": ""
      }
    },
    {
      "type": "Feature",
      "geometry": {
        "type": "Point",
        "coordinates": [
          139.110993,
          37.862962
        ]
      },
      "properties": {
        "NO": 29511,
        "共通ID": "E1510000046111",
        "都道府県名及び市町村名": "新潟県新潟市",
        "施設・場所名": "亀田中学校",
        "住所": "新潟県新潟市江南区城山1-3-5",
        "指定緊急避難場所との住所同一": "1",
        "その他市町村長が必要と認める事項": null,
        "受入対象者": null,
        "備考": ""
      }
    },
    {
      "type": "Feature",
      "geometry": {
        "type": "Point",
        "coordinates": [
          139.111611,
          37.873993
        ]
      },
      "properties": {
        "NO": 29512,
        "共通ID": "E1510000049111",
        "都道府県名及び市町村名": "新潟県新潟市",
        "施設・場所名": "亀田第二保育園",
        "住所": "新潟県新潟市江南区諏訪1-6-10",
        "指定緊急避難場所との住所同一": "1",
        "その他市町村長が必要と認める事項": null,
        "受入対象者": null,
        "備考": ""
      }
    },
    {
      "type": "Feature",
      "geometry": {
        "type": "Point",
        "coordinates": [
          139.140007,
          37.885503
        ]
      },
      "properties": {
        "NO": 29513,
        "共通ID": "E1510000051111",
        "都道府県名及び市町村名": "新潟県新潟市",
        "施設・場所名": "大江山中学校",
        "住所": "新潟県新潟市江南区西山491",
        "指定緊急避難場所との住所同一": "1",
        "その他市町村長が必要と認める事項": null,
        "受入対象者": null,
        "備考": ""
      }
    },
    {
      "type": "Feature",
      "geometry": {
        "type": "Point",
        "coordinates": [
          139.104967,
          37.873385
        ]
      },
      "properties": {
        "NO": 29514,
        "共通ID": "E1510000052111",
        "都道府県名及び市町村名": "新潟県新潟市",
        "施設・場所名": "亀田第四保育園",
        "住所": "新潟県新潟市江南区西町4-6-24",
        "指定緊急避難場所との住所同一": "1",
        "その他市町村長が必要と認める事項": null,
        "受入対象者": null,
        "備考": ""
      }
    },
    {
      "type": "Feature",
      "geometry": {
        "type": "Point",
        "coordinates": [
          139.103981,
          37.867275
        ]
      },
      "properties": {
        "NO": 29515,
        "共通ID": "E1510000054111",
        "都道府県名及び市町村名": "新潟県新潟市",
        "施設・場所名": "亀田市民会館",
        "住所": "新潟県新潟市江南区船戸山5-7-2",
        "指定緊急避難場所との住所同一": "1",
        "その他市町村長が必要と認める事項": null,
        "受入対象者": null,
        "備考": ""
      }
    },
    {
      "type": "Feature",
      "geometry": {
        "type": "Point",
        "coordinates": [
          139.043002,
          37.855784
        ]
      },
      "properties": {
        "NO": 29516,
        "共通ID": "E1510000055111",
        "都道府県名及び市町村名": "新潟県新潟市",
        "施設・場所名": "曽野木中学校",
        "住所": "新潟県新潟市江南区曽川甲387-1",
        "指定緊急避難場所との住所同一": "1",
        "その他市町村長が必要と認める事項": null,
        "受入対象者": null,
        "備考": ""
      }
    },
    {
      "type": "Feature",
      "geometry": {
        "type": "Point",
        "coordinates": [
          139.087323,
          37.861802
        ]
      },
      "properties": {
        "NO": 29517,
        "共通ID": "E1510000057111",
        "都道府県名及び市町村名": "新潟県新潟市",
        "施設・場所名": "早通小学校",
        "住所": "新潟県新潟市江南区早通5-7-2",
        "指定緊急避難場所との住所同一": "1",
        "その他市町村長が必要と認める事項": null,
        "受入対象者": null,
        "備考": ""
      }
    },
    {
      "type": "Feature",
      "geometry": {
        "type": "Point",
        "coordinates": [
          139.094002,
          37.869067
        ]
      },
      "properties": {
        "NO": 29518,
        "共通ID": "E1510000058111",
        "都道府県名及び市町村名": "新潟県新潟市",
        "施設・場所名": "亀田西中学校",
        "住所": "新潟県新潟市江南区早苗3-1-8",
        "指定緊急避難場所との住所同一": "1",
        "その他市町村長が必要と認める事項": null,
        "受入対象者": null,
        "備考": ""
      }
    },
    {
      "type": "Feature",
      "geometry": {
        "type": "Point",
        "coordinates": [
          139.140033,
          37.899842
        ]
      },
      "properties": {
        "NO": 29519,
        "共通ID": "E1510000059111",
        "都道府県名及び市町村名": "新潟県新潟市",
        "施設・場所名": "大淵小学校",
        "住所": "新潟県新潟市江南区大淵1760-1",
        "指定緊急避難場所との住所同一": "1",
        "その他市町村長が必要と認める事項": null,
        "受入対象者": null,
        "備考": ""
      }
    },
    {
      "type": "Feature",
      "geometry": {
        "type": "Point",
        "coordinates": [
          139.153493,
          37.829074
        ]
      },
      "properties": {
        "NO": 29520,
        "共通ID": "E1510000060111",
        "都道府県名及び市町村名": "新潟県新潟市",
        "施設・場所名": "横越農村環境改善センター",
        "住所": "新潟県新潟市江南区沢海3-1-30",
        "指定緊急避難場所との住所同一": "1",
        "その他市町村長が必要と認める事項": null,
        "受入対象者": null,
        "備考": ""
      }
    },
    {
      "type": "Feature",
      "geometry": {
        "type": "Point",
        "coordinates": [
          139.032704,
          37.857435
        ]
      },
      "properties": {
        "NO": 29521,
        "共通ID": "E1510000061111",
        "都道府県名及び市町村名": "新潟県新潟市",
        "施設・場所名": "曽野木小学校",
        "住所": "新潟県新潟市江南区天野2-7-1",
        "指定緊急避難場所との住所同一": "1",
        "その他市町村長が必要と認める事項": null,
        "受入対象者": null,
        "備考": ""
      }
    },
    {
      "type": "Feature",
      "geometry": {
        "type": "Point",
        "coordinates": [
          139.1146,
          37.846817
        ]
      },
      "properties": {
        "NO": 29522,
        "共通ID": "E1510000062111",
        "都道府県名及び市町村名": "新潟県新潟市",
        "施設・場所名": "横越体育センター・二本木地区コミュニティセンター",
        "住所": "新潟県新潟市江南区二本木3-2-50",
        "指定緊急避難場所との住所同一": "1",
        "その他市町村長が必要と認める事項": null,
        "受入対象者": null,
        "備考": ""
      }
    },
    {
      "type": "Feature",
      "geometry": {
        "type": "Point",
        "coordinates": [
          139.132451,
          37.836988
        ]
      },
      "properties": {
        "NO": 29523,
        "共通ID": "E1510000066111",
        "都道府県名及び市町村名": "新潟県新潟市",
        "施設・場所名": "木津地域研修センター",
        "住所": "新潟県新潟市江南区木津2-3-28",
        "指定緊急避難場所との住所同一": "1",
        "その他市町村長が必要と認める事項": null,
        "受入対象者": null,
        "備考": ""
      }
    },
    {
      "type": "Feature",
      "geometry": {
        "type": "Point",
        "coordinates": [
          139.121754,
          37.835703
        ]
      },
      "properties": {
        "NO": 29524,
        "共通ID": "E1510000068111",
        "都道府県名及び市町村名": "新潟県新潟市",
        "施設・場所名": "横越双葉保育園",
        "住所": "新潟県新潟市江南区木津5-5-10",
        "指定緊急避難場所との住所同一": "1",
        "その他市町村長が必要と認める事項": null,
        "受入対象者": null,
        "備考": ""
      }
    },
    {
      "type": "Feature",
      "geometry": {
        "type": "Point",
        "coordinates": [
          139.077346,
          37.752778
        ]
      },
      "properties": {
        "NO": 29525,
        "共通ID": "E1510000074111",
        "都道府県名及び市町村名": "新潟県新潟市",
        "施設・場所名": "小須戸武道館",
        "住所": "新潟県新潟市秋葉区横川浜239-1",
        "指定緊急避難場所との住所同一": "1",
        "その他市町村長が必要と認める事項": null,
        "受入対象者": null,
        "備考": ""
      }
    },
    {
      "type": "Feature",
      "geometry": {
        "type": "Point",
        "coordinates": [
          139.075057,
          37.752858
        ]
      },
      "properties": {
        "NO": 29526,
        "共通ID": "E1510000076111",
        "都道府県名及び市町村名": "新潟県新潟市",
        "施設・場所名": "小須戸中学校",
        "住所": "新潟県新潟市秋葉区横川浜526-1",
        "指定緊急避難場所との住所同一": "1",
        "その他市町村長が必要と認める事項": null,
        "受入対象者": null,
        "備考": ""
      }
    },
    {
      "type": "Feature",
      "geometry": {
        "type": "Point",
        "coordinates": [
          139.076161,
          37.752505
        ]
      },
      "properties": {
        "NO": 29527,
        "共通ID": "E1510000077111",
        "都道府県名及び市町村名": "新潟県新潟市",
        "施設・場所名": "小須戸体育館",
        "住所": "新潟県新潟市秋葉区横川浜526-2",
        "指定緊急避難場所との住所同一": "1",
        "その他市町村長が必要と認める事項": null,
        "受入対象者": null,
        "備考": ""
      }
    },
    {
      "type": "Feature",
      "geometry": {
        "type": "Point",
        "coordinates": [
          139.076525,
          37.753315
        ]
      },
      "properties": {
        "NO": 29528,
        "共通ID": "E1510000078111",
        "都道府県名及び市町村名": "新潟県新潟市",
        "施設・場所名": "小須戸幼稚園",
        "住所": "新潟県新潟市秋葉区横川浜527-1",
        "指定緊急避難場所との住所同一": "1",
        "その他市町村長が必要と認める事項": null,
        "受入対象者": null,
        "備考": ""
      }
    },
    {
      "type": "Feature",
      "geometry": {
        "type": "Point",
        "coordinates": [
          139.072185,
          37.752083
        ]
      },
      "properties": {
        "NO": 29529,
        "共通ID": "E1510000079111",
        "都道府県名及び市町村名": "新潟県新潟市",
        "施設・場所名": "小須戸小学校",
        "住所": "新潟県新潟市秋葉区横川浜541-1",
        "指定緊急避難場所との住所同一": "1",
        "その他市町村長が必要と認める事項": null,
        "受入対象者": null,
        "備考": ""
      }
    },
    {
      "type": "Feature",
      "geometry": {
        "type": "Point",
        "coordinates": [
          139.118742,
          37.83383
        ]
      },
      "properties": {
        "NO": 29530,
        "共通ID": "E1510000080111",
        "都道府県名及び市町村名": "新潟県新潟市",
        "施設・場所名": "新津第二中学校",
        "住所": "新潟県新潟市秋葉区荻島1-15-17",
        "指定緊急避難場所との住所同一": "1",
        "その他市町村長が必要と認める事項": null,
        "受入対象者": null,
        "備考": ""
      }
    },
    {
      "type": "Feature",
      "geometry": {
        "type": "Point",
        "coordinates": [
          139.170984,
          37.780516
        ]
      },
      "properties": {
        "NO": 29531,
        "共通ID": "E1510000082111",
        "都道府県名及び市町村名": "新潟県新潟市",
        "施設・場所名": "新関小学校",
        "住所": "新潟県新潟市秋葉区下新766",
        "指定緊急避難場所との住所同一": "1",
        "その他市町村長が必要と認める事項": null,
        "受入対象者": null,
        "備考": ""
      }
    },
    {
      "type": "Feature",
      "geometry": {
        "type": "Point",
        "coordinates": [
          139.11951,
          37.76798
        ]
      },
      "properties": {
        "NO": 29532,
        "共通ID": "E1510000083111",
        "都道府県名及び市町村名": "新潟県新潟市",
        "施設・場所名": "金津中学校",
        "住所": "新潟県新潟市秋葉区割町10-2",
        "指定緊急避難場所との住所同一": "1",
        "その他市町村長が必要と認める事項": null,
        "受入対象者": null,
        "備考": ""
      }
    },
    {
      "type": "Feature",
      "geometry": {
        "type": "Point",
        "coordinates": [
          139.08415,
          37.731732
        ]
      },
      "properties": {
        "NO": 29533,
        "共通ID": "E1510000084111",
        "都道府県名及び市町村名": "新潟県新潟市",
        "施設・場所名": "鎌倉地域研修センター",
        "住所": "新潟県新潟市秋葉区鎌倉273-1",
        "指定緊急避難場所との住所同一": "1",
        "その他市町村長が必要と認める事項": null,
        "受入対象者": null,
        "備考": ""
      }
    },
    {
      "type": "Feature",
      "geometry": {
        "type": "Point",
        "coordinates": [
          139.17216,
          37.786785
        ]
      },
      "properties": {
        "NO": 29534,
        "共通ID": "E1510000086111",
        "都道府県名及び市町村名": "新潟県新潟市",
        "施設・場所名": "新津金屋運動広場",
        "住所": "新潟県新潟市秋葉区金屋260-1",
        "指定緊急避難場所との住所同一": "1",
        "その他市町村長が必要と認める事項": null,
        "受入対象者": null,
        "備考": ""
      }
    },
    {
      "type": "Feature",
      "geometry": {
        "type": "Point",
        "coordinates": [
          139.112175,
          37.749133
        ]
      },
      "properties": {
        "NO": 29535,
        "共通ID": "E1510000087111",
        "都道府県名及び市町村名": "新潟県新潟市",
        "施設・場所名": "里山ビジターセンター",
        "住所": "新潟県新潟市秋葉区金津1193",
        "指定緊急避難場所との住所同一": "1",
        "その他市町村長が必要と認める事項": null,
        "受入対象者": null,
        "備考": ""
      }
    },
    {
      "type": "Feature",
      "geometry": {
        "type": "Point",
        "coordinates": [
          139.121443,
          37.827955
        ]
      },
      "properties": {
        "NO": 29536,
        "共通ID": "E1510000089111",
        "都道府県名及び市町村名": "新潟県新潟市",
        "施設・場所名": "結小学校",
        "住所": "新潟県新潟市秋葉区結132",
        "指定緊急避難場所との住所同一": "1",
        "その他市町村長が必要と認める事項": null,
        "受入対象者": null,
        "備考": ""
      }
    },
    {
      "type": "Feature",
      "geometry": {
        "type": "Point",
        "coordinates": [
          139.120564,
          37.828556
        ]
      },
      "properties": {
        "NO": 29537,
        "共通ID": "E1510000090111",
        "都道府県名及び市町村名": "新潟県新潟市",
        "施設・場所名": "結幼稚園",
        "住所": "新潟県新潟市秋葉区結1603",
        "指定緊急避難場所との住所同一": "",
        "その他市町村長が必要と認める事項": null,
        "受入対象者": null,
        "備考": ""
      }
    },
    {
      "type": "Feature",
      "geometry": {
        "type": "Point",
        "coordinates": [
          139.112905,
          37.768222
        ]
      },
      "properties": {
        "NO": 29538,
        "共通ID": "E1510000092111",
        "都道府県名及び市町村名": "新潟県新潟市",
        "施設・場所名": "金津地区コミュニティセンター",
        "住所": "新潟県新潟市秋葉区古津597",
        "指定緊急避難場所との住所同一": "1",
        "その他市町村長が必要と認める事項": null,
        "受入対象者": null,
        "備考": ""
      }
    },
    {
      "type": "Feature",
      "geometry": {
        "type": "Point",
        "coordinates": [
          139.118083,
          37.768277
        ]
      },
      "properties": {
        "NO": 29539,
        "共通ID": "E1510000093111",
        "都道府県名及び市町村名": "新潟県新潟市",
        "施設・場所名": "金津小学校",
        "住所": "新潟県新潟市秋葉区古津88",
        "指定緊急避難場所との住所同一": "1",
        "その他市町村長が必要と認める事項": null,
        "受入対象者": null,
        "備考": ""
      }
    },
    {
      "type": "Feature",
      "geometry": {
        "type": "Point",
        "coordinates": [
          139.112624,
          37.80059
        ]
      },
      "properties": {
        "NO": 29540,
        "共通ID": "E1510000094111",
        "都道府県名及び市町村名": "新潟県新潟市",
        "施設・場所名": "新津第三小学校",
        "住所": "新潟県新潟市秋葉区山谷町3-4785",
        "指定緊急避難場所との住所同一": "1",
        "その他市町村長が必要と認める事項": null,
        "受入対象者": null,
        "備考": ""
      }
    },
    {
      "type": "Feature",
      "geometry": {
        "type": "Point",
        "coordinates": [
          139.112748,
          37.801404
        ]
      },
      "properties": {
        "NO": 29541,
        "共通ID": "E1510000094112",
        "都道府県名及び市町村名": "新潟県新潟市",
        "施設・場所名": "新津第三幼稚園",
        "住所": "新潟県新潟市秋葉区山谷町3-4785",
        "指定緊急避難場所との住所同一": "1",
        "その他市町村長が必要と認める事項": null,
        "受入対象者": null,
        "備考": ""
      }
    },
    {
      "type": "Feature",
      "geometry": {
        "type": "Point",
        "coordinates": [
          139.143539,
          37.817227
        ]
      },
      "properties": {
        "NO": 29542,
        "共通ID": "E1510000098111",
        "都道府県名及び市町村名": "新潟県新潟市",
        "施設・場所名": "新津Ｂ＆Ｇ海洋センター",
        "住所": "新潟県新潟市秋葉区七日町2186-9",
        "指定緊急避難場所との住所同一": "1",
        "その他市町村長が必要と認める事項": null,
        "受入対象者": null,
        "備考": ""
      }
    },
    {
      "type": "Feature",
      "geometry": {
        "type": "Point",
        "coordinates": [
          139.149086,
          37.824321
        ]
      },
      "properties": {
        "NO": 29543,
        "共通ID": "E1510000096111",
        "都道府県名及び市町村名": "新潟県新潟市",
        "施設・場所名": "旧満日小学校",
        "住所": "新潟県新潟市秋葉区七日町１７乙",
        "指定緊急避難場所との住所同一": "",
        "その他市町村長が必要と認める事項": null,
        "受入対象者": null,
        "備考": ""
      }
    },
    {
      "type": "Feature",
      "geometry": {
        "type": "Point",
        "coordinates": [
          139.100356,
          37.833989
        ]
      },
      "properties": {
        "NO": 29544,
        "共通ID": "E1510000099111",
        "都道府県名及び市町村名": "新潟県新潟市",
        "施設・場所名": "荻川小学校",
        "住所": "新潟県新潟市秋葉区車場922-1",
        "指定緊急避難場所との住所同一": "1",
        "その他市町村長が必要と認める事項": null,
        "受入対象者": null,
        "備考": ""
      }
    },
    {
      "type": "Feature",
      "geometry": {
        "type": "Point",
        "coordinates": [
          139.130883,
          37.78944
        ]
      },
      "properties": {
        "NO": 29545,
        "共通ID": "E1510000100111",
        "都道府県名及び市町村名": "新潟県新潟市",
        "施設・場所名": "新津高等学校",
        "住所": "新潟県新潟市秋葉区秋葉1-19-1",
        "指定緊急避難場所との住所同一": "1",
        "その他市町村長が必要と認める事項": null,
        "受入対象者": null,
        "備考": ""
      }
    },
    {
      "type": "Feature",
      "geometry": {
        "type": "Point",
        "coordinates": [
          139.071746,
          37.786074
        ]
      },
      "properties": {
        "NO": 29546,
        "共通ID": "E1510000101111",
        "都道府県名及び市町村名": "新潟県新潟市",
        "施設・場所名": "小合小学校",
        "住所": "新潟県新潟市秋葉区出戸180",
        "指定緊急避難場所との住所同一": "1",
        "その他市町村長が必要と認める事項": null,
        "受入対象者": null,
        "備考": ""
      }
    },
    {
      "type": "Feature",
      "geometry": {
        "type": "Point",
        "coordinates": [
          139.084319,
          37.791822
        ]
      },
      "properties": {
        "NO": 29547,
        "共通ID": "E1510000102111",
        "都道府県名及び市町村名": "新潟県新潟市",
        "施設・場所名": "小合地区コミュニティセンター",
        "住所": "新潟県新潟市秋葉区小戸下組22-1",
        "指定緊急避難場所との住所同一": "1",
        "その他市町村長が必要と認める事項": null,
        "受入対象者": null,
        "備考": ""
      }
    },
    {
      "type": "Feature",
      "geometry": {
        "type": "Point",
        "coordinates": [
          139.084738,
          37.793252
        ]
      },
      "properties": {
        "NO": 29548,
        "共通ID": "E1510000103111",
        "都道府県名及び市町村名": "新潟県新潟市",
        "施設・場所名": "小合中学校",
        "住所": "新潟県新潟市秋葉区小戸下組77",
        "指定緊急避難場所との住所同一": "1",
        "その他市町村長が必要と認める事項": null,
        "受入対象者": null,
        "備考": ""
      }
    },
    {
      "type": "Feature",
      "geometry": {
        "type": "Point",
        "coordinates": [
          139.093017,
          37.793812
        ]
      },
      "properties": {
        "NO": 29549,
        "共通ID": "E1510000104111",
        "都道府県名及び市町村名": "新潟県新潟市",
        "施設・場所名": "小合東小学校",
        "住所": "新潟県新潟市秋葉区小戸上組234",
        "指定緊急避難場所との住所同一": "1",
        "その他市町村長が必要と認める事項": null,
        "受入対象者": null,
        "備考": ""
      }
    },
    {
      "type": "Feature",
      "geometry": {
        "type": "Point",
        "coordinates": [
          139.146942,
          37.76883
        ]
      },
      "properties": {
        "NO": 29550,
        "共通ID": "E1510000105111",
        "都道府県名及び市町村名": "新潟県新潟市",
        "施設・場所名": "新津クリーンセンター",
        "住所": "新潟県新潟市秋葉区小口1289-1",
        "指定緊急避難場所との住所同一": "1",
        "その他市町村長が必要と認める事項": null,
        "受入対象者": null,
        "備考": ""
      }
    },
    {
      "type": "Feature",
      "geometry": {
        "type": "Point",
        "coordinates": [
          139.068347,
          37.741935
        ]
      },
      "properties": {
        "NO": 29551,
        "共通ID": "E1510000106111",
        "都道府県名及び市町村名": "新潟県新潟市",
        "施設・場所名": "ワークセンターほほえみ",
        "住所": "新潟県新潟市秋葉区小向1744",
        "指定緊急避難場所との住所同一": "1",
        "その他市町村長が必要と認める事項": null,
        "受入対象者": null,
        "備考": ""
      }
    },
    {
      "type": "Feature",
      "geometry": {
        "type": "Point",
        "coordinates": [
          139.071137,
          37.755517
        ]
      },
      "properties": {
        "NO": 29552,
        "共通ID": "E1510000107111",
        "都道府県名及び市町村名": "新潟県新潟市",
        "施設・場所名": "小須戸まちづくりセンター",
        "住所": "新潟県新潟市秋葉区小須戸120-1",
        "指定緊急避難場所との住所同一": "1",
        "その他市町村長が必要と認める事項": null,
        "受入対象者": null,
        "備考": ""
      }
    },
    {
      "type": "Feature",
      "geometry": {
        "type": "Point",
        "coordinates": [
          139.074117,
          37.759104
        ]
      },
      "properties": {
        "NO": 29553,
        "共通ID": "E1510000109111",
        "都道府県名及び市町村名": "新潟県新潟市",
        "施設・場所名": "小須戸保育園",
        "住所": "新潟県新潟市秋葉区小須戸325-1",
        "指定緊急避難場所との住所同一": "1",
        "その他市町村長が必要と認める事項": null,
        "受入対象者": null,
        "備考": ""
      }
    },
    {
      "type": "Feature",
      "geometry": {
        "type": "Point",
        "coordinates": [
          139.066881,
          37.76112
        ]
      },
      "properties": {
        "NO": 29554,
        "共通ID": "E1510000111111",
        "都道府県名及び市町村名": "新潟県新潟市",
        "施設・場所名": "小須戸老人福祉センター",
        "住所": "新潟県新潟市秋葉区小須戸3870-2",
        "指定緊急避難場所との住所同一": "1",
        "その他市町村長が必要と認める事項": null,
        "受入対象者": null,
        "備考": ""
      }
    },
    {
      "type": "Feature",
      "geometry": {
        "type": "Point",
        "coordinates": [
          139.120277,
          37.79173
        ]
      },
      "properties": {
        "NO": 29555,
        "共通ID": "E1510000112111",
        "都道府県名及び市町村名": "新潟県新潟市",
        "施設・場所名": "新津第一中学校",
        "住所": "新潟県新潟市秋葉区新栄町4-1",
        "指定緊急避難場所との住所同一": "1",
        "その他市町村長が必要と認める事項": null,
        "受入対象者": null,
        "備考": ""
      }
    },
    {
      "type": "Feature",
      "geometry": {
        "type": "Point",
        "coordinates": [
          139.131643,
          37.797298
        ]
      },
      "properties": {
        "NO": 29556,
        "共通ID": "E1510000114111",
        "都道府県名及び市町村名": "新潟県新潟市",
        "施設・場所名": "新津第二小学校",
        "住所": "新潟県新潟市秋葉区新町2-3-3",
        "指定緊急避難場所との住所同一": "1",
        "その他市町村長が必要と認める事項": null,
        "受入対象者": null,
        "備考": ""
      }
    },
    {
      "type": "Feature",
      "geometry": {
        "type": "Point",
        "coordinates": [
          139.140695,
          37.804513
        ]
      },
      "properties": {
        "NO": 29557,
        "共通ID": "E1510000115111",
        "都道府県名及び市町村名": "新潟県新潟市",
        "施設・場所名": "新津工業高等学校",
        "住所": "新潟県新潟市秋葉区新津東町1-12-9",
        "指定緊急避難場所との住所同一": "1",
        "その他市町村長が必要と認める事項": null,
        "受入対象者": null,
        "備考": ""
      }
    },
    {
      "type": "Feature",
      "geometry": {
        "type": "Point",
        "coordinates": [
          139.138736,
          37.80281
        ]
      },
      "properties": {
        "NO": 29558,
        "共通ID": "E1510000116111",
        "都道府県名及び市町村名": "新潟県新潟市",
        "施設・場所名": "新津地区勤労青少年ホーム",
        "住所": "新潟県新潟市秋葉区新津東町1-5-12",
        "指定緊急避難場所との住所同一": "1",
        "その他市町村長が必要と認める事項": null,
        "受入対象者": null,
        "備考": ""
      }
    },
    {
      "type": "Feature",
      "geometry": {
        "type": "Point",
        "coordinates": [
          139.145494,
          37.80052
        ]
      },
      "properties": {
        "NO": 29559,
        "共通ID": "E1510000117111",
        "都道府県名及び市町村名": "新潟県新潟市",
        "施設・場所名": "阿賀小学校",
        "住所": "新潟県新潟市秋葉区新津東町2-1325",
        "指定緊急避難場所との住所同一": "1",
        "その他市町村長が必要と認める事項": null,
        "受入対象者": null,
        "備考": ""
      }
    },
    {
      "type": "Feature",
      "geometry": {
        "type": "Point",
        "coordinates": [
          139.142026,
          37.802073
        ]
      },
      "properties": {
        "NO": 29560,
        "共通ID": "E1510000118111",
        "都道府県名及び市町村名": "新潟県新潟市",
        "施設・場所名": "新津地域学園",
        "住所": "新潟県新潟市秋葉区新津東町2-5-6",
        "指定緊急避難場所との住所同一": "1",
        "その他市町村長が必要と認める事項": null,
        "受入対象者": null,
        "備考": ""
      }
    },
    {
      "type": "Feature",
      "geometry": {
        "type": "Point",
        "coordinates": [
          139.142957,
          37.800581
        ]
      },
      "properties": {
        "NO": 29561,
        "共通ID": "E1510000119111",
        "都道府県名及び市町村名": "新潟県新潟市",
        "施設・場所名": "新津第五中学校",
        "住所": "新潟県新潟市秋葉区新津東町2-7-29",
        "指定緊急避難場所との住所同一": "1",
        "その他市町村長が必要と認める事項": null,
        "受入対象者": null,
        "備考": ""
      }
    },
    {
      "type": "Feature",
      "geometry": {
        "type": "Point",
        "coordinates": [
          139.1222,
          37.798789
        ]
      },
      "properties": {
        "NO": 29562,
        "共通ID": "E1510000120111",
        "都道府県名及び市町村名": "新潟県新潟市",
        "施設・場所名": "新津地域交流センター",
        "住所": "新潟県新潟市秋葉区新津本町1-2-39",
        "指定緊急避難場所との住所同一": "1",
        "その他市町村長が必要と認める事項": null,
        "受入対象者": null,
        "備考": ""
      }
    },
    {
      "type": "Feature",
      "geometry": {
        "type": "Point",
        "coordinates": [
          139.125095,
          37.793339
        ]
      },
      "properties": {
        "NO": 29563,
        "共通ID": "E1510000121111",
        "都道府県名及び市町村名": "新潟県新潟市",
        "施設・場所名": "新津第一小学校",
        "住所": "新潟県新潟市秋葉区新津本町4-4-3",
        "指定緊急避難場所との住所同一": "1",
        "その他市町村長が必要と認める事項": null,
        "受入対象者": null,
        "備考": ""
      }
    },
    {
      "type": "Feature",
      "geometry": {
        "type": "Point",
        "coordinates": [
          139.125428,
          37.793729
        ]
      },
      "properties": {
        "NO": 29564,
        "共通ID": "E1510000121112",
        "都道府県名及び市町村名": "新潟県新潟市",
        "施設・場所名": "新津第一幼稚園",
        "住所": "新潟県新潟市秋葉区新津本町4-4-3",
        "指定緊急避難場所との住所同一": "1",
        "その他市町村長が必要と認める事項": null,
        "受入対象者": null,
        "備考": ""
      }
    },
    {
      "type": "Feature",
      "geometry": {
        "type": "Point",
        "coordinates": [
          139.084234,
          37.759308
        ]
      },
      "properties": {
        "NO": 29565,
        "共通ID": "E1510000123111",
        "都道府県名及び市町村名": "新潟県新潟市",
        "施設・場所名": "新保地域研修センター",
        "住所": "新潟県新潟市秋葉区新保1747",
        "指定緊急避難場所との住所同一": "1",
        "その他市町村長が必要と認める事項": null,
        "受入対象者": null,
        "備考": ""
      }
    },
    {
      "type": "Feature",
      "geometry": {
        "type": "Point",
        "coordinates": [
          139.108376,
          37.832887
        ]
      },
      "properties": {
        "NO": 29566,
        "共通ID": "E1510000128111",
        "都道府県名及び市町村名": "新潟県新潟市",
        "施設・場所名": "荻川コミュニティセンター",
        "住所": "新潟県新潟市秋葉区中野5-1-50",
        "指定緊急避難場所との住所同一": "1",
        "その他市町村長が必要と認める事項": null,
        "受入対象者": null,
        "備考": ""
      }
    },
    {
      "type": "Feature",
      "geometry": {
        "type": "Point",
        "coordinates": [
          139.119994,
          37.768658
        ]
      },
      "properties": {
        "NO": 29567,
        "共通ID": "E1510000129111",
        "都道府県名及び市町村名": "新潟県新潟市",
        "施設・場所名": "金津保育園",
        "住所": "新潟県新潟市秋葉区朝日483-2",
        "指定緊急避難場所との住所同一": "1",
        "その他市町村長が必要と認める事項": null,
        "受入対象者": null,
        "備考": ""
      }
    },
    {
      "type": "Feature",
      "geometry": {
        "type": "Point",
        "coordinates": [
          139.112594,
          37.787405
        ]
      },
      "properties": {
        "NO": 29568,
        "共通ID": "E1510000130111",
        "都道府県名及び市町村名": "新潟県新潟市",
        "施設・場所名": "秋葉区新津健康センター",
        "住所": "新潟県新潟市秋葉区程島1979-4",
        "指定緊急避難場所との住所同一": "1",
        "その他市町村長が必要と認める事項": null,
        "受入対象者": null,
        "備考": ""
      }
    },
    {
      "type": "Feature",
      "geometry": {
        "type": "Point",
        "coordinates": [
          139.11246,
          37.787891
        ]
      },
      "properties": {
        "NO": 29569,
        "共通ID": "E1510000131111",
        "都道府県名及び市町村名": "新潟県新潟市",
        "施設・場所名": "新津武道館",
        "住所": "新潟県新潟市秋葉区程島2009",
        "指定緊急避難場所との住所同一": "1",
        "その他市町村長が必要と認める事項": null,
        "受入対象者": null,
        "備考": ""
      }
    },
    {
      "type": "Feature",
      "geometry": {
        "type": "Point",
        "coordinates": [
          139.112272,
          37.788672
        ]
      },
      "properties": {
        "NO": 29570,
        "共通ID": "E1510000131112",
        "都道府県名及び市町村名": "新潟県新潟市",
        "施設・場所名": "秋葉区総合体育館",
        "住所": "新潟県新潟市秋葉区程島2009",
        "指定緊急避難場所との住所同一": "1",
        "その他市町村長が必要と認める事項": null,
        "受入対象者": null,
        "備考": ""
      }
    },
    {
      "type": "Feature",
      "geometry": {
        "type": "Point",
        "coordinates": [
          139.088276,
          37.733184
        ]
      },
      "properties": {
        "NO": 29571,
        "共通ID": "E1510000132111",
        "都道府県名及び市町村名": "新潟県新潟市",
        "施設・場所名": "小須戸温泉健康センター",
        "住所": "新潟県新潟市秋葉区天ケ沢498-1",
        "指定緊急避難場所との住所同一": "1",
        "その他市町村長が必要と認める事項": null,
        "受入対象者": null,
        "備考": ""
      }
    },
    {
      "type": "Feature",
      "geometry": {
        "type": "Point",
        "coordinates": [
          139.127575,
          37.796426
        ]
      },
      "properties": {
        "NO": 29572,
        "共通ID": "E1510000134111",
        "都道府県名及び市町村名": "新潟県新潟市",
        "施設・場所名": "新津図書館",
        "住所": "新潟県新潟市秋葉区日宝町6-2",
        "指定緊急避難場所との住所同一": "1",
        "その他市町村長が必要と認める事項": null,
        "受入対象者": null,
        "備考": ""
      }
    },
    {
      "type": "Feature",
      "geometry": {
        "type": "Point",
        "coordinates": [
          139.128642,
          37.797606
        ]
      },
      "properties": {
        "NO": 29573,
        "共通ID": "E1510000135111",
        "都道府県名及び市町村名": "新潟県新潟市",
        "施設・場所名": "新津東保育園",
        "住所": "新潟県新潟市秋葉区日宝町9-4",
        "指定緊急避難場所との住所同一": "1",
        "その他市町村長が必要と認める事項": null,
        "受入対象者": null,
        "備考": ""
      }
    },
    {
      "type": "Feature",
      "geometry": {
        "type": "Point",
        "coordinates": [
          139.094993,
          37.750319
        ]
      },
      "properties": {
        "NO": 29574,
        "共通ID": "E1510000138111",
        "都道府県名及び市町村名": "新潟県新潟市",
        "施設・場所名": "矢代田保育園",
        "住所": "新潟県新潟市秋葉区矢代田1237-1",
        "指定緊急避難場所との住所同一": "1",
        "その他市町村長が必要と認める事項": null,
        "受入対象者": null,
        "備考": ""
      }
    },
    {
      "type": "Feature",
      "geometry": {
        "type": "Point",
        "coordinates": [
          139.10145,
          37.754648
        ]
      },
      "properties": {
        "NO": 29575,
        "共通ID": "E1510000140111",
        "都道府県名及び市町村名": "新潟県新潟市",
        "施設・場所名": "新津南高等学校",
        "住所": "新潟県新潟市秋葉区矢代田3200-1",
        "指定緊急避難場所との住所同一": "1",
        "その他市町村長が必要と認める事項": null,
        "受入対象者": null,
        "備考": ""
      }
    },
    {
      "type": "Feature",
      "geometry": {
        "type": "Point",
        "coordinates": [
          139.091137,
          37.740429
        ]
      },
      "properties": {
        "NO": 29576,
        "共通ID": "E1510000141111",
        "都道府県名及び市町村名": "新潟県新潟市",
        "施設・場所名": "小須戸地区ふれあい会館",
        "住所": "新潟県新潟市秋葉区矢代田35",
        "指定緊急避難場所との住所同一": "1",
        "その他市町村長が必要と認める事項": null,
        "受入対象者": null,
        "備考": ""
      }
    },
    {
      "type": "Feature",
      "geometry": {
        "type": "Point",
        "coordinates": [
          139.092618,
          37.739441
        ]
      },
      "properties": {
        "NO": 29577,
        "共通ID": "E1510000143111",
        "都道府県名及び市町村名": "新潟県新潟市",
        "施設・場所名": "矢代田小学校",
        "住所": "新潟県新潟市秋葉区矢代田5596",
        "指定緊急避難場所との住所同一": "1",
        "その他市町村長が必要と認める事項": null,
        "受入対象者": null,
        "備考": ""
      }
    },
    {
      "type": "Feature",
      "geometry": {
        "type": "Point",
        "coordinates": [
          138.843088,
          37.805352
        ]
      },
      "properties": {
        "NO": 29578,
        "共通ID": "E1510000146111",
        "都道府県名及び市町村名": "新潟県新潟市",
        "施設・場所名": "越前小学校",
        "住所": "新潟県新潟市西蒲区越前浜4670",
        "指定緊急避難場所との住所同一": "1",
        "その他市町村長が必要と認める事項": null,
        "受入対象者": null,
        "備考": ""
      }
    },
    {
      "type": "Feature",
      "geometry": {
        "type": "Point",
        "coordinates": [
          138.965993,
          37.818107
        ]
      },
      "properties": {
        "NO": 29579,
        "共通ID": "E1510000150111",
        "都道府県名及び市町村名": "新潟県新潟市",
        "施設・場所名": "貝柄地区集会所",
        "住所": "新潟県新潟市西蒲区貝柄805-6",
        "指定緊急避難場所との住所同一": "1",
        "その他市町村長が必要と認める事項": null,
        "受入対象者": null,
        "備考": ""
      }
    },
    {
      "type": "Feature",
      "geometry": {
        "type": "Point",
        "coordinates": [
          138.840327,
          37.802943
        ]
      },
      "properties": {
        "NO": 29580,
        "共通ID": "E1510000151111",
        "都道府県名及び市町村名": "新潟県新潟市",
        "施設・場所名": "角田地区コミュニティセンター",
        "住所": "新潟県新潟市西蒲区角田浜1815-1",
        "指定緊急避難場所との住所同一": "1",
        "その他市町村長が必要と認める事項": null,
        "受入対象者": null,
        "備考": ""
      }
    },
    {
      "type": "Feature",
      "geometry": {
        "type": "Point",
        "coordinates": [
          138.901318,
          37.744897
        ]
      },
      "properties": {
        "NO": 29581,
        "共通ID": "E1510000152111",
        "都道府県名及び市町村名": "新潟県新潟市",
        "施設・場所名": "巻東中学校",
        "住所": "新潟県新潟市西蒲区潟頭1493",
        "指定緊急避難場所との住所同一": "1",
        "その他市町村長が必要と認める事項": null,
        "受入対象者": null,
        "備考": ""
      }
    },
    {
      "type": "Feature",
      "geometry": {
        "type": "Point",
        "coordinates": [
          138.880694,
          37.762379
        ]
      },
      "properties": {
        "NO": 29582,
        "共通ID": "E1510000153111",
        "都道府県名及び市町村名": "新潟県新潟市",
        "施設・場所名": "巻高等学校",
        "住所": "新潟県新潟市西蒲区巻乙30-1",
        "指定緊急避難場所との住所同一": "1",
        "その他市町村長が必要と認める事項": null,
        "受入対象者": null,
        "備考": ""
      }
    },
    {
      "type": "Feature",
      "geometry": {
        "type": "Point",
        "coordinates": [
          138.890998,
          37.755273
        ]
      },
      "properties": {
        "NO": 29583,
        "共通ID": "E1510000155111",
        "都道府県名及び市町村名": "新潟県新潟市",
        "施設・場所名": "巻総合高等学校",
        "住所": "新潟県新潟市西蒲区巻甲4295-1",
        "指定緊急避難場所との住所同一": "1",
        "その他市町村長が必要と認める事項": null,
        "受入対象者": null,
        "備考": ""
      }
    },
    {
      "type": "Feature",
      "geometry": {
        "type": "Point",
        "coordinates": [
          138.892198,
          37.755046
        ]
      },
      "properties": {
        "NO": 29584,
        "共通ID": "E1510000156111",
        "都道府県名及び市町村名": "新潟県新潟市",
        "施設・場所名": "巻地域保健福祉センター",
        "住所": "新潟県新潟市西蒲区巻甲4363",
        "指定緊急避難場所との住所同一": "1",
        "その他市町村長が必要と認める事項": null,
        "受入対象者": null,
        "備考": ""
      }
    },
    {
      "type": "Feature",
      "geometry": {
        "type": "Point",
        "coordinates": [
          138.883985,
          37.758819
        ]
      },
      "properties": {
        "NO": 29585,
        "共通ID": "E1510000157111",
        "都道府県名及び市町村名": "新潟県新潟市",
        "施設・場所名": "巻文化会館・巻地区公民館",
        "住所": "新潟県新潟市西蒲区巻甲635",
        "指定緊急避難場所との住所同一": "1",
        "その他市町村長が必要と認める事項": null,
        "受入対象者": null,
        "備考": ""
      }
    },
    {
      "type": "Feature",
      "geometry": {
        "type": "Point",
        "coordinates": [
          138.883577,
          37.759009
        ]
      },
      "properties": {
        "NO": 29586,
        "共通ID": "E1510000158111",
        "都道府県名及び市町村名": "新潟県新潟市",
        "施設・場所名": "巻体育館",
        "住所": "新潟県新潟市西蒲区巻甲647",
        "指定緊急避難場所との住所同一": "1",
        "その他市町村長が必要と認める事項": null,
        "受入対象者": null,
        "備考": ""
      }
    },
    {
      "type": "Feature",
      "geometry": {
        "type": "Point",
        "coordinates": [
          138.797,
          37.738396
        ]
      },
      "properties": {
        "NO": 29587,
        "共通ID": "E1510000160111",
        "都道府県名及び市町村名": "新潟県新潟市",
        "施設・場所名": "間瀬公民館",
        "住所": "新潟県新潟市西蒲区間瀬4287-1",
        "指定緊急避難場所との住所同一": "1",
        "その他市町村長が必要と認める事項": null,
        "受入対象者": null,
        "備考": ""
      }
    },
    {
      "type": "Feature",
      "geometry": {
        "type": "Point",
        "coordinates": [
          138.795921,
          37.738083
        ]
      },
      "properties": {
        "NO": 29588,
        "共通ID": "E1510000161111",
        "都道府県名及び市町村名": "新潟県新潟市",
        "施設・場所名": "岩室すこやかセンター",
        "住所": "新潟県新潟市西蒲区間瀬4290-1",
        "指定緊急避難場所との住所同一": "1",
        "その他市町村長が必要と認める事項": null,
        "受入対象者": null,
        "備考": ""
      }
    },
    {
      "type": "Feature",
      "geometry": {
        "type": "Point",
        "coordinates": [
          138.921725,
          37.791452
        ]
      },
      "properties": {
        "NO": 29589,
        "共通ID": "E1510000163111",
        "都道府県名及び市町村名": "新潟県新潟市",
        "施設・場所名": "西蒲区西川健康センター",
        "住所": "新潟県新潟市西蒲区旗屋701-2",
        "指定緊急避難場所との住所同一": "1",
        "その他市町村長が必要と認める事項": null,
        "受入対象者": null,
        "備考": ""
      }
    },
    {
      "type": "Feature",
      "geometry": {
        "type": "Point",
        "coordinates": [
          138.814508,
          37.771209
        ]
      },
      "properties": {
        "NO": 29590,
        "共通ID": "E1510000164111",
        "都道府県名及び市町村名": "新潟県新潟市",
        "施設・場所名": "巻ふるさと会館",
        "住所": "新潟県新潟市西蒲区五ケ浜2237",
        "指定緊急避難場所との住所同一": "1",
        "その他市町村長が必要と認める事項": null,
        "受入対象者": null,
        "備考": ""
      }
    },
    {
      "type": "Feature",
      "geometry": {
        "type": "Point",
        "coordinates": [
          138.965043,
          37.767087
        ]
      },
      "properties": {
        "NO": 29591,
        "共通ID": "E1510000168111",
        "都道府県名及び市町村名": "新潟県新潟市",
        "施設・場所名": "潟東地域コミュニティセンター",
        "住所": "新潟県新潟市西蒲区三方2",
        "指定緊急避難場所との住所同一": "1",
        "その他市町村長が必要と認める事項": null,
        "受入対象者": null,
        "備考": ""
      }
    },
    {
      "type": "Feature",
      "geometry": {
        "type": "Point",
        "coordinates": [
          138.96149,
          37.772385
        ]
      },
      "properties": {
        "NO": 29592,
        "共通ID": "E1510000169111",
        "都道府県名及び市町村名": "新潟県新潟市",
        "施設・場所名": "潟東中学校",
        "住所": "新潟県新潟市西蒲区三方250",
        "指定緊急避難場所との住所同一": "1",
        "その他市町村長が必要と認める事項": null,
        "受入対象者": null,
        "備考": ""
      }
    },
    {
      "type": "Feature",
      "geometry": {
        "type": "Point",
        "coordinates": [
          138.961741,
          37.772248
        ]
      },
      "properties": {
        "NO": 29593,
        "共通ID": "E1510000169112",
        "都道府県名及び市町村名": "新潟県新潟市",
        "施設・場所名": "潟東小学校",
        "住所": "新潟県新潟市西蒲区三方250",
        "指定緊急避難場所との住所同一": "1",
        "その他市町村長が必要と認める事項": null,
        "受入対象者": null,
        "備考": ""
      }
    },
    {
      "type": "Feature",
      "geometry": {
        "type": "Point",
        "coordinates": [
          138.926715,
          37.748711
        ]
      },
      "properties": {
        "NO": 29594,
        "共通ID": "E1510000170111",
        "都道府県名及び市町村名": "新潟県新潟市",
        "施設・場所名": "漆山体育館",
        "住所": "新潟県新潟市西蒲区漆山3299-3",
        "指定緊急避難場所との住所同一": "1",
        "その他市町村長が必要と認める事項": null,
        "受入対象者": null,
        "備考": ""
      }
    },
    {
      "type": "Feature",
      "geometry": {
        "type": "Point",
        "coordinates": [
          138.927108,
          37.748868
        ]
      },
      "properties": {
        "NO": 29595,
        "共通ID": "E1510000171111",
        "都道府県名及び市町村名": "新潟県新潟市",
        "施設・場所名": "漆山東保育園",
        "住所": "新潟県新潟市西蒲区漆山3320",
        "指定緊急避難場所との住所同一": "1",
        "その他市町村長が必要と認める事項": null,
        "受入対象者": null,
        "備考": ""
      }
    },
    {
      "type": "Feature",
      "geometry": {
        "type": "Point",
        "coordinates": [
          138.941293,
          37.810238
        ]
      },
      "properties": {
        "NO": 29596,
        "共通ID": "E1510000173111",
        "都道府県名及び市町村名": "新潟県新潟市",
        "施設・場所名": "升潟小学校",
        "住所": "新潟県新潟市西蒲区升潟2179",
        "指定緊急避難場所との住所同一": "1",
        "その他市町村長が必要と認める事項": null,
        "受入対象者": null,
        "備考": ""
      }
    },
    {
      "type": "Feature",
      "geometry": {
        "type": "Point",
        "coordinates": [
          138.978517,
          37.707798
        ]
      },
      "properties": {
        "NO": 29597,
        "共通ID": "E1510000174111",
        "都道府県名及び市町村名": "新潟県新潟市",
        "施設・場所名": "中之口東小学校",
        "住所": "新潟県新潟市西蒲区小吉1100",
        "指定緊急避難場所との住所同一": "1",
        "その他市町村長が必要と認める事項": null,
        "受入対象者": null,
        "備考": ""
      }
    },
    {
      "type": "Feature",
      "geometry": {
        "type": "Point",
        "coordinates": [
          138.878204,
          37.79611
        ]
      },
      "properties": {
        "NO": 29598,
        "共通ID": "E1510000177111",
        "都道府県名及び市町村名": "新潟県新潟市",
        "施設・場所名": "松野尾小学校",
        "住所": "新潟県新潟市西蒲区松野尾690",
        "指定緊急避難場所との住所同一": "1",
        "その他市町村長が必要と認める事項": null,
        "受入対象者": null,
        "備考": ""
      }
    },
    {
      "type": "Feature",
      "geometry": {
        "type": "Point",
        "coordinates": [
          138.87888,
          37.775132
        ]
      },
      "properties": {
        "NO": 29599,
        "共通ID": "E1510000180111",
        "都道府県名及び市町村名": "新潟県新潟市",
        "施設・場所名": "巻西中学校",
        "住所": "新潟県新潟市西蒲区仁箇42-1",
        "指定緊急避難場所との住所同一": "1",
        "その他市町村長が必要と認める事項": null,
        "受入対象者": null,
        "備考": ""
      }
    },
    {
      "type": "Feature",
      "geometry": {
        "type": "Point",
        "coordinates": [
          138.860316,
          37.728836
        ]
      },
      "properties": {
        "NO": 29600,
        "共通ID": "E1510000181111",
        "都道府県名及び市町村名": "新潟県新潟市",
        "施設・場所名": "岩室中学校",
        "住所": "新潟県新潟市西蒲区西中1421",
        "指定緊急避難場所との住所同一": "1",
        "その他市町村長が必要と認める事項": null,
        "受入対象者": null,
        "備考": ""
      }
    },
    {
      "type": "Feature",
      "geometry": {
        "type": "Point",
        "coordinates": [
          138.867343,
          37.726765
        ]
      },
      "properties": {
        "NO": 29601,
        "共通ID": "E1510000182111",
        "都道府県名及び市町村名": "新潟県新潟市",
        "施設・場所名": "岩室体育館",
        "住所": "新潟県新潟市西蒲区西中860",
        "指定緊急避難場所との住所同一": "1",
        "その他市町村長が必要と認める事項": null,
        "受入対象者": null,
        "備考": ""
      }
    },
    {
      "type": "Feature",
      "geometry": {
        "type": "Point",
        "coordinates": [
          138.851003,
          37.729546
        ]
      },
      "properties": {
        "NO": 29602,
        "共通ID": "E1510000184111",
        "都道府県名及び市町村名": "新潟県新潟市",
        "施設・場所名": "岩室小学校",
        "住所": "新潟県新潟市西蒲区西長島510",
        "指定緊急避難場所との住所同一": "1",
        "その他市町村長が必要と認める事項": null,
        "受入対象者": null,
        "備考": ""
      }
    },
    {
      "type": "Feature",
      "geometry": {
        "type": "Point",
        "coordinates": [
          138.913445,
          37.788647
        ]
      },
      "properties": {
        "NO": 29603,
        "共通ID": "E1510000185111",
        "都道府県名及び市町村名": "新潟県新潟市",
        "施設・場所名": "西川体育センター",
        "住所": "新潟県新潟市西蒲区川崎1-1",
        "指定緊急避難場所との住所同一": "1",
        "その他市町村長が必要と認める事項": null,
        "受入対象者": null,
        "備考": ""
      }
    },
    {
      "type": "Feature",
      "geometry": {
        "type": "Point",
        "coordinates": [
          138.91127,
          37.788657
        ]
      },
      "properties": {
        "NO": 29604,
        "共通ID": "E1510000186111",
        "都道府県名及び市町村名": "新潟県新潟市",
        "施設・場所名": "いこいの家西川荘",
        "住所": "新潟県新潟市西蒲区川崎308-4",
        "指定緊急避難場所との住所同一": "1",
        "その他市町村長が必要と認める事項": null,
        "受入対象者": null,
        "備考": ""
      }
    },
    {
      "type": "Feature",
      "geometry": {
        "type": "Point",
        "coordinates": [
          138.921975,
          37.803649
        ]
      },
      "properties": {
        "NO": 29605,
        "共通ID": "E1510000187111",
        "都道府県名及び市町村名": "新潟県新潟市",
        "施設・場所名": "西川総合体育館",
        "住所": "新潟県新潟市西蒲区善光寺369-1",
        "指定緊急避難場所との住所同一": "1",
        "その他市町村長が必要と認める事項": null,
        "受入対象者": null,
        "備考": ""
      }
    },
    {
      "type": "Feature",
      "geometry": {
        "type": "Point",
        "coordinates": [
          138.926644,
          37.794513
        ]
      },
      "properties": {
        "NO": 29606,
        "共通ID": "E1510000188111",
        "都道府県名及び市町村名": "新潟県新潟市",
        "施設・場所名": "西川中学校",
        "住所": "新潟県新潟市西蒲区曽根1828-3",
        "指定緊急避難場所との住所同一": "1",
        "その他市町村長が必要と認める事項": null,
        "受入対象者": null,
        "備考": ""
      }
    },
    {
      "type": "Feature",
      "geometry": {
        "type": "Point",
        "coordinates": [
          138.922602,
          37.794584
        ]
      },
      "properties": {
        "NO": 29607,
        "共通ID": "E1510000189111",
        "都道府県名及び市町村名": "新潟県新潟市",
        "施設・場所名": "西川学習館",
        "住所": "新潟県新潟市西蒲区曽根1951",
        "指定緊急避難場所との住所同一": "1",
        "その他市町村長が必要と認める事項": null,
        "受入対象者": null,
        "備考": ""
      }
    },
    {
      "type": "Feature",
      "geometry": {
        "type": "Point",
        "coordinates": [
          138.918917,
          37.795801
        ]
      },
      "properties": {
        "NO": 29608,
        "共通ID": "E1510000191111",
        "都道府県名及び市町村名": "新潟県新潟市",
        "施設・場所名": "曽根小学校",
        "住所": "新潟県新潟市西蒲区曽根750",
        "指定緊急避難場所との住所同一": "1",
        "その他市町村長が必要と認める事項": null,
        "受入対象者": null,
        "備考": ""
      }
    },
    {
      "type": "Feature",
      "geometry": {
        "type": "Point",
        "coordinates": [
          138.95281,
          37.730824
        ]
      },
      "properties": {
        "NO": 29609,
        "共通ID": "E1510000192111",
        "都道府県名及び市町村名": "新潟県新潟市",
        "施設・場所名": "中之口西小学校",
        "住所": "新潟県新潟市西蒲区打越甲244",
        "指定緊急避難場所との住所同一": "1",
        "その他市町村長が必要と認める事項": null,
        "受入対象者": null,
        "備考": ""
      }
    },
    {
      "type": "Feature",
      "geometry": {
        "type": "Point",
        "coordinates": [
          138.877486,
          37.764685
        ]
      },
      "properties": {
        "NO": 29610,
        "共通ID": "E1510000195111",
        "都道府県名及び市町村名": "新潟県新潟市",
        "施設・場所名": "巻北小学校",
        "住所": "新潟県新潟市西蒲区竹野町163",
        "指定緊急避難場所との住所同一": "1",
        "その他市町村長が必要と認める事項": null,
        "受入対象者": null,
        "備考": ""
      }
    },
    {
      "type": "Feature",
      "geometry": {
        "type": "Point",
        "coordinates": [
          138.968566,
          37.712258
        ]
      },
      "properties": {
        "NO": 29611,
        "共通ID": "E1510000197111",
        "都道府県名及び市町村名": "新潟県新潟市",
        "施設・場所名": "中之口地区公民館",
        "住所": "新潟県新潟市西蒲区中之口310",
        "指定緊急避難場所との住所同一": "1",
        "その他市町村長が必要と認める事項": null,
        "受入対象者": null,
        "備考": ""
      }
    },
    {
      "type": "Feature",
      "geometry": {
        "type": "Point",
        "coordinates": [
          138.967814,
          37.718364
        ]
      },
      "properties": {
        "NO": 29612,
        "共通ID": "E1510000199111",
        "都道府県名及び市町村名": "新潟県新潟市",
        "施設・場所名": "中之口中学校",
        "住所": "新潟県新潟市西蒲区中之口660",
        "指定緊急避難場所との住所同一": "1",
        "その他市町村長が必要と認める事項": null,
        "受入対象者": null,
        "備考": ""
      }
    },
    {
      "type": "Feature",
      "geometry": {
        "type": "Point",
        "coordinates": [
          138.90161,
          37.786666
        ]
      },
      "properties": {
        "NO": 29613,
        "共通ID": "E1510000200111",
        "都道府県名及び市町村名": "新潟県新潟市",
        "施設・場所名": "鎧郷小学校",
        "住所": "新潟県新潟市西蒲区天竺堂412-4",
        "指定緊急避難場所との住所同一": "1",
        "その他市町村長が必要と認める事項": null,
        "受入対象者": null,
        "備考": ""
      }
    },
    {
      "type": "Feature",
      "geometry": {
        "type": "Point",
        "coordinates": [
          138.920156,
          37.742778
        ]
      },
      "properties": {
        "NO": 29614,
        "共通ID": "E1510000202111",
        "都道府県名及び市町村名": "新潟県新潟市",
        "施設・場所名": "漆山小学校",
        "住所": "新潟県新潟市西蒲区馬堀4515",
        "指定緊急避難場所との住所同一": "1",
        "その他市町村長が必要と認める事項": null,
        "受入対象者": null,
        "備考": ""
      }
    },
    {
      "type": "Feature",
      "geometry": {
        "type": "Point",
        "coordinates": [
          138.918991,
          37.748074
        ]
      },
      "properties": {
        "NO": 29615,
        "共通ID": "E1510000203111",
        "都道府県名及び市町村名": "新潟県新潟市",
        "施設・場所名": "漆山公民館",
        "住所": "新潟県新潟市西蒲区馬堀6001-56",
        "指定緊急避難場所との住所同一": "1",
        "その他市町村長が必要と認める事項": null,
        "受入対象者": null,
        "備考": ""
      }
    },
    {
      "type": "Feature",
      "geometry": {
        "type": "Point",
        "coordinates": [
          138.914772,
          37.734931
        ]
      },
      "properties": {
        "NO": 29616,
        "共通ID": "E1510000204111",
        "都道府県名及び市町村名": "新潟県新潟市",
        "施設・場所名": "漆山西保育園",
        "住所": "新潟県新潟市西蒲区並岡10-2",
        "指定緊急避難場所との住所同一": "1",
        "その他市町村長が必要と認める事項": null,
        "受入対象者": null,
        "備考": ""
      }
    },
    {
      "type": "Feature",
      "geometry": {
        "type": "Point",
        "coordinates": [
          138.845141,
          37.756622
        ]
      },
      "properties": {
        "NO": 29617,
        "共通ID": "E1510000205111",
        "都道府県名及び市町村名": "新潟県新潟市",
        "施設・場所名": "入徳館野外研修場",
        "住所": "新潟県新潟市西蒲区峰岡444-2",
        "指定緊急避難場所との住所同一": "1",
        "その他市町村長が必要と認める事項": null,
        "受入対象者": null,
        "備考": ""
      }
    },
    {
      "type": "Feature",
      "geometry": {
        "type": "Point",
        "coordinates": [
          138.854489,
          37.764296
        ]
      },
      "properties": {
        "NO": 29618,
        "共通ID": "E1510000206111",
        "都道府県名及び市町村名": "新潟県新潟市",
        "施設・場所名": "城山運動公園（管理棟・屋内コート）",
        "住所": "新潟県新潟市西蒲区峰岡580",
        "指定緊急避難場所との住所同一": "1",
        "その他市町村長が必要と認める事項": null,
        "受入対象者": null,
        "備考": ""
      }
    },
    {
      "type": "Feature",
      "geometry": {
        "type": "Point",
        "coordinates": [
          138.876283,
          37.755897
        ]
      },
      "properties": {
        "NO": 29619,
        "共通ID": "E1510000207111",
        "都道府県名及び市町村名": "新潟県新潟市",
        "施設・場所名": "巻南小学校",
        "住所": "新潟県新潟市西蒲区堀山新田1301",
        "指定緊急避難場所との住所同一": "1",
        "その他市町村長が必要と認める事項": null,
        "受入対象者": null,
        "備考": ""
      }
    },
    {
      "type": "Feature",
      "geometry": {
        "type": "Point",
        "coordinates": [
          138.881925,
          37.758476
        ]
      },
      "properties": {
        "NO": 29620,
        "共通ID": "E1510000208111",
        "都道府県名及び市町村名": "新潟県新潟市",
        "施設・場所名": "西蒲高等特別支援学校",
        "住所": "新潟県新潟市西蒲区堀山新田51-1",
        "指定緊急避難場所との住所同一": "1",
        "その他市町村長が必要と認める事項": null,
        "受入対象者": null,
        "備考": ""
      }
    },
    {
      "type": "Feature",
      "geometry": {
        "type": "Point",
        "coordinates": [
          138.881651,
          37.759126
        ]
      },
      "properties": {
        "NO": 29621,
        "共通ID": "E1510000209121",
        "都道府県名及び市町村名": "新潟県新潟市",
        "施設・場所名": "市立西特別支援学校",
        "住所": "新潟県新潟市西蒲区堀山新田88",
        "指定緊急避難場所との住所同一": "",
        "その他市町村長が必要と認める事項": null,
        "受入対象者": "在校生及び市が特定した者",
        "備考": ""
      }
    },
    {
      "type": "Feature",
      "geometry": {
        "type": "Point",
        "coordinates": [
          138.885402,
          37.722671
        ]
      },
      "properties": {
        "NO": 29622,
        "共通ID": "E1510000211111",
        "都道府県名及び市町村名": "新潟県新潟市",
        "施設・場所名": "和納小学校",
        "住所": "新潟県新潟市西蒲区和納1212",
        "指定緊急避難場所との住所同一": "1",
        "その他市町村長が必要と認める事項": null,
        "受入対象者": null,
        "備考": ""
      }
    },
    {
      "type": "Feature",
      "geometry": {
        "type": "Point",
        "coordinates": [
          138.876616,
          37.72766
        ]
      },
      "properties": {
        "NO": 29623,
        "共通ID": "E1510000212111",
        "都道府県名及び市町村名": "新潟県新潟市",
        "施設・場所名": "岩室農村環境改善センター",
        "住所": "新潟県新潟市西蒲区和納2-21-1",
        "指定緊急避難場所との住所同一": "1",
        "その他市町村長が必要と認める事項": null,
        "受入対象者": null,
        "備考": ""
      }
    },
    {
      "type": "Feature",
      "geometry": {
        "type": "Point",
        "coordinates": [
          138.864743,
          37.75708
        ]
      },
      "properties": {
        "NO": 29624,
        "共通ID": "E1510000214111",
        "都道府県名及び市町村名": "新潟県新潟市",
        "施設・場所名": "峰岡公民館",
        "住所": "新潟県新潟市西蒲区鷲ノ木1633-9",
        "指定緊急避難場所との住所同一": "1",
        "その他市町村長が必要と認める事項": null,
        "受入対象者": null,
        "備考": ""
      }
    },
    {
      "type": "Feature",
      "geometry": {
        "type": "Point",
        "coordinates": [
          138.902258,
          37.817586
        ]
      },
      "properties": {
        "NO": 29625,
        "共通ID": "E1510000217111",
        "都道府県名及び市町村名": "新潟県新潟市",
        "施設・場所名": "新潟国際情報大学",
        "住所": "新潟県新潟市西区みずき野3-1-1",
        "指定緊急避難場所との住所同一": "1",
        "その他市町村長が必要と認める事項": null,
        "受入対象者": null,
        "備考": ""
      }
    },
    {
      "type": "Feature",
      "geometry": {
        "type": "Point",
        "coordinates": [
          138.946722,
          37.842039
        ]
      },
      "properties": {
        "NO": 29626,
        "共通ID": "E1510000220111",
        "都道府県名及び市町村名": "新潟県新潟市",
        "施設・場所名": "笠木小学校",
        "住所": "新潟県新潟市西区笠木1695",
        "指定緊急避難場所との住所同一": "1",
        "その他市町村長が必要と認める事項": null,
        "受入対象者": null,
        "備考": ""
      }
    },
    {
      "type": "Feature",
      "geometry": {
        "type": "Point",
        "coordinates": [
          138.997909,
          37.838971
        ]
      },
      "properties": {
        "NO": 29627,
        "共通ID": "E1510000222111",
        "都道府県名及び市町村名": "新潟県新潟市",
        "施設・場所名": "新潟翠江高等学校",
        "住所": "新潟県新潟市西区金巻1657",
        "指定緊急避難場所との住所同一": "1",
        "その他市町村長が必要と認める事項": null,
        "受入対象者": null,
        "備考": ""
      }
    },
    {
      "type": "Feature",
      "geometry": {
        "type": "Point",
        "coordinates": [
          138.940353,
          37.868213
        ]
      },
      "properties": {
        "NO": 29628,
        "共通ID": "E1510000223111",
        "都道府県名及び市町村名": "新潟県新潟市",
        "施設・場所名": "新潟大学（体育館）",
        "住所": "新潟県新潟市西区五十嵐２の町8050",
        "指定緊急避難場所との住所同一": "1",
        "その他市町村長が必要と認める事項": null,
        "受入対象者": null,
        "備考": ""
      }
    },
    {
      "type": "Feature",
      "geometry": {
        "type": "Point",
        "coordinates": [
          138.986834,
          37.880406
        ]
      },
      "properties": {
        "NO": 29629,
        "共通ID": "E1510000225111",
        "都道府県名及び市町村名": "新潟県新潟市",
        "施設・場所名": "坂井輪小学校",
        "住所": "新潟県新潟市西区坂井東1-2-1",
        "指定緊急避難場所との住所同一": "1",
        "その他市町村長が必要と認める事項": null,
        "受入対象者": null,
        "備考": ""
      }
    },
    {
      "type": "Feature",
      "geometry": {
        "type": "Point",
        "coordinates": [
          138.971394,
          37.867644
        ]
      },
      "properties": {
        "NO": 29630,
        "共通ID": "E1510000226111",
        "都道府県名及び市町村名": "新潟県新潟市",
        "施設・場所名": "坂井東小学校",
        "住所": "新潟県新潟市西区坂井東5-17-1",
        "指定緊急避難場所との住所同一": "1",
        "その他市町村長が必要と認める事項": null,
        "受入対象者": null,
        "備考": ""
      }
    },
    {
      "type": "Feature",
      "geometry": {
        "type": "Point",
        "coordinates": [
          138.964419,
          37.870462
        ]
      },
      "properties": {
        "NO": 29631,
        "共通ID": "E1510000227111",
        "都道府県名及び市町村名": "新潟県新潟市",
        "施設・場所名": "新通小学校",
        "住所": "新潟県新潟市西区坂井東6-18-1",
        "指定緊急避難場所との住所同一": "1",
        "その他市町村長が必要と認める事項": null,
        "受入対象者": null,
        "備考": ""
      }
    },
    {
      "type": "Feature",
      "geometry": {
        "type": "Point",
        "coordinates": [
          139.012466,
          37.869037
        ]
      },
      "properties": {
        "NO": 29632,
        "共通ID": "E1510000228111",
        "都道府県名及び市町村名": "新潟県新潟市",
        "施設・場所名": "山田小学校",
        "住所": "新潟県新潟市西区山田2781-2",
        "指定緊急避難場所との住所同一": "1",
        "その他市町村長が必要と認める事項": null,
        "受入対象者": null,
        "備考": ""
      }
    },
    {
      "type": "Feature",
      "geometry": {
        "type": "Point",
        "coordinates": [
          138.970072,
          37.874659
        ]
      },
      "properties": {
        "NO": 29633,
        "共通ID": "E1510000230111",
        "都道府県名及び市町村名": "新潟県新潟市",
        "施設・場所名": "坂井輪中学校",
        "住所": "新潟県新潟市西区寺尾上3-1-36",
        "指定緊急避難場所との住所同一": "1",
        "その他市町村長が必要と認める事項": null,
        "受入対象者": null,
        "備考": ""
      }
    },
    {
      "type": "Feature",
      "geometry": {
        "type": "Point",
        "coordinates": [
          138.961022,
          37.879
        ]
      },
      "properties": {
        "NO": 29634,
        "共通ID": "E1510000231111",
        "都道府県名及び市町村名": "新潟県新潟市",
        "施設・場所名": "五十嵐小学校",
        "住所": "新潟県新潟市西区寺尾西4-23-1",
        "指定緊急避難場所との住所同一": "1",
        "その他市町村長が必要と認める事項": null,
        "受入対象者": null,
        "備考": ""
      }
    },
    {
      "type": "Feature",
      "geometry": {
        "type": "Point",
        "coordinates": [
          138.995245,
          37.876371
        ]
      },
      "properties": {
        "NO": 29635,
        "共通ID": "E1510000235111",
        "都道府県名及び市町村名": "新潟県新潟市",
        "施設・場所名": "新潟工業高等学校",
        "住所": "新潟県新潟市西区小新西1-5-1",
        "指定緊急避難場所との住所同一": "1",
        "その他市町村長が必要と認める事項": null,
        "受入対象者": null,
        "備考": ""
      }
    },
    {
      "type": "Feature",
      "geometry": {
        "type": "Point",
        "coordinates": [
          138.993389,
          37.872626
        ]
      },
      "properties": {
        "NO": 29636,
        "共通ID": "E1510000236111",
        "都道府県名及び市町村名": "新潟県新潟市",
        "施設・場所名": "小新中学校",
        "住所": "新潟県新潟市西区小新西3-18-1",
        "指定緊急避難場所との住所同一": "1",
        "その他市町村長が必要と認める事項": null,
        "受入対象者": null,
        "備考": ""
      }
    },
    {
      "type": "Feature",
      "geometry": {
        "type": "Point",
        "coordinates": [
          139.002304,
          37.887813
        ]
      },
      "properties": {
        "NO": 29637,
        "共通ID": "E1510000237111",
        "都道府県名及び市町村名": "新潟県新潟市",
        "施設・場所名": "小針中学校",
        "住所": "新潟県新潟市西区小針1-37-1",
        "指定緊急避難場所との住所同一": "1",
        "その他市町村長が必要と認める事項": null,
        "受入対象者": null,
        "備考": ""
      }
    },
    {
      "type": "Feature",
      "geometry": {
        "type": "Point",
        "coordinates": [
          138.995998,
          37.888865
        ]
      },
      "properties": {
        "NO": 29638,
        "共通ID": "E1510000238111",
        "都道府県名及び市町村名": "新潟県新潟市",
        "施設・場所名": "小針小学校",
        "住所": "新潟県新潟市西区小針2-36-1",
        "指定緊急避難場所との住所同一": "1",
        "その他市町村長が必要と認める事項": null,
        "受入対象者": null,
        "備考": ""
      }
    },
    {
      "type": "Feature",
      "geometry": {
        "type": "Point",
        "coordinates": [
          138.985441,
          37.886691
        ]
      },
      "properties": {
        "NO": 29639,
        "共通ID": "E1510000239111",
        "都道府県名及び市町村名": "新潟県新潟市",
        "施設・場所名": "坂井輪コミュニティセンター",
        "住所": "新潟県新潟市西区小針西1-12-12",
        "指定緊急避難場所との住所同一": "1",
        "その他市町村長が必要と認める事項": null,
        "受入対象者": null,
        "備考": ""
      }
    },
    {
      "type": "Feature",
      "geometry": {
        "type": "Point",
        "coordinates": [
          138.92929,
          37.823094
        ]
      },
      "properties": {
        "NO": 29640,
        "共通ID": "E1510000240111",
        "都道府県名及び市町村名": "新潟県新潟市",
        "施設・場所名": "小瀬小学校",
        "住所": "新潟県新潟市西区小瀬637",
        "指定緊急避難場所との住所同一": "1",
        "その他市町村長が必要と認める事項": null,
        "受入対象者": null,
        "備考": ""
      }
    },
    {
      "type": "Feature",
      "geometry": {
        "type": "Point",
        "coordinates": [
          138.967515,
          37.881033
        ]
      },
      "properties": {
        "NO": 29641,
        "共通ID": "E1510000241111",
        "都道府県名及び市町村名": "新潟県新潟市",
        "施設・場所名": "五十嵐コミュニティハウス",
        "住所": "新潟県新潟市西区上新栄町4-5-68",
        "指定緊急避難場所との住所同一": "1",
        "その他市町村長が必要と認める事項": null,
        "受入対象者": null,
        "備考": ""
      }
    },
    {
      "type": "Feature",
      "geometry": {
        "type": "Point",
        "coordinates": [
          138.965157,
          37.885295
        ]
      },
      "properties": {
        "NO": 29642,
        "共通ID": "E1510000242111",
        "都道府県名及び市町村名": "新潟県新潟市",
        "施設・場所名": "五十嵐中学校",
        "住所": "新潟県新潟市西区上新栄町5-3-1",
        "指定緊急避難場所との住所同一": "1",
        "その他市町村長が必要と認める事項": null,
        "受入対象者": null,
        "備考": ""
      }
    },
    {
      "type": "Feature",
      "geometry": {
        "type": "Point",
        "coordinates": [
          138.949585,
          37.858735
        ]
      },
      "properties": {
        "NO": 29643,
        "共通ID": "E1510000245111",
        "都道府県名及び市町村名": "新潟県新潟市",
        "施設・場所名": "日本文理高等学校",
        "住所": "新潟県新潟市西区新通1072",
        "指定緊急避難場所との住所同一": "1",
        "その他市町村長が必要と認める事項": null,
        "受入対象者": null,
        "備考": ""
      }
    },
    {
      "type": "Feature",
      "geometry": {
        "type": "Point",
        "coordinates": [
          138.980824,
          37.891805
        ]
      },
      "properties": {
        "NO": 29644,
        "共通ID": "E1510000246111",
        "都道府県名及び市町村名": "新潟県新潟市",
        "施設・場所名": "真砂小学校",
        "住所": "新潟県新潟市西区真砂3-24-1",
        "指定緊急避難場所との住所同一": "1",
        "その他市町村長が必要と認める事項": null,
        "受入対象者": null,
        "備考": ""
      }
    },
    {
      "type": "Feature",
      "geometry": {
        "type": "Point",
        "coordinates": [
          138.98952,
          37.897433
        ]
      },
      "properties": {
        "NO": 29645,
        "共通ID": "E1510000247111",
        "都道府県名及び市町村名": "新潟県新潟市",
        "施設・場所名": "青山小学校",
        "住所": "新潟県新潟市西区西有明町4-1",
        "指定緊急避難場所との住所同一": "1",
        "その他市町村長が必要と認める事項": null,
        "受入対象者": null,
        "備考": ""
      }
    },
    {
      "type": "Feature",
      "geometry": {
        "type": "Point",
        "coordinates": [
          139.008124,
          37.895561
        ]
      },
      "properties": {
        "NO": 29646,
        "共通ID": "E1510000248111",
        "都道府県名及び市町村名": "新潟県新潟市",
        "施設・場所名": "東青山小学校",
        "住所": "新潟県新潟市西区青山261-1",
        "指定緊急避難場所との住所同一": "1",
        "その他市町村長が必要と認める事項": null,
        "受入対象者": null,
        "備考": ""
      }
    },
    {
      "type": "Feature",
      "geometry": {
        "type": "Point",
        "coordinates": [
          138.997432,
          37.900625
        ]
      },
      "properties": {
        "NO": 29647,
        "共通ID": "E1510000249111",
        "都道府県名及び市町村名": "新潟県新潟市",
        "施設・場所名": "青山コミュニティハウス",
        "住所": "新潟県新潟市西区青山6-16-20",
        "指定緊急避難場所との住所同一": "1",
        "その他市町村長が必要と認める事項": null,
        "受入対象者": null,
        "備考": ""
      }
    },
    {
      "type": "Feature",
      "geometry": {
        "type": "Point",
        "coordinates": [
          138.883203,
          37.814926
        ]
      },
      "properties": {
        "NO": 29648,
        "共通ID": "E1510000252111",
        "都道府県名及び市町村名": "新潟県新潟市",
        "施設・場所名": "赤塚小学校",
        "住所": "新潟県新潟市西区赤塚4478",
        "指定緊急避難場所との住所同一": "1",
        "その他市町村長が必要と認める事項": null,
        "受入対象者": null,
        "備考": ""
      }
    },
    {
      "type": "Feature",
      "geometry": {
        "type": "Point",
        "coordinates": [
          138.877946,
          37.820509
        ]
      },
      "properties": {
        "NO": 29649,
        "共通ID": "E1510000254111",
        "都道府県名及び市町村名": "新潟県新潟市",
        "施設・場所名": "赤塚中学校",
        "住所": "新潟県新潟市西区赤塚5590",
        "指定緊急避難場所との住所同一": "1",
        "その他市町村長が必要と認める事項": null,
        "受入対象者": null,
        "備考": ""
      }
    },
    {
      "type": "Feature",
      "geometry": {
        "type": "Point",
        "coordinates": [
          138.953202,
          37.863393
        ]
      },
      "properties": {
        "NO": 29650,
        "共通ID": "E1510000256111",
        "都道府県名及び市町村名": "新潟県新潟市",
        "施設・場所名": "新通つばさ小学校",
        "住所": "新潟県新潟市西区大野137",
        "指定緊急避難場所との住所同一": "1",
        "その他市町村長が必要と認める事項": null,
        "受入対象者": null,
        "備考": ""
      }
    },
    {
      "type": "Feature",
      "geometry": {
        "type": "Point",
        "coordinates": [
          139.013049,
          37.846788
        ]
      },
      "properties": {
        "NO": 29651,
        "共通ID": "E1510000257111",
        "都道府県名及び市町村名": "新潟県新潟市",
        "施設・場所名": "黒埼中学校",
        "住所": "新潟県新潟市西区大野町2540-1",
        "指定緊急避難場所との住所同一": "1",
        "その他市町村長が必要と認める事項": null,
        "受入対象者": null,
        "備考": ""
      }
    },
    {
      "type": "Feature",
      "geometry": {
        "type": "Point",
        "coordinates": [
          139.018717,
          37.845051
        ]
      },
      "properties": {
        "NO": 29652,
        "共通ID": "E1510000258111",
        "都道府県名及び市町村名": "新潟県新潟市",
        "施設・場所名": "大野小学校",
        "住所": "新潟県新潟市西区大野町３１４０乙",
        "指定緊急避難場所との住所同一": "",
        "その他市町村長が必要と認める事項": null,
        "受入対象者": null,
        "備考": ""
      }
    },
    {
      "type": "Feature",
      "geometry": {
        "type": "Point",
        "coordinates": [
          138.89202,
          37.833575
        ]
      },
      "properties": {
        "NO": 29653,
        "共通ID": "E1510000260111",
        "都道府県名及び市町村名": "新潟県新潟市",
        "施設・場所名": "木山小学校",
        "住所": "新潟県新潟市西区谷内1886",
        "指定緊急避難場所との住所同一": "1",
        "その他市町村長が必要と認める事項": null,
        "受入対象者": null,
        "備考": ""
      }
    },
    {
      "type": "Feature",
      "geometry": {
        "type": "Point",
        "coordinates": [
          138.933874,
          37.825519
        ]
      },
      "properties": {
        "NO": 29654,
        "共通ID": "E1510000261111",
        "都道府県名及び市町村名": "新潟県新潟市",
        "施設・場所名": "中野小屋中学校",
        "住所": "新潟県新潟市西区中野小屋932",
        "指定緊急避難場所との住所同一": "1",
        "その他市町村長が必要と認める事項": null,
        "受入対象者": null,
        "備考": ""
      }
    },
    {
      "type": "Feature",
      "geometry": {
        "type": "Point",
        "coordinates": [
          139.010816,
          37.856415
        ]
      },
      "properties": {
        "NO": 29655,
        "共通ID": "E1510000262111",
        "都道府県名及び市町村名": "新潟県新潟市",
        "施設・場所名": "黒埼市民会館",
        "住所": "新潟県新潟市西区鳥原909-1",
        "指定緊急避難場所との住所同一": "1",
        "その他市町村長が必要と認める事項": null,
        "受入対象者": null,
        "備考": ""
      }
    },
    {
      "type": "Feature",
      "geometry": {
        "type": "Point",
        "coordinates": [
          138.935287,
          37.859013
        ]
      },
      "properties": {
        "NO": 29656,
        "共通ID": "E1510000264111",
        "都道府県名及び市町村名": "新潟県新潟市",
        "施設・場所名": "内野小学校",
        "住所": "新潟県新潟市西区内野山手2-18-36",
        "指定緊急避難場所との住所同一": "1",
        "その他市町村長が必要と認める事項": null,
        "受入対象者": null,
        "備考": ""
      }
    },
    {
      "type": "Feature",
      "geometry": {
        "type": "Point",
        "coordinates": [
          138.91272,
          37.849963
        ]
      },
      "properties": {
        "NO": 29657,
        "共通ID": "E1510000265111",
        "都道府県名及び市町村名": "新潟県新潟市",
        "施設・場所名": "西コミュニティセンター",
        "住所": "新潟県新潟市西区内野上新町11810",
        "指定緊急避難場所との住所同一": "1",
        "その他市町村長が必要と認める事項": null,
        "受入対象者": null,
        "備考": ""
      }
    },
    {
      "type": "Feature",
      "geometry": {
        "type": "Point",
        "coordinates": [
          138.911879,
          37.850192
        ]
      },
      "properties": {
        "NO": 29658,
        "共通ID": "E1510000266111",
        "都道府県名及び市町村名": "新潟県新潟市",
        "施設・場所名": "西内野小学校",
        "住所": "新潟県新潟市西区内野上新町308-1",
        "指定緊急避難場所との住所同一": "1",
        "その他市町村長が必要と認める事項": null,
        "受入対象者": null,
        "備考": ""
      }
    },
    {
      "type": "Feature",
      "geometry": {
        "type": "Point",
        "coordinates": [
          138.931171,
          37.855679
        ]
      },
      "properties": {
        "NO": 29659,
        "共通ID": "E1510000267111",
        "都道府県名及び市町村名": "新潟県新潟市",
        "施設・場所名": "内野中学校",
        "住所": "新潟県新潟市西区内野西1-10-1",
        "指定緊急避難場所との住所同一": "1",
        "その他市町村長が必要と認める事項": null,
        "受入対象者": null,
        "備考": ""
      }
    },
    {
      "type": "Feature",
      "geometry": {
        "type": "Point",
        "coordinates": [
          138.919823,
          37.847164
        ]
      },
      "properties": {
        "NO": 29660,
        "共通ID": "E1510000268111",
        "都道府県名及び市町村名": "新潟県新潟市",
        "施設・場所名": "新潟西高等学校",
        "住所": "新潟県新潟市西区内野西が丘3-24-1",
        "指定緊急避難場所との住所同一": "1",
        "その他市町村長が必要と認める事項": null,
        "受入対象者": null,
        "備考": ""
      }
    },
    {
      "type": "Feature",
      "geometry": {
        "type": "Point",
        "coordinates": [
          138.989404,
          37.829889
        ]
      },
      "properties": {
        "NO": 29661,
        "共通ID": "E1510000273111",
        "都道府県名及び市町村名": "新潟県新潟市",
        "施設・場所名": "黒埼南小学校",
        "住所": "新潟県新潟市西区木場911-1",
        "指定緊急避難場所との住所同一": "1",
        "その他市町村長が必要と認める事項": null,
        "受入対象者": null,
        "備考": ""
      }
    },
    {
      "type": "Feature",
      "geometry": {
        "type": "Point",
        "coordinates": [
          139.002876,
          37.872872
        ]
      },
      "properties": {
        "NO": 29662,
        "共通ID": "E1510000274111",
        "都道府県名及び市町村名": "新潟県新潟市",
        "施設・場所名": "立仏小学校",
        "住所": "新潟県新潟市西区立仏950",
        "指定緊急避難場所との住所同一": "1",
        "その他市町村長が必要と認める事項": null,
        "受入対象者": null,
        "備考": ""
      }
    },
    {
      "type": "Feature",
      "geometry": {
        "type": "Point",
        "coordinates": [
          139.054902,
          37.933095
        ]
      },
      "properties": {
        "NO": 29663,
        "共通ID": "E1510000279111",
        "都道府県名及び市町村名": "新潟県新潟市",
        "施設・場所名": "北部総合コミュニティセンター",
        "住所": "新潟県新潟市中央区稲荷町3511-1",
        "指定緊急避難場所との住所同一": "1",
        "その他市町村長が必要と認める事項": null,
        "受入対象者": null,
        "備考": ""
      }
    },
    {
      "type": "Feature",
      "geometry": {
        "type": "Point",
        "coordinates": [
          139.079728,
          37.892534
        ]
      },
      "properties": {
        "NO": 29664,
        "共通ID": "E1510000280111",
        "都道府県名及び市町村名": "新潟県新潟市",
        "施設・場所名": "桜が丘小学校",
        "住所": "新潟県新潟市中央区姥ケ山6-1-21",
        "指定緊急避難場所との住所同一": "1",
        "その他市町村長が必要と認める事項": null,
        "受入対象者": null,
        "備考": ""
      }
    },
    {
      "type": "Feature",
      "geometry": {
        "type": "Point",
        "coordinates": [
          139.037626,
          37.923047
        ]
      },
      "properties": {
        "NO": 29665,
        "共通ID": "E1510000282111",
        "都道府県名及び市町村名": "新潟県新潟市",
        "施設・場所名": "寄居中学校",
        "住所": "新潟県新潟市中央区営所通２－町592-12",
        "指定緊急避難場所との住所同一": "",
        "その他市町村長が必要と認める事項": null,
        "受入対象者": null,
        "備考": ""
      }
    },
    {
      "type": "Feature",
      "geometry": {
        "type": "Point",
        "coordinates": [
          139.050036,
          37.93609
        ]
      },
      "properties": {
        "NO": 29666,
        "共通ID": "E1510000284111",
        "都道府県名及び市町村名": "新潟県新潟市",
        "施設・場所名": "新潟柳都中学校",
        "住所": "新潟県新潟市中央区栄町3-4213",
        "指定緊急避難場所との住所同一": "1",
        "その他市町村長が必要と認める事項": null,
        "受入対象者": null,
        "備考": ""
      }
    },
    {
      "type": "Feature",
      "geometry": {
        "type": "Point",
        "coordinates": [
          139.048763,
          37.935323
        ]
      },
      "properties": {
        "NO": 29667,
        "共通ID": "E1510000285111",
        "都道府県名及び市町村名": "新潟県新潟市",
        "施設・場所名": "日和山小学校",
        "住所": "新潟県新潟市中央区栄町3-5930-2",
        "指定緊急避難場所との住所同一": "1",
        "その他市町村長が必要と認める事項": null,
        "受入対象者": null,
        "備考": ""
      }
    },
    {
      "type": "Feature",
      "geometry": {
        "type": "Point",
        "coordinates": [
          139.030897,
          37.918107
        ]
      },
      "properties": {
        "NO": 29668,
        "共通ID": "E1510000286111",
        "都道府県名及び市町村名": "新潟県新潟市",
        "施設・場所名": "新潟中央高等学校",
        "住所": "新潟県新潟市中央区学校町通２番町5317-1",
        "指定緊急避難場所との住所同一": "1",
        "その他市町村長が必要と認める事項": null,
        "受入対象者": null,
        "備考": ""
      }
    },
    {
      "type": "Feature",
      "geometry": {
        "type": "Point",
        "coordinates": [
          139.025421,
          37.916096
        ]
      },
      "properties": {
        "NO": 29669,
        "共通ID": "E1510000288111",
        "都道府県名及び市町村名": "新潟県新潟市",
        "施設・場所名": "関屋小学校",
        "住所": "新潟県新潟市中央区関屋下川原2-664",
        "指定緊急避難場所との住所同一": "1",
        "その他市町村長が必要と認める事項": null,
        "受入対象者": null,
        "備考": ""
      }
    },
    {
      "type": "Feature",
      "geometry": {
        "type": "Point",
        "coordinates": [
          139.023421,
          37.914982
        ]
      },
      "properties": {
        "NO": 29670,
        "共通ID": "E1510000290111",
        "都道府県名及び市町村名": "新潟県新潟市",
        "施設・場所名": "新潟高等学校",
        "住所": "新潟県新潟市中央区関屋下川原町2-635",
        "指定緊急避難場所との住所同一": "1",
        "その他市町村長が必要と認める事項": null,
        "受入対象者": null,
        "備考": ""
      }
    },
    {
      "type": "Feature",
      "geometry": {
        "type": "Point",
        "coordinates": [
          139.018908,
          37.909026
        ]
      },
      "properties": {
        "NO": 29671,
        "共通ID": "E1510000292111",
        "都道府県名及び市町村名": "新潟県新潟市",
        "施設・場所名": "関屋地区公民館",
        "住所": "新潟県新潟市中央区関屋昭和町3-148-1",
        "指定緊急避難場所との住所同一": "1",
        "その他市町村長が必要と認める事項": null,
        "受入対象者": null,
        "備考": ""
      }
    },
    {
      "type": "Feature",
      "geometry": {
        "type": "Point",
        "coordinates": [
          139.074508,
          37.915995
        ]
      },
      "properties": {
        "NO": 29672,
        "共通ID": "E1510000294111",
        "都道府県名及び市町村名": "新潟県新潟市",
        "施設・場所名": "沼垂小学校",
        "住所": "新潟県新潟市中央区鏡が岡5-5",
        "指定緊急避難場所との住所同一": "1",
        "その他市町村長が必要と認める事項": null,
        "受入対象者": null,
        "備考": ""
      }
    },
    {
      "type": "Feature",
      "geometry": {
        "type": "Point",
        "coordinates": [
          139.044185,
          37.902764
        ]
      },
      "properties": {
        "NO": 29673,
        "共通ID": "E1510000295111",
        "都道府県名及び市町村名": "新潟県新潟市",
        "施設・場所名": "上所小学校",
        "住所": "新潟県新潟市中央区近江3-2-1",
        "指定緊急避難場所との住所同一": "1",
        "その他市町村長が必要と認める事項": null,
        "受入対象者": null,
        "備考": ""
      }
    },
    {
      "type": "Feature",
      "geometry": {
        "type": "Point",
        "coordinates": [
          139.044192,
          37.931718
        ]
      },
      "properties": {
        "NO": 29674,
        "共通ID": "E1510000296111",
        "都道府県名及び市町村名": "新潟県新潟市",
        "施設・場所名": "二葉コミュニティハウス",
        "住所": "新潟県新潟市中央区古町通１３番町5148-2",
        "指定緊急避難場所との住所同一": "1",
        "その他市町村長が必要と認める事項": null,
        "受入対象者": null,
        "備考": ""
      }
    },
    {
      "type": "Feature",
      "geometry": {
        "type": "Point",
        "coordinates": [
          139.050423,
          37.913453
        ]
      },
      "properties": {
        "NO": 29675,
        "共通ID": "E1510000297111",
        "都道府県名及び市町村名": "新潟県新潟市",
        "施設・場所名": "南万代小学校",
        "住所": "新潟県新潟市中央区幸西4-1-1",
        "指定緊急避難場所との住所同一": "1",
        "その他市町村長が必要と認める事項": null,
        "受入対象者": null,
        "備考": ""
      }
    },
    {
      "type": "Feature",
      "geometry": {
        "type": "Point",
        "coordinates": [
          139.074033,
          37.897132
        ]
      },
      "properties": {
        "NO": 29676,
        "共通ID": "E1510000298111",
        "都道府県名及び市町村名": "新潟県新潟市",
        "施設・場所名": "高志中等教育学校",
        "住所": "新潟県新潟市中央区高志1-15-1",
        "指定緊急避難場所との住所同一": "1",
        "その他市町村長が必要と認める事項": null,
        "受入対象者": null,
        "備考": ""
      }
    },
    {
      "type": "Feature",
      "geometry": {
        "type": "Point",
        "coordinates": [
          139.06862,
          37.912103
        ]
      },
      "properties": {
        "NO": 29677,
        "共通ID": "E1510000300111",
        "都道府県名及び市町村名": "新潟県新潟市",
        "施設・場所名": "笹口小学校",
        "住所": "新潟県新潟市中央区笹口2-47",
        "指定緊急避難場所との住所同一": "1",
        "その他市町村長が必要と認める事項": null,
        "受入対象者": null,
        "備考": ""
      }
    },
    {
      "type": "Feature",
      "geometry": {
        "type": "Point",
        "coordinates": [
          139.085384,
          37.888722
        ]
      },
      "properties": {
        "NO": 29678,
        "共通ID": "E1510000302111",
        "都道府県名及び市町村名": "新潟県新潟市",
        "施設・場所名": "山潟中学校",
        "住所": "新潟県新潟市中央区山二ツ1-1",
        "指定緊急避難場所との住所同一": "1",
        "その他市町村長が必要と認める事項": null,
        "受入対象者": null,
        "備考": ""
      }
    },
    {
      "type": "Feature",
      "geometry": {
        "type": "Point",
        "coordinates": [
          139.059675,
          37.898629
        ]
      },
      "properties": {
        "NO": 29679,
        "共通ID": "E1510000303111",
        "都道府県名及び市町村名": "新潟県新潟市",
        "施設・場所名": "紫竹山小学校",
        "住所": "新潟県新潟市中央区紫竹山1-12-1",
        "指定緊急避難場所との住所同一": "1",
        "その他市町村長が必要と認める事項": null,
        "受入対象者": null,
        "備考": ""
      }
    },
    {
      "type": "Feature",
      "geometry": {
        "type": "Point",
        "coordinates": [
          139.039263,
          37.896838
        ]
      },
      "properties": {
        "NO": 29680,
        "共通ID": "E1510000304111",
        "都道府県名及び市町村名": "新潟県新潟市",
        "施設・場所名": "鳥屋野中学校",
        "住所": "新潟県新潟市中央区女池4-31-1",
        "指定緊急避難場所との住所同一": "1",
        "その他市町村長が必要と認める事項": null,
        "受入対象者": null,
        "備考": ""
      }
    },
    {
      "type": "Feature",
      "geometry": {
        "type": "Point",
        "coordinates": [
          139.043716,
          37.892497
        ]
      },
      "properties": {
        "NO": 29681,
        "共通ID": "E1510000305111",
        "都道府県名及び市町村名": "新潟県新潟市",
        "施設・場所名": "女池小学校",
        "住所": "新潟県新潟市中央区女池6-4-1",
        "指定緊急避難場所との住所同一": "1",
        "その他市町村長が必要と認める事項": null,
        "受入対象者": null,
        "備考": ""
      }
    },
    {
      "type": "Feature",
      "geometry": {
        "type": "Point",
        "coordinates": [
          139.03125,
          37.89561
        ]
      },
      "properties": {
        "NO": 29682,
        "共通ID": "E1510000306111",
        "都道府県名及び市町村名": "新潟県新潟市",
        "施設・場所名": "上山小学校",
        "住所": "新潟県新潟市中央区女池上山1-1-28",
        "指定緊急避難場所との住所同一": "1",
        "その他市町村長が必要と認める事項": null,
        "受入対象者": null,
        "備考": ""
      }
    },
    {
      "type": "Feature",
      "geometry": {
        "type": "Point",
        "coordinates": [
          139.028762,
          37.895203
        ]
      },
      "properties": {
        "NO": 29683,
        "共通ID": "E1510000307111",
        "都道府県名及び市町村名": "新潟県新潟市",
        "施設・場所名": "上山中学校",
        "住所": "新潟県新潟市中央区女池上山5-1-13",
        "指定緊急避難場所との住所同一": "1",
        "その他市町村長が必要と認める事項": null,
        "受入対象者": null,
        "備考": ""
      }
    },
    {
      "type": "Feature",
      "geometry": {
        "type": "Point",
        "coordinates": [
          139.042828,
          37.887703
        ]
      },
      "properties": {
        "NO": 29684,
        "共通ID": "E1510000308111",
        "都道府県名及び市町村名": "新潟県新潟市",
        "施設・場所名": "新潟江南高等学校",
        "住所": "新潟県新潟市中央区女池南3-6-1",
        "指定緊急避難場所との住所同一": "1",
        "その他市町村長が必要と認める事項": null,
        "受入対象者": null,
        "備考": ""
      }
    },
    {
      "type": "Feature",
      "geometry": {
        "type": "Point",
        "coordinates": [
          139.06881,
          37.927222
        ]
      },
      "properties": {
        "NO": 29685,
        "共通ID": "E1510000311111",
        "都道府県名及び市町村名": "新潟県新潟市",
        "施設・場所名": "明鏡高等学校",
        "住所": "新潟県新潟市中央区沼垂東6-11-1",
        "指定緊急避難場所との住所同一": "1",
        "その他市町村長が必要と認める事項": null,
        "受入対象者": null,
        "備考": ""
      }
    },
    {
      "type": "Feature",
      "geometry": {
        "type": "Point",
        "coordinates": [
          139.069126,
          37.926084
        ]
      },
      "properties": {
        "NO": 29686,
        "共通ID": "E1510000312111",
        "都道府県名及び市町村名": "新潟県新潟市",
        "施設・場所名": "万代高等学校",
        "住所": "新潟県新潟市中央区沼垂東6-8-1",
        "指定緊急避難場所との住所同一": "1",
        "その他市町村長が必要と認める事項": null,
        "受入対象者": null,
        "備考": ""
      }
    },
    {
      "type": "Feature",
      "geometry": {
        "type": "Point",
        "coordinates": [
          139.043832,
          37.908714
        ]
      },
      "properties": {
        "NO": 29687,
        "共通ID": "E1510000314111",
        "都道府県名及び市町村名": "新潟県新潟市",
        "施設・場所名": "新潟南高等学校",
        "住所": "新潟県新潟市中央区上所1-3-1",
        "指定緊急避難場所との住所同一": "1",
        "その他市町村長が必要と認める事項": null,
        "受入対象者": null,
        "備考": ""
      }
    },
    {
      "type": "Feature",
      "geometry": {
        "type": "Point",
        "coordinates": [
          139.050421,
          37.879894
        ]
      },
      "properties": {
        "NO": 29688,
        "共通ID": "E1510000317111",
        "都道府県名及び市町村名": "新潟県新潟市",
        "施設・場所名": "食育・花育センター",
        "住所": "新潟県新潟市中央区清五郎401",
        "指定緊急避難場所との住所同一": "1",
        "その他市町村長が必要と認める事項": null,
        "受入対象者": null,
        "備考": ""
      }
    },
    {
      "type": "Feature",
      "geometry": {
        "type": "Point",
        "coordinates": [
          139.042469,
          37.926571
        ]
      },
      "properties": {
        "NO": 29689,
        "共通ID": "E1510000320111",
        "都道府県名及び市町村名": "新潟県新潟市",
        "施設・場所名": "教育相談センター",
        "住所": "新潟県新潟市中央区西大畑町458-1",
        "指定緊急避難場所との住所同一": "1",
        "その他市町村長が必要と認める事項": null,
        "受入対象者": null,
        "備考": ""
      }
    },
    {
      "type": "Feature",
      "geometry": {
        "type": "Point",
        "coordinates": [
          139.032885,
          37.910818
        ]
      },
      "properties": {
        "NO": 29690,
        "共通ID": "E1510000322111",
        "都道府県名及び市町村名": "新潟県新潟市",
        "施設・場所名": "白新中学校",
        "住所": "新潟県新潟市中央区川岸町2-4",
        "指定緊急避難場所との住所同一": "1",
        "その他市町村長が必要と認める事項": null,
        "受入対象者": null,
        "備考": ""
      }
    },
    {
      "type": "Feature",
      "geometry": {
        "type": "Point",
        "coordinates": [
          139.042437,
          37.914384
        ]
      },
      "properties": {
        "NO": 29691,
        "共通ID": "E1510000323111",
        "都道府県名及び市町村名": "新潟県新潟市",
        "施設・場所名": "白山小学校",
        "住所": "新潟県新潟市中央区川端町1-1",
        "指定緊急避難場所との住所同一": "1",
        "その他市町村長が必要と認める事項": null,
        "受入対象者": null,
        "備考": ""
      }
    },
    {
      "type": "Feature",
      "geometry": {
        "type": "Point",
        "coordinates": [
          139.050543,
          37.922353
        ]
      },
      "properties": {
        "NO": 29692,
        "共通ID": "E1510000324111",
        "都道府県名及び市町村名": "新潟県新潟市",
        "施設・場所名": "クロスパルにいがた",
        "住所": "新潟県新潟市中央区礎町通３ノ町2086",
        "指定緊急避難場所との住所同一": "1",
        "その他市町村長が必要と認める事項": null,
        "受入対象者": null,
        "備考": ""
      }
    },
    {
      "type": "Feature",
      "geometry": {
        "type": "Point",
        "coordinates": [
          139.040005,
          37.923929
        ]
      },
      "properties": {
        "NO": 29693,
        "共通ID": "E1510000326111",
        "都道府県名及び市町村名": "新潟県新潟市",
        "施設・場所名": "新潟小学校",
        "住所": "新潟県新潟市中央区東大畑通１－町679",
        "指定緊急避難場所との住所同一": "",
        "その他市町村長が必要と認める事項": null,
        "受入対象者": null,
        "備考": ""
      }
    },
    {
      "type": "Feature",
      "geometry": {
        "type": "Point",
        "coordinates": [
          139.065041,
          37.917479
        ]
      },
      "properties": {
        "NO": 29694,
        "共通ID": "E1510000328111",
        "都道府県名及び市町村名": "新潟県新潟市",
        "施設・場所名": "万代長嶺小学校",
        "住所": "新潟県新潟市中央区東万代町4-1",
        "指定緊急避難場所との住所同一": "1",
        "その他市町村長が必要と認める事項": null,
        "受入対象者": null,
        "備考": ""
      }
    },
    {
      "type": "Feature",
      "geometry": {
        "type": "Point",
        "coordinates": [
          139.062059,
          37.916657
        ]
      },
      "properties": {
        "NO": 29695,
        "共通ID": "E1510000329111",
        "都道府県名及び市町村名": "新潟県新潟市",
        "施設・場所名": "万代市民会館",
        "住所": "新潟県新潟市中央区東万代町9-1",
        "指定緊急避難場所との住所同一": "1",
        "その他市町村長が必要と認める事項": null,
        "受入対象者": null,
        "備考": ""
      }
    },
    {
      "type": "Feature",
      "geometry": {
        "type": "Point",
        "coordinates": [
          139.038365,
          37.929221
        ]
      },
      "properties": {
        "NO": 29696,
        "共通ID": "E1510000332111",
        "都道府県名及び市町村名": "新潟県新潟市",
        "施設・場所名": "ゆいぽーと",
        "住所": "新潟県新潟市中央区二葉町2-5932-7",
        "指定緊急避難場所との住所同一": "1",
        "その他市町村長が必要と認める事項": null,
        "受入対象者": null,
        "備考": ""
      }
    },
    {
      "type": "Feature",
      "geometry": {
        "type": "Point",
        "coordinates": [
          139.032014,
          37.915402
        ]
      },
      "properties": {
        "NO": 29697,
        "共通ID": "E1510000334111",
        "都道府県名及び市町村名": "新潟県新潟市",
        "施設・場所名": "鏡淵小学校",
        "住所": "新潟県新潟市中央区白山浦1-207-3",
        "指定緊急避難場所との住所同一": "1",
        "その他市町村長が必要と認める事項": null,
        "受入対象者": null,
        "備考": ""
      }
    },
    {
      "type": "Feature",
      "geometry": {
        "type": "Point",
        "coordinates": [
          139.029685,
          37.914629
        ]
      },
      "properties": {
        "NO": 29698,
        "共通ID": "E1510000335111",
        "都道府県名及び市町村名": "新潟県新潟市",
        "施設・場所名": "白新コミュニティハウス",
        "住所": "新潟県新潟市中央区白山浦2-180-3",
        "指定緊急避難場所との住所同一": "1",
        "その他市町村長が必要と認める事項": null,
        "受入対象者": null,
        "備考": ""
      }
    },
    {
      "type": "Feature",
      "geometry": {
        "type": "Point",
        "coordinates": [
          139.028064,
          37.91532
        ]
      },
      "properties": {
        "NO": 29699,
        "共通ID": "E1510000336111",
        "都道府県名及び市町村名": "新潟県新潟市",
        "施設・場所名": "新潟商業高等学校",
        "住所": "新潟県新潟市中央区白山浦2-68-2",
        "指定緊急避難場所との住所同一": "1",
        "その他市町村長が必要と認める事項": null,
        "受入対象者": null,
        "備考": ""
      }
    },
    {
      "type": "Feature",
      "geometry": {
        "type": "Point",
        "coordinates": [
          139.053416,
          37.913295
        ]
      },
      "properties": {
        "NO": 29700,
        "共通ID": "E1510000337111",
        "都道府県名及び市町村名": "新潟県新潟市",
        "施設・場所名": "総合福祉会館",
        "住所": "新潟県新潟市中央区八千代1-3-1",
        "指定緊急避難場所との住所同一": "1",
        "その他市町村長が必要と認める事項": null,
        "受入対象者": null,
        "備考": ""
      }
    },
    {
      "type": "Feature",
      "geometry": {
        "type": "Point",
        "coordinates": [
          139.018515,
          37.883196
        ]
      },
      "properties": {
        "NO": 29701,
        "共通ID": "E1510000338111",
        "都道府県名及び市町村名": "新潟県新潟市",
        "施設・場所名": "鳥屋野小学校",
        "住所": "新潟県新潟市中央区美咲町2-4-7",
        "指定緊急避難場所との住所同一": "1",
        "その他市町村長が必要と認める事項": null,
        "受入対象者": null,
        "備考": ""
      }
    },
    {
      "type": "Feature",
      "geometry": {
        "type": "Point",
        "coordinates": [
          139.01342,
          37.912199
        ]
      },
      "properties": {
        "NO": 29702,
        "共通ID": "E1510000339111",
        "都道府県名及び市町村名": "新潟県新潟市",
        "施設・場所名": "浜浦小学校",
        "住所": "新潟県新潟市中央区浜浦町1-1",
        "指定緊急避難場所との住所同一": "1",
        "その他市町村長が必要と認める事項": null,
        "受入対象者": null,
        "備考": ""
      }
    },
    {
      "type": "Feature",
      "geometry": {
        "type": "Point",
        "coordinates": [
          139.009275,
          37.910231
        ]
      },
      "properties": {
        "NO": 29703,
        "共通ID": "E1510000340111",
        "都道府県名及び市町村名": "新潟県新潟市",
        "施設・場所名": "関屋中学校",
        "住所": "新潟県新潟市中央区浜浦町2-1",
        "指定緊急避難場所との住所同一": "1",
        "その他市町村長が必要と認める事項": null,
        "受入対象者": null,
        "備考": ""
      }
    },
    {
      "type": "Feature",
      "geometry": {
        "type": "Point",
        "coordinates": [
          139.060322,
          37.904723
        ]
      },
      "properties": {
        "NO": 29704,
        "共通ID": "E1510000341111",
        "都道府県名及び市町村名": "新潟県新潟市",
        "施設・場所名": "駅南コミュニティセンター",
        "住所": "新潟県新潟市中央区米山4-12-20",
        "指定緊急避難場所との住所同一": "1",
        "その他市町村長が必要と認める事項": null,
        "受入対象者": null,
        "備考": ""
      }
    },
    {
      "type": "Feature",
      "geometry": {
        "type": "Point",
        "coordinates": [
          139.055626,
          37.904697
        ]
      },
      "properties": {
        "NO": 29705,
        "共通ID": "E1510000342111",
        "都道府県名及び市町村名": "新潟県新潟市",
        "施設・場所名": "北越高等学校（体育館）",
        "住所": "新潟県新潟市中央区米山5-12-1",
        "指定緊急避難場所との住所同一": "1",
        "その他市町村長が必要と認める事項": null,
        "受入対象者": null,
        "備考": ""
      }
    },
    {
      "type": "Feature",
      "geometry": {
        "type": "Point",
        "coordinates": [
          139.071653,
          37.889326
        ]
      },
      "properties": {
        "NO": 29706,
        "共通ID": "E1510000343111",
        "都道府県名及び市町村名": "新潟県新潟市",
        "施設・場所名": "山潟小学校",
        "住所": "新潟県新潟市中央区弁天橋通3-3-1",
        "指定緊急避難場所との住所同一": "1",
        "その他市町村長が必要と認める事項": null,
        "受入対象者": null,
        "備考": ""
      }
    },
    {
      "type": "Feature",
      "geometry": {
        "type": "Point",
        "coordinates": [
          139.053309,
          37.926942
        ]
      },
      "properties": {
        "NO": 29707,
        "共通ID": "E1510000344111",
        "都道府県名及び市町村名": "新潟県新潟市",
        "施設・場所名": "旧豊照小学校体育館",
        "住所": "新潟県新潟市中央区豊照町2518-1",
        "指定緊急避難場所との住所同一": "1",
        "その他市町村長が必要と認める事項": null,
        "受入対象者": null,
        "備考": ""
      }
    },
    {
      "type": "Feature",
      "geometry": {
        "type": "Point",
        "coordinates": [
          139.042164,
          37.915114
        ]
      },
      "properties": {
        "NO": 29708,
        "共通ID": "E1510000345111",
        "都道府県名及び市町村名": "新潟県新潟市",
        "施設・場所名": "白山コミュニティハウス",
        "住所": "新潟県新潟市中央区本町通１番町168-2",
        "指定緊急避難場所との住所同一": "1",
        "その他市町村長が必要と認める事項": null,
        "受入対象者": null,
        "備考": ""
      }
    },
    {
      "type": "Feature",
      "geometry": {
        "type": "Point",
        "coordinates": [
          139.060464,
          37.92022
        ]
      },
      "properties": {
        "NO": 29709,
        "共通ID": "E1510000346111",
        "都道府県名及び市町村名": "新潟県新潟市",
        "施設・場所名": "宮浦中学校",
        "住所": "新潟県新潟市中央区万代5-6-1",
        "指定緊急避難場所との住所同一": "1",
        "その他市町村長が必要と認める事項": null,
        "受入対象者": null,
        "備考": ""
      }
    },
    {
      "type": "Feature",
      "geometry": {
        "type": "Point",
        "coordinates": [
          139.023009,
          37.894366
        ]
      },
      "properties": {
        "NO": 29710,
        "共通ID": "E1510000348111",
        "都道府県名及び市町村名": "新潟県新潟市",
        "施設・場所名": "上山コミュニティハウス",
        "住所": "新潟県新潟市中央区網川原2-1-15",
        "指定緊急避難場所との住所同一": "1",
        "その他市町村長が必要と認める事項": null,
        "受入対象者": null,
        "備考": ""
      }
    },
    {
      "type": "Feature",
      "geometry": {
        "type": "Point",
        "coordinates": [
          139.011327,
          37.901968
        ]
      },