{
  "type": "FeatureCollection",
  "name": "152081",
  "features": [
    {
      "type": "Feature",
      "geometry": {
        "type": "Point",
        "coordinates": [
          138.812909,
          37.303921
        ]
      },
      "properties": {
        "NO": 30447,
        "共通ID": "E1520800001111",
        "都道府県名及び市町村名": "新潟県小千谷市",
        "施設・場所名": "勤労青少年ホーム",
        "住所": "新潟県小千谷市旭町13-8",
        "指定緊急避難場所との住所同一": "1",
        "その他市町村長が必要と認める事項": null,
        "受入対象者": null,
        "備考": ""
      }
    },
    {
      "type": "Feature",
      "geometry": {
        "type": "Point",
        "coordinates": [
          138.812464,
          37.303737
        ]
      },
      "properties": {
        "NO": 30448,
        "共通ID": "E1520800001112",
        "都道府県名及び市町村名": "新潟県小千谷市",
        "施設・場所名": "東小千谷体育センター",
        "住所": "新潟県小千谷市旭町13-8",
        "指定緊急避難場所との住所同一": "1",
        "その他市町村長が必要と認める事項": null,
        "受入対象者": null,
        "備考": ""
      }
    },
    {
      "type": "Feature",
      "geometry": {
        "type": "Point",
        "coordinates": [
          138.812831,
          37.303845
        ]
      },
      "properties": {
        "NO": 30449,
        "共通ID": "E1520800001121",
        "都道府県名及び市町村名": "新潟県小千谷市",
        "施設・場所名": "勤労青少年ホーム",
        "住所": "新潟県小千谷市旭町13-8",
        "指定緊急避難場所との住所同一": "1",
        "その他市町村長が必要と認める事項": null,
        "受入対象者": "要配慮者",
        "備考": ""
      }
    },
    {
      "type": "Feature",
      "geometry": {
        "type": "Point",
        "coordinates": [
          138.811054,
          37.30645
        ]
      },
      "properties": {
        "NO": 30450,
        "共通ID": "E1520800002111",
        "都道府県名及び市町村名": "新潟県小千谷市",
        "施設・場所名": "小千谷高等学校",
        "住所": "新潟県小千谷市旭町7-1",
        "指定緊急避難場所との住所同一": "1",
        "その他市町村長が必要と認める事項": null,
        "受入対象者": null,
        "備考": ""
      }
    },
    {
      "type": "Feature",
      "geometry": {
        "type": "Point",
        "coordinates": [
          138.812165,
          37.306027
        ]
      },
      "properties": {
        "NO": 30451,
        "共通ID": "E1520800003111",
        "都道府県名及び市町村名": "新潟県小千谷市",
        "施設・場所名": "東小千谷小学校",
        "住所": "新潟県小千谷市旭町7-6",
        "指定緊急避難場所との住所同一": "1",
        "その他市町村長が必要と認める事項": null,
        "受入対象者": null,
        "備考": ""
      }
    },
    {
      "type": "Feature",
      "geometry": {
        "type": "Point",
        "coordinates": [
          138.812098,
          37.352995
        ]
      },
      "properties": {
        "NO": 30452,
        "共通ID": "E1520800005111",
        "都道府県名及び市町村名": "新潟県小千谷市",
        "施設・場所名": "高梨保育園",
        "住所": "新潟県小千谷市高梨町1931-2",
        "指定緊急避難場所との住所同一": "1",
        "その他市町村長が必要と認める事項": null,
        "受入対象者": null,
        "備考": ""
      }
    },
    {
      "type": "Feature",
      "geometry": {
        "type": "Point",
        "coordinates": [
          138.818292,
          37.343285
        ]
      },
      "properties": {
        "NO": 30453,
        "共通ID": "E1520800006111",
        "都道府県名及び市町村名": "新潟県小千谷市",
        "施設・場所名": "和泉小学校",
        "住所": "新潟県小千谷市高梨町580",
        "指定緊急避難場所との住所同一": "1",
        "その他市町村長が必要と認める事項": null,
        "受入対象者": null,
        "備考": ""
      }
    },
    {
      "type": "Feature",
      "geometry": {
        "type": "Point",
        "coordinates": [
          138.798496,
          37.316969
        ]
      },
      "properties": {
        "NO": 30454,
        "共通ID": "E1520800010111",
        "都道府県名及び市町村名": "新潟県小千谷市",
        "施設・場所名": "北保育園",
        "住所": "新潟県小千谷市城内2-15-3",
        "指定緊急避難場所との住所同一": "1",
        "その他市町村長が必要と認める事項": null,
        "受入対象者": null,
        "備考": ""
      }
    },
    {
      "type": "Feature",
      "geometry": {
        "type": "Point",
        "coordinates": [
          138.790055,
          37.314608
        ]
      },
      "properties": {
        "NO": 30455,
        "共通ID": "E1520800011111",
        "都道府県名及び市町村名": "新潟県小千谷市",
        "施設・場所名": "小千谷西高等学校",
        "住所": "新潟県小千谷市城内3-3-11",
        "指定緊急避難場所との住所同一": "1",
        "その他市町村長が必要と認める事項": null,
        "受入対象者": null,
        "備考": ""
      }
    },
    {
      "type": "Feature",
      "geometry": {
        "type": "Point",
        "coordinates": [
          138.788601,
          37.310868
        ]
      },
      "properties": {
        "NO": 30456,
        "共通ID": "E1520800012111",
        "都道府県名及び市町村名": "新潟県小千谷市",
        "施設・場所名": "小千谷中学校",
        "住所": "新潟県小千谷市城内4-3-26",
        "指定緊急避難場所との住所同一": "1",
        "その他市町村長が必要と認める事項": null,
        "受入対象者": null,
        "備考": ""
      }
    },
    {
      "type": "Feature",
      "geometry": {
        "type": "Point",
        "coordinates": [
          138.734252,
          37.234362
        ]
      },
      "properties": {
        "NO": 30457,
        "共通ID": "E1520800013111",
        "都道府県名及び市町村名": "新潟県小千谷市",
        "施設・場所名": "北山集落センター",
        "住所": "新潟県小千谷市真人町己1638-1",
        "指定緊急避難場所との住所同一": "1",
        "その他市町村長が必要と認める事項": null,
        "受入対象者": null,
        "備考": ""
      }
    },
    {
      "type": "Feature",
      "geometry": {
        "type": "Point",
        "coordinates": [
          138.773668,
          37.228794
        ]
      },
      "properties": {
        "NO": 30458,
        "共通ID": "E1520800014111",
        "都道府県名及び市町村名": "新潟県小千谷市",
        "施設・場所名": "真人保育園",
        "住所": "新潟県小千谷市真人町甲110-1",
        "指定緊急避難場所との住所同一": "1",
        "その他市町村長が必要と認める事項": null,
        "受入対象者": null,
        "備考": ""
      }
    },
    {
      "type": "Feature",
      "geometry": {
        "type": "Point",
        "coordinates": [
          138.773134,
          37.2281
        ]
      },
      "properties": {
        "NO": 30459,
        "共通ID": "E1520800015111",
        "都道府県名及び市町村名": "新潟県小千谷市",
        "施設・場所名": "（旧）真人住民センター",
        "住所": "新潟県小千谷市真人町甲110-5",
        "指定緊急避難場所との住所同一": "1",
        "その他市町村長が必要と認める事項": null,
        "受入対象者": null,
        "備考": ""
      }
    },
    {
      "type": "Feature",
      "geometry": {
        "type": "Point",
        "coordinates": [
          138.774631,
          37.227
        ]
      },
      "properties": {
        "NO": 30460,
        "共通ID": "E1520800016111",
        "都道府県名及び市町村名": "新潟県小千谷市",
        "施設・場所名": "（旧）真人小学校",
        "住所": "新潟県小千谷市真人町甲167",
        "指定緊急避難場所との住所同一": "1",
        "その他市町村長が必要と認める事項": null,
        "受入対象者": null,
        "備考": ""
      }
    },
    {
      "type": "Feature",
      "geometry": {
        "type": "Point",
        "coordinates": [
          138.772168,
          37.227604
        ]
      },
      "properties": {
        "NO": 30461,
        "共通ID": "E1520800017111",
        "都道府県名及び市町村名": "新潟県小千谷市",
        "施設・場所名": "真人ふれあい交流館",
        "住所": "新潟県小千谷市真人町甲587-1",
        "指定緊急避難場所との住所同一": "1",
        "その他市町村長が必要と認める事項": null,
        "受入対象者": null,
        "備考": ""
      }
    },
    {
      "type": "Feature",
      "geometry": {
        "type": "Point",
        "coordinates": [
          138.807663,
          37.251795
        ]
      },
      "properties": {
        "NO": 30462,
        "共通ID": "E1520800018111",
        "都道府県名及び市町村名": "新潟県小千谷市",
        "施設・場所名": "克雪管理センター",
        "住所": "新潟県小千谷市真人町丁112-3",
        "指定緊急避難場所との住所同一": "1",
        "その他市町村長が必要と認める事項": null,
        "受入対象者": null,
        "備考": ""
      }
    },
    {
      "type": "Feature",
      "geometry": {
        "type": "Point",
        "coordinates": [
          138.803826,
          37.253444
        ]
      },
      "properties": {
        "NO": 30463,
        "共通ID": "E1520800019111",
        "都道府県名及び市町村名": "新潟県小千谷市",
        "施設・場所名": "南中学校",
        "住所": "新潟県小千谷市真人町丁678",
        "指定緊急避難場所との住所同一": "1",
        "その他市町村長が必要と認める事項": null,
        "受入対象者": null,
        "備考": ""
      }
    },
    {
      "type": "Feature",
      "geometry": {
        "type": "Point",
        "coordinates": [
          138.807736,
          37.251996
        ]
      },
      "properties": {
        "NO": 30464,
        "共通ID": "E1520800020111",
        "都道府県名及び市町村名": "新潟県小千谷市",
        "施設・場所名": "地域福祉センターみなみ",
        "住所": "新潟県小千谷市真人町丁73-3",
        "指定緊急避難場所との住所同一": "1",
        "その他市町村長が必要と認める事項": null,
        "受入対象者": null,
        "備考": ""
      }
    },
    {
      "type": "Feature",
      "geometry": {
        "type": "Point",
        "coordinates": [
          138.807776,
          37.252067
        ]
      },
      "properties": {
        "NO": 30465,
        "共通ID": "E1520800020121",
        "都道府県名及び市町村名": "新潟県小千谷市",
        "施設・場所名": "地域福祉センターみなみ",
        "住所": "新潟県小千谷市真人町丁73-3",
        "指定緊急避難場所との住所同一": "1",
        "その他市町村長が必要と認める事項": null,
        "受入対象者": "要配慮者",
        "備考": ""
      }
    },
    {
      "type": "Feature",
      "geometry": {
        "type": "Point",
        "coordinates": [
          138.75361,
          37.249052
        ]
      },
      "properties": {
        "NO": 30466,
        "共通ID": "E1520800021111",
        "都道府県名及び市町村名": "新潟県小千谷市",
        "施設・場所名": "真人北部コミュニティーセンター（真人北部地域農業者等就業促進施設）",
        "住所": "新潟県小千谷市真人町戊2438-1",
        "指定緊急避難場所との住所同一": "1",
        "その他市町村長が必要と認める事項": null,
        "受入対象者": null,
        "備考": ""
      }
    },
    {
      "type": "Feature",
      "geometry": {
        "type": "Point",
        "coordinates": [
          138.800326,
          37.31404
        ]
      },
      "properties": {
        "NO": 30467,
        "共通ID": "E1520800022111",
        "都道府県名及び市町村名": "新潟県小千谷市",
        "施設・場所名": "農業管理センター",
        "住所": "新潟県小千谷市千谷川2-3-26",
        "指定緊急避難場所との住所同一": "1",
        "その他市町村長が必要と認める事項": null,
        "受入対象者": null,
        "備考": ""
      }
    },
    {
      "type": "Feature",
      "geometry": {
        "type": "Point",
        "coordinates": [
          138.798374,
          37.303143
        ]
      },
      "properties": {
        "NO": 30468,
        "共通ID": "E1520800025111",
        "都道府県名及び市町村名": "新潟県小千谷市",
        "施設・場所名": "南保育園",
        "住所": "新潟県小千谷市船岡2-4-15",
        "指定緊急避難場所との住所同一": "1",
        "その他市町村長が必要と認める事項": null,
        "受入対象者": null,
        "備考": ""
      }
    },
    {
      "type": "Feature",
      "geometry": {
        "type": "Point",
        "coordinates": [
          138.811254,
          37.303282
        ]
      },
      "properties": {
        "NO": 30469,
        "共通ID": "E1520800026121",
        "都道府県名及び市町村名": "新潟県小千谷市",
        "施設・場所名": "ひうの家",
        "住所": "新潟県小千谷市大字ひ生乙1389-1",
        "指定緊急避難場所との住所同一": "",
        "その他市町村長が必要と認める事項": null,
        "受入対象者": "要配慮者",
        "備考": ""
      }
    },
    {
      "type": "Feature",
      "geometry": {
        "type": "Point",
        "coordinates": [
          138.811198,
          37.303538
        ]
      },
      "properties": {
        "NO": 30470,
        "共通ID": "E1520800027121",
        "都道府県名及び市町村名": "新潟県小千谷市",
        "施設・場所名": "ケアハウスひう",
        "住所": "新潟県小千谷市大字ひ生乙1389-6",
        "指定緊急避難場所との住所同一": "",
        "その他市町村長が必要と認める事項": null,
        "受入対象者": "要配慮者",
        "備考": ""
      }
    },
    {
      "type": "Feature",
      "geometry": {
        "type": "Point",
        "coordinates": [
          138.807427,
          37.306958
        ]
      },
      "properties": {
        "NO": 30471,
        "共通ID": "E1520800028121",
        "都道府県名及び市町村名": "新潟県小千谷市",
        "施設・場所名": "健康倶楽部中子の森",
        "住所": "新潟県小千谷市大字ひ生乙1460-1",
        "指定緊急避難場所との住所同一": "",
        "その他市町村長が必要と認める事項": null,
        "受入対象者": "要配慮者",
        "備考": ""
      }
    },
    {
      "type": "Feature",
      "geometry": {
        "type": "Point",
        "coordinates": [
          138.815013,
          37.323191
        ]
      },
      "properties": {
        "NO": 30472,
        "共通ID": "E1520800029111",
        "都道府県名及び市町村名": "新潟県小千谷市",
        "施設・場所名": "錦鯉振興センター",
        "住所": "新潟県小千谷市大字ひ生乙173",
        "指定緊急避難場所との住所同一": "1",
        "その他市町村長が必要と認める事項": null,
        "受入対象者": null,
        "備考": ""
      }
    },
    {
      "type": "Feature",
      "geometry": {
        "type": "Point",
        "coordinates": [
          138.823048,
          37.295934
        ]
      },
      "properties": {
        "NO": 30473,
        "共通ID": "E1520800032111",
        "都道府県名及び市町村名": "新潟県小千谷市",
        "施設・場所名": "木津公会堂",
        "住所": "新潟県小千谷市大字ひ生丙1298-1",
        "指定緊急避難場所との住所同一": "1",
        "その他市町村長が必要と認める事項": null,
        "受入対象者": null,
        "備考": ""
      }
    },
    {
      "type": "Feature",
      "geometry": {
        "type": "Point",
        "coordinates": [
          138.809155,
          37.301681
        ]
      },
      "properties": {
        "NO": 30474,
        "共通ID": "E1520800033121",
        "都道府県名及び市町村名": "新潟県小千谷市",
        "施設・場所名": "障がい者支援センターひだまり工房",
        "住所": "新潟県小千谷市大字ひ生丙199-22",
        "指定緊急避難場所との住所同一": "",
        "その他市町村長が必要と認める事項": null,
        "受入対象者": "要配慮者",
        "備考": ""
      }
    },
    {
      "type": "Feature",
      "geometry": {
        "type": "Point",
        "coordinates": [
          138.88447,
          37.305134
        ]
      },
      "properties": {
        "NO": 30475,
        "共通ID": "E1520800034111",
        "都道府県名及び市町村名": "新潟県小千谷市",
        "施設・場所名": "塩谷集落開発センター",
        "住所": "新潟県小千谷市大字塩谷290",
        "指定緊急避難場所との住所同一": "1",
        "その他市町村長が必要と認める事項": null,
        "受入対象者": null,
        "備考": ""
      }
    },
    {
      "type": "Feature",
      "geometry": {
        "type": "Point",
        "coordinates": [
          138.821041,
          37.269809
        ]
      },
      "properties": {
        "NO": 30476,
        "共通ID": "E1520800035111",
        "都道府県名及び市町村名": "新潟県小千谷市",
        "施設・場所名": "総合支援学校",
        "住所": "新潟県小千谷市大字塩殿甲2144",
        "指定緊急避難場所との住所同一": "1",
        "その他市町村長が必要と認める事項": null,
        "受入対象者": null,
        "備考": ""
      }
    },
    {
      "type": "Feature",
      "geometry": {
        "type": "Point",
        "coordinates": [
          138.796217,
          37.242351
        ]
      },
      "properties": {
        "NO": 30477,
        "共通ID": "E1520800036111",
        "都道府県名及び市町村名": "新潟県小千谷市",
        "施設・場所名": "岩沢住民センター",
        "住所": "新潟県小千谷市大字岩沢1003-1",
        "指定緊急避難場所との住所同一": "1",
        "その他市町村長が必要と認める事項": null,
        "受入対象者": null,
        "備考": ""
      }
    },
    {
      "type": "Feature",
      "geometry": {
        "type": "Point",
        "coordinates": [
          138.790067,
          37.239203
        ]
      },
      "properties": {
        "NO": 30478,
        "共通ID": "E1520800038111",
        "都道府県名及び市町村名": "新潟県小千谷市",
        "施設・場所名": "山谷集落開発センター",
        "住所": "新潟県小千谷市大字岩沢1144-1",
        "指定緊急避難場所との住所同一": "1",
        "その他市町村長が必要と認める事項": null,
        "受入対象者": null,
        "備考": ""
      }
    },
    {
      "type": "Feature",
      "geometry": {
        "type": "Point",
        "coordinates": [
          138.782917,
          37.233098
        ]
      },
      "properties": {
        "NO": 30479,
        "共通ID": "E1520800039111",
        "都道府県名及び市町村名": "新潟県小千谷市",
        "施設・場所名": "市之口公会堂",
        "住所": "新潟県小千谷市大字岩沢2261-1",
        "指定緊急避難場所との住所同一": "1",
        "その他市町村長が必要と認める事項": null,
        "受入対象者": null,
        "備考": ""
      }
    },
    {
      "type": "Feature",
      "geometry": {
        "type": "Point",
        "coordinates": [
          138.811547,
          37.219505
        ]
      },
      "properties": {
        "NO": 30480,
        "共通ID": "E1520800040111",
        "都道府県名及び市町村名": "新潟県小千谷市",
        "施設・場所名": "外之沢集会所",
        "住所": "新潟県小千谷市大字岩沢5007",
        "指定緊急避難場所との住所同一": "1",
        "その他市町村長が必要と認める事項": null,
        "受入対象者": null,
        "備考": ""
      }
    },
    {
      "type": "Feature",
      "geometry": {
        "type": "Point",
        "coordinates": [
          138.825304,
          37.221429
        ]
      },
      "properties": {
        "NO": 30481,
        "共通ID": "E1520800041111",
        "都道府県名及び市町村名": "新潟県小千谷市",
        "施設・場所名": "大池ふるさとセンター",
        "住所": "新潟県小千谷市大字岩沢5760-1",
        "指定緊急避難場所との住所同一": "1",
        "その他市町村長が必要と認める事項": null,
        "受入対象者": null,
        "備考": ""
      }
    },
    {
      "type": "Feature",
      "geometry": {
        "type": "Point",
        "coordinates": [
          138.799166,
          37.243342
        ]
      },
      "properties": {
        "NO": 30482,
        "共通ID": "E1520800042111",
        "都道府県名及び市町村名": "新潟県小千谷市",
        "施設・場所名": "岩沢保育園",
        "住所": "新潟県小千谷市大字岩沢764-1",
        "指定緊急避難場所との住所同一": "1",
        "その他市町村長が必要と認める事項": null,
        "受入対象者": null,
        "備考": ""
      }
    },
    {
      "type": "Feature",
      "geometry": {
        "type": "Point",
        "coordinates": [
          138.798131,
          37.242857
        ]
      },
      "properties": {
        "NO": 30483,
        "共通ID": "E1520800043111",
        "都道府県名及び市町村名": "新潟県小千谷市",
        "施設・場所名": "桂集落開発センター",
        "住所": "新潟県小千谷市大字岩沢838-5",
        "指定緊急避難場所との住所同一": "1",
        "その他市町村長が必要と認める事項": null,
        "受入対象者": null,
        "備考": ""
      }
    },
    {
      "type": "Feature",
      "geometry": {
        "type": "Point",
        "coordinates": [
          138.772887,
          37.310628
        ]
      },
      "properties": {
        "NO": 30484,
        "共通ID": "E1520800044121",
        "都道府県名及び市町村名": "新潟県小千谷市",
        "施設・場所名": "モス・コーラ特別養護老人ホーム",
        "住所": "新潟県小千谷市大字桜町3146-2",
        "指定緊急避難場所との住所同一": "",
        "その他市町村長が必要と認める事項": null,
        "受入対象者": "要配慮者",
        "備考": ""
      }
    },
    {
      "type": "Feature",
      "geometry": {
        "type": "Point",
        "coordinates": [
          138.783885,
          37.314316
        ]
      },
      "properties": {
        "NO": 30485,
        "共通ID": "E1520800045111",
        "都道府県名及び市町村名": "新潟県小千谷市",
        "施設・場所名": "総合体育館",
        "住所": "新潟県小千谷市大字桜町4915",
        "指定緊急避難場所との住所同一": "1",
        "その他市町村長が必要と認める事項": null,
        "受入対象者": null,
        "備考": ""
      }
    },
    {
      "type": "Feature",
      "geometry": {
        "type": "Point",
        "coordinates": [
          138.783485,
          37.314477
        ]
      },
      "properties": {
        "NO": 30486,
        "共通ID": "E1520800045121",
        "都道府県名及び市町村名": "新潟県小千谷市",
        "施設・場所名": "総合体育館",
        "住所": "新潟県小千谷市大字桜町4915",
        "指定緊急避難場所との住所同一": "1",
        "その他市町村長が必要と認める事項": null,
        "受入対象者": "要配慮者",
        "備考": ""
      }
    },
    {
      "type": "Feature",
      "geometry": {
        "type": "Point",
        "coordinates": [
          138.781883,
          37.313328
        ]
      },
      "properties": {
        "NO": 30487,
        "共通ID": "E1520800046111",
        "都道府県名及び市町村名": "新潟県小千谷市",
        "施設・場所名": "総合福祉センターサンラックおぢや",
        "住所": "新潟県小千谷市大字桜町5140",
        "指定緊急避難場所との住所同一": "1",
        "その他市町村長が必要と認める事項": null,
        "受入対象者": null,
        "備考": ""
      }
    },
    {
      "type": "Feature",
      "geometry": {
        "type": "Point",
        "coordinates": [
          138.781768,
          37.313371
        ]
      },
      "properties": {
        "NO": 30488,
        "共通ID": "E1520800046121",
        "都道府県名及び市町村名": "新潟県小千谷市",
        "施設・場所名": "総合福祉センターサンラックおぢや",
        "住所": "新潟県小千谷市大字桜町5140",
        "指定緊急避難場所との住所同一": "1",
        "その他市町村長が必要と認める事項": null,
        "受入対象者": "要配慮者",
        "備考": ""
      }
    },
    {
      "type": "Feature",
      "geometry": {
        "type": "Point",
        "coordinates": [
          138.818657,
          37.335407
        ]
      },
      "properties": {
        "NO": 30489,
        "共通ID": "E1520800047111",
        "都道府県名及び市町村名": "新潟県小千谷市",
        "施設・場所名": "三仏生多目的集会センター",
        "住所": "新潟県小千谷市大字三仏生3153",
        "指定緊急避難場所との住所同一": "1",
        "その他市町村長が必要と認める事項": null,
        "受入対象者": null,
        "備考": ""
      }
    },
    {
      "type": "Feature",
      "geometry": {
        "type": "Point",
        "coordinates": [
          138.775932,
          37.329705
        ]
      },
      "properties": {
        "NO": 30490,
        "共通ID": "E1520800048111",
        "都道府県名及び市町村名": "新潟県小千谷市",
        "施設・場所名": "山谷交流センター",
        "住所": "新潟県小千谷市大字山谷1313-2",
        "指定緊急避難場所との住所同一": "1",
        "その他市町村長が必要と認める事項": null,
        "受入対象者": null,
        "備考": ""
      }
    },
    {
      "type": "Feature",
      "geometry": {
        "type": "Point",
        "coordinates": [
          138.773928,
          37.321639
        ]
      },
      "properties": {
        "NO": 30491,
        "共通ID": "E1520800050111",
        "都道府県名及び市町村名": "新潟県小千谷市",
        "施設・場所名": "グリーンヒル白山",
        "住所": "新潟県小千谷市大字山谷2236-4",
        "指定緊急避難場所との住所同一": "1",
        "その他市町村長が必要と認める事項": null,
        "受入対象者": null,
        "備考": ""
      }
    },
    {
      "type": "Feature",
      "geometry": {
        "type": "Point",
        "coordinates": [
          138.802073,
          37.295022
        ]
      },
      "properties": {
        "NO": 30492,
        "共通ID": "E1520800051111",
        "都道府県名及び市町村名": "新潟県小千谷市",
        "施設・場所名": "山本振興会館",
        "住所": "新潟県小千谷市大字山本588-7",
        "指定緊急避難場所との住所同一": "1",
        "その他市町村長が必要と認める事項": null,
        "受入対象者": null,
        "備考": ""
      }
    },
    {
      "type": "Feature",
      "geometry": {
        "type": "Point",
        "coordinates": [
          138.785634,
          37.282883
        ]
      },
      "properties": {
        "NO": 30493,
        "共通ID": "E1520800052121",
        "都道府県名及び市町村名": "新潟県小千谷市",
        "施設・場所名": "つつじガーデン小千谷",
        "住所": "新潟県小千谷市大字四ツ子509-1",
        "指定緊急避難場所との住所同一": "",
        "その他市町村長が必要と認める事項": null,
        "受入対象者": "要配慮者",
        "備考": ""
      }
    },
    {
      "type": "Feature",
      "geometry": {
        "type": "Point",
        "coordinates": [
          138.78806,
          37.287639
        ]
      },
      "properties": {
        "NO": 30494,
        "共通ID": "E1520800053111",
        "都道府県名及び市町村名": "新潟県小千谷市",
        "施設・場所名": "吉谷トレーニングセンター",
        "住所": "新潟県小千谷市大字四ツ子66-2",
        "指定緊急避難場所との住所同一": "1",
        "その他市町村長が必要と認める事項": null,
        "受入対象者": null,
        "備考": ""
      }
    },
    {
      "type": "Feature",
      "geometry": {
        "type": "Point",
        "coordinates": [
          138.772105,
          37.299354
        ]
      },
      "properties": {
        "NO": 30495,
        "共通ID": "E1520800054111",
        "都道府県名及び市町村名": "新潟県小千谷市",
        "施設・場所名": "城山開発センター",
        "住所": "新潟県小千谷市大字時水1350",
        "指定緊急避難場所との住所同一": "1",
        "その他市町村長が必要と認める事項": null,
        "受入対象者": null,
        "備考": ""
      }
    },
    {
      "type": "Feature",
      "geometry": {
        "type": "Point",
        "coordinates": [
          138.79574,
          37.339868
        ]
      },
      "properties": {
        "NO": 30496,
        "共通ID": "E1520800055121",
        "都道府県名及び市町村名": "新潟県小千谷市",
        "施設・場所名": "障がい者支援センターひかり工房",
        "住所": "新潟県小千谷市大字小粟田2722-1",
        "指定緊急避難場所との住所同一": "",
        "その他市町村長が必要と認める事項": null,
        "受入対象者": "要配慮者",
        "備考": ""
      }
    },
    {
      "type": "Feature",
      "geometry": {
        "type": "Point",
        "coordinates": [
          138.795466,
          37.341246
        ]
      },
      "properties": {
        "NO": 30497,
        "共通ID": "E1520800056121",
        "都道府県名及び市町村名": "新潟県小千谷市",
        "施設・場所名": "ケアハウス小千谷さくら",
        "住所": "新潟県小千谷市大字小粟田2732-13",
        "指定緊急避難場所との住所同一": "",
        "その他市町村長が必要と認める事項": null,
        "受入対象者": "要配慮者",
        "備考": ""
      }
    },
    {
      "type": "Feature",
      "geometry": {
        "type": "Point",
        "coordinates": [
          138.798134,
          37.343185
        ]
      },
      "properties": {
        "NO": 30498,
        "共通ID": "E1520800057121",
        "都道府県名及び市町村名": "新潟県小千谷市",
        "施設・場所名": "特別養護老人ホームおぢやさくら",
        "住所": "新潟県小千谷市大字小粟田2732-14",
        "指定緊急避難場所との住所同一": "",
        "その他市町村長が必要と認める事項": null,
        "受入対象者": "要配慮者",
        "備考": ""
      }
    },
    {
      "type": "Feature",
      "geometry": {
        "type": "Point",
        "coordinates": [
          138.796179,
          37.340967
        ]
      },
      "properties": {
        "NO": 30499,
        "共通ID": "E1520800058121",
        "都道府県名及び市町村名": "新潟県小千谷市",
        "施設・場所名": "小千谷市養護老人ホーム",
        "住所": "新潟県小千谷市大字小粟田2732-6",
        "指定緊急避難場所との住所同一": "",
        "その他市町村長が必要と認める事項": null,
        "受入対象者": "要配慮者",
        "備考": ""
      }
    },
    {
      "type": "Feature",
      "geometry": {
        "type": "Point",
        "coordinates": [
          138.795728,
          37.340421
        ]
      },
      "properties": {
        "NO": 30500,
        "共通ID": "E1520800059121",
        "都道府県名及び市町村名": "新潟県小千谷市",
        "施設・場所名": "特別養護老人ホーム小粟田の里",
        "住所": "新潟県小千谷市大字小粟田2732-7",
        "指定緊急避難場所との住所同一": "",
        "その他市町村長が必要と認める事項": null,
        "受入対象者": "要配慮者",
        "備考": ""
      }
    },
    {
      "type": "Feature",
      "geometry": {
        "type": "Point",
        "coordinates": [
          138.793262,
          37.333842
        ]
      },
      "properties": {
        "NO": 30501,
        "共通ID": "E1520800060111",
        "都道府県名及び市町村名": "新潟県小千谷市",
        "施設・場所名": "小粟田多目的センター",
        "住所": "新潟県小千谷市大字小粟田847",
        "指定緊急避難場所との住所同一": "1",
        "その他市町村長が必要と認める事項": null,
        "受入対象者": null,
        "備考": ""
      }
    },
    {
      "type": "Feature",
      "geometry": {
        "type": "Point",
        "coordinates": [
          138.853189,
          37.336899
        ]
      },
      "properties": {
        "NO": 30502,
        "共通ID": "E1520800061111",
        "都道府県名及び市町村名": "新潟県小千谷市",
        "施設・場所名": "東山小学校",
        "住所": "新潟県小千谷市大字小栗山2357",
        "指定緊急避難場所との住所同一": "1",
        "その他市町村長が必要と認める事項": null,
        "受入対象者": null,
        "備考": ""
      }
    },
    {
      "type": "Feature",
      "geometry": {
        "type": "Point",
        "coordinates": [
          138.855102,
          37.337729
        ]
      },
      "properties": {
        "NO": 30503,
        "共通ID": "E1520800062111",
        "都道府県名及び市町村名": "新潟県小千谷市",
        "施設・場所名": "金倉会館",
        "住所": "新潟県小千谷市大字小栗山2401-3",
        "指定緊急避難場所との住所同一": "1",
        "その他市町村長が必要と認める事項": null,
        "受入対象者": null,
        "備考": ""
      }
    },
    {
      "type": "Feature",
      "geometry": {
        "type": "Point",
        "coordinates": [
          138.824391,
          37.285371
        ]
      },
      "properties": {
        "NO": 30504,
        "共通ID": "E1520800063111",
        "都道府県名及び市町村名": "新潟県小千谷市",
        "施設・場所名": "上片貝公会堂",
        "住所": "新潟県小千谷市大字上片貝507",
        "指定緊急避難場所との住所同一": "1",
        "その他市町村長が必要と認める事項": null,
        "受入対象者": null,
        "備考": ""
      }
    },
    {
      "type": "Feature",
      "geometry": {
        "type": "Point",
        "coordinates": [
          138.782068,
          37.287661
        ]
      },
      "properties": {
        "NO": 30505,
        "共通ID": "E1520800064111",
        "都道府県名及び市町村名": "新潟県小千谷市",
        "施設・場所名": "吉谷小学校",
        "住所": "新潟県小千谷市大字西吉谷甲216",
        "指定緊急避難場所との住所同一": "1",
        "その他市町村長が必要と認める事項": null,
        "受入対象者": null,
        "備考": ""
      }
    },
    {
      "type": "Feature",
      "geometry": {
        "type": "Point",
        "coordinates": [
          138.778527,
          37.289556
        ]
      },
      "properties": {
        "NO": 30506,
        "共通ID": "E1520800065111",
        "都道府県名及び市町村名": "新潟県小千谷市",
        "施設・場所名": "吉谷保育園",
        "住所": "新潟県小千谷市大字西吉谷甲553",
        "指定緊急避難場所との住所同一": "1",
        "その他市町村長が必要と認める事項": null,
        "受入対象者": null,
        "備考": ""
      }
    },
    {
      "type": "Feature",
      "geometry": {
        "type": "Point",
        "coordinates": [
          138.778298,
          37.271201
        ]
      },
      "properties": {
        "NO": 30507,
        "共通ID": "E1520800066111",
        "都道府県名及び市町村名": "新潟県小千谷市",
        "施設・場所名": "二俣・迯入集落開発センター",
        "住所": "新潟県小千谷市大字西吉谷丙60-2",
        "指定緊急避難場所との住所同一": "1",
        "その他市町村長が必要と認める事項": null,
        "受入対象者": null,
        "備考": ""
      }
    },
    {
      "type": "Feature",
      "geometry": {
        "type": "Point",
        "coordinates": [
          138.801069,
          37.329748
        ]
      },
      "properties": {
        "NO": 30508,
        "共通ID": "E1520800067111",
        "都道府県名及び市町村名": "新潟県小千谷市",
        "施設・場所名": "千田小学校",
        "住所": "新潟県小千谷市大字千谷甲1231",
        "指定緊急避難場所との住所同一": "1",
        "その他市町村長が必要と認める事項": null,
        "受入対象者": null,
        "備考": ""
      }
    },
    {
      "type": "Feature",
      "geometry": {
        "type": "Point",
        "coordinates": [
          138.802885,
          37.330671
        ]
      },
      "properties": {
        "NO": 30509,
        "共通ID": "E1520800068111",
        "都道府県名及び市町村名": "新潟県小千谷市",
        "施設・場所名": "千田中学校",
        "住所": "新潟県小千谷市大字千谷甲1617",
        "指定緊急避難場所との住所同一": "1",
        "その他市町村長が必要と認める事項": null,
        "受入対象者": null,
        "備考": ""
      }
    },
    {
      "type": "Feature",
      "geometry": {
        "type": "Point",
        "coordinates": [
          138.810327,
          37.331439
        ]
      },
      "properties": {
        "NO": 30510,
        "共通ID": "E1520800069111",
        "都道府県名及び市町村名": "新潟県小千谷市",
        "施設・場所名": "すみれ保育園",
        "住所": "新潟県小千谷市大字千谷甲1787",
        "指定緊急避難場所との住所同一": "1",
        "その他市町村長が必要と認める事項": null,
        "受入対象者": null,
        "備考": ""
      }
    },
    {
      "type": "Feature",
      "geometry": {
        "type": "Point",
        "coordinates": [
          138.803954,
          37.326975
        ]
      },
      "properties": {
        "NO": 30511,
        "共通ID": "E1520800070111",
        "都道府県名及び市町村名": "新潟県小千谷市",
        "施設・場所名": "千谷センター",
        "住所": "新潟県小千谷市大字千谷甲1946",
        "指定緊急避難場所との住所同一": "1",
        "その他市町村長が必要と認める事項": null,
        "受入対象者": null,
        "備考": ""
      }
    },
    {
      "type": "Feature",
      "geometry": {
        "type": "Point",
        "coordinates": [
          138.843144,
          37.252045
        ]
      },
      "properties": {
        "NO": 30512,
        "共通ID": "E1520800071111",
        "都道府県名及び市町村名": "新潟県小千谷市",
        "施設・場所名": "内ケ巻集落開発センター",
        "住所": "新潟県小千谷市大字川井2574",
        "指定緊急避難場所との住所同一": "1",
        "その他市町村長が必要と認める事項": null,
        "受入対象者": null,
        "備考": ""
      }
    },
    {
      "type": "Feature",
      "geometry": {
        "type": "Point",
        "coordinates": [
          138.824053,
          37.258765
        ]
      },
      "properties": {
        "NO": 30513,
        "共通ID": "E1520800073111",
        "都道府県名及び市町村名": "新潟県小千谷市",
        "施設・場所名": "（旧）川井小学校",
        "住所": "新潟県小千谷市大字川井475-2",
        "指定緊急避難場所との住所同一": "1",
        "その他市町村長が必要と認める事項": null,
        "受入対象者": null,
        "備考": ""
      }
    },
    {
      "type": "Feature",
      "geometry": {
        "type": "Point",
        "coordinates": [
          138.816888,
          37.238587
        ]
      },
      "properties": {
        "NO": 30514,
        "共通ID": "E1520800074111",
        "都道府県名及び市町村名": "新潟県小千谷市",
        "施設・場所名": "冬井集会所",
        "住所": "新潟県小千谷市大字川井5205-4",
        "指定緊急避難場所との住所同一": "1",
        "その他市町村長が必要と認める事項": null,
        "受入対象者": null,
        "備考": ""
      }
    },
    {
      "type": "Feature",
      "geometry": {
        "type": "Point",
        "coordinates": [
          138.824907,
          37.230352
        ]
      },
      "properties": {
        "NO": 30515,
        "共通ID": "E1520800072111",
        "都道府県名及び市町村名": "新潟県小千谷市",
        "施設・場所名": "戸屋集会所",
        "住所": "新潟県小千谷市大字川井４１９６－子",
        "指定緊急避難場所との住所同一": "1",
        "その他市町村長が必要と認める事項": null,
        "受入対象者": null,
        "備考": ""
      }
    },
    {
      "type": "Feature",
      "geometry": {
        "type": "Point",
        "coordinates": [
          138.821426,
          37.262517
        ]
      },
      "properties": {
        "NO": 30516,
        "共通ID": "E1520800075111",
        "都道府県名及び市町村名": "新潟県小千谷市",
        "施設・場所名": "川井住民センター",
        "住所": "新潟県小千谷市大字川井新田586",
        "指定緊急避難場所との住所同一": "1",
        "その他市町村長が必要と認める事項": null,
        "受入対象者": null,
        "備考": ""
      }
    },
    {
      "type": "Feature",
      "geometry": {
        "type": "Point",
        "coordinates": [
          138.79514,
          37.265434
        ]
      },
      "properties": {
        "NO": 30517,
        "共通ID": "E1520800076111",
        "都道府県名及び市町村名": "新潟県小千谷市",
        "施設・場所名": "デイホームらくらく（旧池ケ原保育園）",
        "住所": "新潟県小千谷市大字池ケ原2123",
        "指定緊急避難場所との住所同一": "1",
        "その他市町村長が必要と認める事項": null,
        "受入対象者": null,
        "備考": ""
      }
    },
    {
      "type": "Feature",
      "geometry": {
        "type": "Point",
        "coordinates": [
          138.799002,
          37.268398
        ]
      },
      "properties": {
        "NO": 30518,
        "共通ID": "E1520800077111",
        "都道府県名及び市町村名": "新潟県小千谷市",
        "施設・場所名": "池ケ原公会堂",
        "住所": "新潟県小千谷市大字池ケ原2792",
        "指定緊急避難場所との住所同一": "1",
        "その他市町村長が必要と認める事項": null,
        "受入対象者": null,
        "備考": ""
      }
    },
    {
      "type": "Feature",
      "geometry": {
        "type": "Point",
        "coordinates": [
          138.794943,
          37.266419
        ]
      },
      "properties": {
        "NO": 30519,
        "共通ID": "E1520800078111",
        "都道府県名及び市町村名": "新潟県小千谷市",
        "施設・場所名": "池ケ原コミュニティセンター",
        "住所": "新潟県小千谷市大字池ケ原815-1",
        "指定緊急避難場所との住所同一": "1",
        "その他市町村長が必要と認める事項": null,
        "受入対象者": null,
        "備考": ""
      }
    },
    {
      "type": "Feature",
      "geometry": {
        "type": "Point",
        "coordinates": [
          138.862952,
          37.325898
        ]
      },
      "properties": {
        "NO": 30520,
        "共通ID": "E1520800079111",
        "都道府県名及び市町村名": "新潟県小千谷市",
        "施設・場所名": "東山住民センター",
        "住所": "新潟県小千谷市大字南荷頃2666-1",
        "指定緊急避難場所との住所同一": "1",
        "その他市町村長が必要と認める事項": null,
        "受入対象者": null,
        "備考": ""
      }
    },
    {
      "type": "Feature",
      "geometry": {
        "type": "Point",
        "coordinates": [
          138.80946,
          37.304107
        ]
      },
      "properties": {
        "NO": 30521,
        "共通ID": "E1520800095111",
        "都道府県名及び市町村名": "新潟県小千谷市",
        "施設・場所名": "元中子公会堂",
        "住所": "新潟県小千谷市大字薭生乙1404-2",
        "指定緊急避難場所との住所同一": "1",
        "その他市町村長が必要と認める事項": "",
        "受入対象者": "",
        "備考": ""
      }
    },
    {
      "type": "Feature",
      "geometry": {
        "type": "Point",
        "coordinates": [
          138.792256,
          37.307412
        ]
      },
      "properties": {
        "NO": 30522,
        "共通ID": "E1520800081111",
        "都道府県名及び市町村名": "新潟県小千谷市",
        "施設・場所名": "市民会館",
        "住所": "新潟県小千谷市土川1-3-3",
        "指定緊急避難場所との住所同一": "1",
        "その他市町村長が必要と認める事項": null,
        "受入対象者": null,
        "備考": ""
      }
    },
    {
      "type": "Feature",
      "geometry": {
        "type": "Point",
        "coordinates": [
          138.791022,
          37.306282
        ]
      },
      "properties": {
        "NO": 30523,
        "共通ID": "E1520800082111",
        "都道府県名及び市町村名": "新潟県小千谷市",
        "施設・場所名": "小千谷小学校",
        "住所": "新潟県小千谷市土川1-5-52",
        "指定緊急避難場所との住所同一": "1",
        "その他市町村長が必要と認める事項": null,
        "受入対象者": null,
        "備考": ""
      }
    },
    {
      "type": "Feature",
      "geometry": {
        "type": "Point",
        "coordinates": [
          138.810076,
          37.309272
        ]
      },
      "properties": {
        "NO": 30524,
        "共通ID": "E1520800083111",
        "都道府県名及び市町村名": "新潟県小千谷市",
        "施設・場所名": "東栄会館",
        "住所": "新潟県小千谷市東栄1-10-21",
        "指定緊急避難場所との住所同一": "1",
        "その他市町村長が必要と認める事項": null,
        "受入対象者": null,
        "備考": ""
      }
    },
    {
      "type": "Feature",
      "geometry": {
        "type": "Point",
        "coordinates": [
          138.811252,
          37.311355
        ]
      },
      "properties": {
        "NO": 30525,
        "共通ID": "E1520800084111",
        "都道府県名及び市町村名": "新潟県小千谷市",
        "施設・場所名": "東小千谷中学校",
        "住所": "新潟県小千谷市東栄3-6-14",
        "指定緊急避難場所との住所同一": "1",
        "その他市町村長が必要と認める事項": null,
        "受入対象者": null,
        "備考": ""
      }
    },
    {
      "type": "Feature",
      "geometry": {
        "type": "Point",
        "coordinates": [
          138.778853,
          37.370554
        ]
      },
      "properties": {
        "NO": 30526,
        "共通ID": "E1520800085121",
        "都道府県名及び市町村名": "新潟県小千谷市",
        "施設・場所名": "特別養護老人ホーム片貝さくら",
        "住所": "新潟県小千谷市片貝町4708-1",
        "指定緊急避難場所との住所同一": "",
        "その他市町村長が必要と認める事項": null,
        "受入対象者": "要配慮者",
        "備考": ""
      }
    },
    {
      "type": "Feature",
      "geometry": {
        "type": "Point",
        "coordinates": [
          138.779505,
          37.370014
        ]
      },
      "properties": {
        "NO": 30527,
        "共通ID": "E1520800086121",
        "都道府県名及び市町村名": "新潟県小千谷市",
        "施設・場所名": "片貝総合センター",
        "住所": "新潟県小千谷市片貝町4823-1",
        "指定緊急避難場所との住所同一": "1",
        "その他市町村長が必要と認める事項": null,
        "受入対象者": "要配慮者",
        "備考": ""
      }
    },
    {
      "type": "Feature",
      "geometry": {
        "type": "Point",
        "coordinates": [
          138.779659,
          37.370035
        ]
      },
      "properties": {
        "NO": 30528,
        "共通ID": "E1520800086111",
        "都道府県名及び市町村名": "新潟県小千谷市",
        "施設・場所名": "片貝総合センター",
        "住所": "新潟県小千谷市片貝町4823-1",
        "指定緊急避難場所との住所同一": "1",
        "その他市町村長が必要と認める事項": null,
        "受入対象者": null,
        "備考": ""
      }
    },
    {
      "type": "Feature",
      "geometry": {
        "type": "Point",
        "coordinates": [
          138.777601,
          37.36717
        ]
      },
      "properties": {
        "NO": 30529,
        "共通ID": "E1520800087111",
        "都道府県名及び市町村名": "新潟県小千谷市",
        "施設・場所名": "片貝保育園",
        "住所": "新潟県小千谷市片貝町5033-1",
        "指定緊急避難場所との住所同一": "1",
        "その他市町村長が必要と認める事項": null,
        "受入対象者": null,
        "備考": ""
      }
    },
    {
      "type": "Feature",
      "geometry": {
        "type": "Point",
        "coordinates": [
          138.774998,
          37.369324
        ]
      },
      "properties": {
        "NO": 30530,
        "共通ID": "E1520800088111",
        "都道府県名及び市町村名": "新潟県小千谷市",
        "施設・場所名": "片貝ふるさと会館",
        "住所": "新潟県小千谷市片貝町6532-5",
        "指定緊急避難場所との住所同一": "1",
        "その他市町村長が必要と認める事項": null,
        "受入対象者": null,
        "備考": ""
      }
    },
    {
      "type": "Feature",
      "geometry": {
        "type": "Point",
        "coordinates": [
          138.774055,
          37.367139
        ]
      },
      "properties": {
        "NO": 30531,
        "共通ID": "E1520800090111",
        "都道府県名及び市町村名": "新潟県小千谷市",
        "施設・場所名": "片貝小学校",
        "住所": "新潟県小千谷市片貝町8643",
        "指定緊急避難場所との住所同一": "1",
        "その他市町村長が必要と認める事項": null,
        "受入対象者": null,
        "備考": ""
      }
    },
    {
      "type": "Feature",
      "geometry": {
        "type": "Point",
        "coordinates": [
          138.770915,
          37.363866
        ]
      },
      "properties": {
        "NO": 30532,
        "共通ID": "E1520800092111",
        "都道府県名及び市町村名": "新潟県小千谷市",
        "施設・場所名": "片貝中学校",
        "住所": "新潟県小千谷市片貝町8787-2",
        "指定緊急避難場所との住所同一": "1",
        "その他市町村長が必要と認める事項": null,
        "受入対象者": null,
        "備考": ""
      }
    }
  ]
}