{
  "type": "FeatureCollection",
  "name": "152170",
  "features": [
    {
      "type": "Feature",
      "geometry": {
        "type": "Point",
        "coordinates": [
          138.22823,
          37.07237
        ]
      },
      "properties": {
        "NO": 31010,
        "共通ID": "E1521700203121",
        "都道府県名及び市町村名": "新潟県妙高市",
        "施設・場所名": "社会福祉法人上越福祉会　かなやの里更生園・療護園",
        "住所": "新潟県上越市大字下馬場576-78",
        "指定緊急避難場所との住所同一": "",
        "その他市町村長が必要と認める事項": "",
        "受入対象者": "妙高市福祉避難所設置運営マニュアルによる要援護者",
        "備考": ""
      }
    },
    {
      "type": "Feature",
      "geometry": {
        "type": "Point",
        "coordinates": [
          138.25478,
          37.02599
        ]
      },
      "properties": {
        "NO": 31011,
        "共通ID": "E1521700200121",
        "都道府県名及び市町村名": "新潟県妙高市",
        "施設・場所名": "プラウドライフ株式会社　はなことば妙高",
        "住所": "新潟県妙高市栄町1-10",
        "指定緊急避難場所との住所同一": "",
        "その他市町村長が必要と認める事項": "",
        "受入対象者": "妙高市福祉避難所設置運営マニュアルによる要援護者",
        "備考": ""
      }
    },
    {
      "type": "Feature",
      "geometry": {
        "type": "Point",
        "coordinates": [
          138.241873,
          37.019061
        ]
      },
      "properties": {
        "NO": 31012,
        "共通ID": "E1521700013111",
        "都道府県名及び市町村名": "新潟県妙高市",
        "施設・場所名": "新井中学校体育館",
        "住所": "新潟県妙高市錦町1-2-1",
        "指定緊急避難場所との住所同一": "1",
        "その他市町村長が必要と認める事項": null,
        "受入対象者": null,
        "備考": ""
      }
    },
    {
      "type": "Feature",
      "geometry": {
        "type": "Point",
        "coordinates": [
          138.23632,
          37.01645
        ]
      },
      "properties": {
        "NO": 31013,
        "共通ID": "E1521700202121",
        "都道府県名及び市町村名": "新潟県妙高市",
        "施設・場所名": "社会福祉法人上越福祉会　にしき園",
        "住所": "新潟県妙高市錦町2-8-1",
        "指定緊急避難場所との住所同一": "",
        "その他市町村長が必要と認める事項": "",
        "受入対象者": "妙高市福祉避難所設置運営マニュアルによる要援護者",
        "備考": ""
      }
    },
    {
      "type": "Feature",
      "geometry": {
        "type": "Point",
        "coordinates": [
          138.261888,
          37.049793
        ]
      },
      "properties": {
        "NO": 31014,
        "共通ID": "E1521700017111",
        "都道府県名及び市町村名": "新潟県妙高市",
        "施設・場所名": "新井北小学校体育館",
        "住所": "新潟県妙高市栗原4-4-1",
        "指定緊急避難場所との住所同一": "1",
        "その他市町村長が必要と認める事項": null,
        "受入対象者": null,
        "備考": ""
      }
    },
    {
      "type": "Feature",
      "geometry": {
        "type": "Point",
        "coordinates": [
          138.26375,
          37.03279
        ]
      },
      "properties": {
        "NO": 31015,
        "共通ID": "E1521700199121",
        "都道府県名及び市町村名": "新潟県妙高市",
        "施設・場所名": "社会福祉法人上越あたご福祉会　ケアハウス新井",
        "住所": "新潟県妙高市高柳2-6-2",
        "指定緊急避難場所との住所同一": "",
        "その他市町村長が必要と認める事項": "",
        "受入対象者": "妙高市福祉避難所設置運営マニュアルによる要援護者",
        "備考": ""
      }
    },
    {
      "type": "Feature",
      "geometry": {
        "type": "Point",
        "coordinates": [
          138.25046,
          37.01202
        ]
      },
      "properties": {
        "NO": 31016,
        "共通ID": "E1521700201121",
        "都道府県名及び市町村名": "新潟県妙高市",
        "施設・場所名": "社会福祉法人ほっと妙高　障害者サポートセンターのぞみ",
        "住所": "新潟県妙高市小出雲2091-3",
        "指定緊急避難場所との住所同一": "",
        "その他市町村長が必要と認める事項": "",
        "受入対象者": "妙高市福祉避難所設置運営マニュアルによる要援護者",
        "備考": ""
      }
    },
    {
      "type": "Feature",
      "geometry": {
        "type": "Point",
        "coordinates": [
          138.250032,
          37.022816
        ]
      },
      "properties": {
        "NO": 31017,
        "共通ID": "E1521700031111",
        "都道府県名及び市町村名": "新潟県妙高市",
        "施設・場所名": "新井総合コミュニティセンター・文化ホール",
        "住所": "新潟県妙高市上町9-2",
        "指定緊急避難場所との住所同一": "1",
        "その他市町村長が必要と認める事項": "",
        "受入対象者": "",
        "備考": ""
      }
    },
    {
      "type": "Feature",
      "geometry": {
        "type": "Point",
        "coordinates": [
          138.261206,
          37.026744
        ]
      },
      "properties": {
        "NO": 31018,
        "共通ID": "E1521700036111",
        "都道府県名及び市町村名": "新潟県妙高市",
        "施設・場所名": "新井中央小学校体育館",
        "住所": "新潟県妙高市諏訪町2-4-8",
        "指定緊急避難場所との住所同一": "1",
        "その他市町村長が必要と認める事項": null,
        "受入対象者": null,
        "備考": ""
      }
    },
    {
      "type": "Feature",
      "geometry": {
        "type": "Point",
        "coordinates": [
          138.253212,
          37.032576
        ]
      },
      "properties": {
        "NO": 31019,
        "共通ID": "E1521700037111",
        "都道府県名及び市町村名": "新潟県妙高市",
        "施設・場所名": "石塚町公民館",
        "住所": "新潟県妙高市石塚町1-12-21",
        "指定緊急避難場所との住所同一": "1",
        "その他市町村長が必要と認める事項": null,
        "受入対象者": null,
        "備考": ""
      }
    },
    {
      "type": "Feature",
      "geometry": {
        "type": "Point",
        "coordinates": [
          138.25545,
          37.03808
        ]
      },
      "properties": {
        "NO": 31020,
        "共通ID": "E1521700196121",
        "都道府県名及び市町村名": "新潟県妙高市",
        "施設・場所名": "社会福祉法人越後上越福祉会　軽費老人ホーム・ケアハウスあいれふ石塚",
        "住所": "新潟県妙高市石塚町2-7-27",
        "指定緊急避難場所との住所同一": "",
        "その他市町村長が必要と認める事項": "",
        "受入対象者": "妙高市福祉避難所設置運営マニュアルによる要援護者",
        "備考": ""
      }
    },
    {
      "type": "Feature",
      "geometry": {
        "type": "Point",
        "coordinates": [
          138.253433,
          36.950962
        ]
      },
      "properties": {
        "NO": 31021,
        "共通ID": "E1521700042111",
        "都道府県名及び市町村名": "新潟県妙高市",
        "施設・場所名": "旧原通小学校体育館",
        "住所": "新潟県妙高市大字岡新田77-1",
        "指定緊急避難場所との住所同一": "1",
        "その他市町村長が必要と認める事項": null,
        "受入対象者": null,
        "備考": ""
      }
    },
    {
      "type": "Feature",
      "geometry": {
        "type": "Point",
        "coordinates": [
          138.308776,
          36.950937
        ]
      },
      "properties": {
        "NO": 31022,
        "共通ID": "E1521700047111",
        "都道府県名及び市町村名": "新潟県妙高市",
        "施設・場所名": "白岩会館",
        "住所": "新潟県妙高市大字下平丸2302-1",
        "指定緊急避難場所との住所同一": "1",
        "その他市町村長が必要と認める事項": null,
        "受入対象者": null,
        "備考": ""
      }
    },
    {
      "type": "Feature",
      "geometry": {
        "type": "Point",
        "coordinates": [
          138.315374,
          36.948586
        ]
      },
      "properties": {
        "NO": 31023,
        "共通ID": "E1521700190111",
        "都道府県名及び市町村名": "新潟県妙高市",
        "施設・場所名": "ひらまる会館",
        "住所": "新潟県妙高市大字下平丸2977-1",
        "指定緊急避難場所との住所同一": "",
        "その他市町村長が必要と認める事項": "",
        "受入対象者": "",
        "備考": ""
      }
    },
    {
      "type": "Feature",
      "geometry": {
        "type": "Point",
        "coordinates": [
          138.224094,
          36.932524
        ]
      },
      "properties": {
        "NO": 31024,
        "共通ID": "E1521700051111",
        "都道府県名及び市町村名": "新潟県妙高市",
        "施設・場所名": "妙高中学校体育館",
        "住所": "新潟県妙高市大字関山1660",
        "指定緊急避難場所との住所同一": "1",
        "その他市町村長が必要と認める事項": null,
        "受入対象者": null,
        "備考": ""
      }
    },
    {
      "type": "Feature",
      "geometry": {
        "type": "Point",
        "coordinates": [
          138.219261,
          36.934512
        ]
      },
      "properties": {
        "NO": 31025,
        "共通ID": "E1521700053111",
        "都道府県名及び市町村名": "新潟県妙高市",
        "施設・場所名": "妙高小学校体育館",
        "住所": "新潟県妙高市大字関山2785",
        "指定緊急避難場所との住所同一": "1",
        "その他市町村長が必要と認める事項": null,
        "受入対象者": null,
        "備考": ""
      }
    },
    {
      "type": "Feature",
      "geometry": {
        "type": "Point",
        "coordinates": [
          138.20433,
          36.87005
        ]
      },
      "properties": {
        "NO": 31026,
        "共通ID": "E1521700192121",
        "都道府県名及び市町村名": "新潟県妙高市",
        "施設・場所名": "社会福祉法人新井頸南福祉会　特別養護老人ホーム名香山苑",
        "住所": "新潟県妙高市大字関川733-20",
        "指定緊急避難場所との住所同一": "",
        "その他市町村長が必要と認める事項": "妙高市福祉避難所設置運営マニュアルによる援護者",
        "受入対象者": "妙高市福祉避難所設置運営マニュアルによる援護者",
        "備考": ""
      }
    },
    {
      "type": "Feature",
      "geometry": {
        "type": "Point",
        "coordinates": [
          138.202839,
          36.870349
        ]
      },
      "properties": {
        "NO": 31027,
        "共通ID": "E1521700065111",
        "都道府県名及び市町村名": "新潟県妙高市",
        "施設・場所名": "妙高高原中学校体育館",
        "住所": "新潟県妙高市大字関川762",
        "指定緊急避難場所との住所同一": "1",
        "その他市町村長が必要と認める事項": null,
        "受入対象者": null,
        "備考": ""
      }
    },
    {
      "type": "Feature",
      "geometry": {
        "type": "Point",
        "coordinates": [
          138.199283,
          36.866207
        ]
      },
      "properties": {
        "NO": 31028,
        "共通ID": "E1521700066111",
        "都道府県名及び市町村名": "新潟県妙高市",
        "施設・場所名": "妙高高原体育館",
        "住所": "新潟県妙高市大字関川958",
        "指定緊急避難場所との住所同一": "1",
        "その他市町村長が必要と認める事項": null,
        "受入対象者": null,
        "備考": ""
      }
    },
    {
      "type": "Feature",
      "geometry": {
        "type": "Point",
        "coordinates": [
          138.23627,
          37.05752
        ]
      },
      "properties": {
        "NO": 31029,
        "共通ID": "E1521700193121",
        "都道府県名及び市町村名": "新潟県妙高市",
        "施設・場所名": "社会福祉法人新井頸南福祉会　地域密着型介護老人福祉施設ゆきのみや",
        "住所": "新潟県妙高市大字宮内92-3",
        "指定緊急避難場所との住所同一": "",
        "その他市町村長が必要と認める事項": "",
        "受入対象者": "妙高市福祉避難所設置運営マニュアルによる要援護者",
        "備考": ""
      }
    },
    {
      "type": "Feature",
      "geometry": {
        "type": "Point",
        "coordinates": [
          138.247676,
          37.039647
        ]
      },
      "properties": {
        "NO": 31030,
        "共通ID": "E1521700073111",
        "都道府県名及び市町村名": "新潟県妙高市",
        "施設・場所名": "妙高市農村環境改善センター",
        "住所": "新潟県妙高市大字五日市1123-6",
        "指定緊急避難場所との住所同一": "1",
        "その他市町村長が必要と認める事項": null,
        "受入対象者": null,
        "備考": ""
      }
    },
    {
      "type": "Feature",
      "geometry": {
        "type": "Point",
        "coordinates": [
          138.21401,
          37.00602
        ]
      },
      "properties": {
        "NO": 31031,
        "共通ID": "E1521700197121",
        "都道府県名及び市町村名": "新潟県妙高市",
        "施設・場所名": "社会福祉法人わかつき妙高　特別養護老人ホームわかつき妙高",
        "住所": "新潟県妙高市大字志976",
        "指定緊急避難場所との住所同一": "",
        "その他市町村長が必要と認める事項": "",
        "受入対象者": "妙高市福祉避難所設置運営マニュアルによる要援護者",
        "備考": ""
      }
    },
    {
      "type": "Feature",
      "geometry": {
        "type": "Point",
        "coordinates": [
          138.212089,
          37.005316
        ]
      },
      "properties": {
        "NO": 31032,
        "共通ID": "E1521700083111",
        "都道府県名及び市町村名": "新潟県妙高市",
        "施設・場所名": "矢代コミュニティスポーツセンター",
        "住所": "新潟県妙高市大字志994",
        "指定緊急避難場所との住所同一": "1",
        "その他市町村長が必要と認める事項": null,
        "受入対象者": null,
        "備考": ""
      }
    },
    {
      "type": "Feature",
      "geometry": {
        "type": "Point",
        "coordinates": [
          138.268969,
          36.980477
        ]
      },
      "properties": {
        "NO": 31033,
        "共通ID": "E1521700084111",
        "都道府県名及び市町村名": "新潟県妙高市",
        "施設・場所名": "新井南小学校体育館",
        "住所": "新潟県妙高市大字除戸1887",
        "指定緊急避難場所との住所同一": "1",
        "その他市町村長が必要と認める事項": null,
        "受入対象者": null,
        "備考": ""
      }
    },
    {
      "type": "Feature",
      "geometry": {
        "type": "Point",
        "coordinates": [
          138.2717,
          36.97633
        ]
      },
      "properties": {
        "NO": 31034,
        "共通ID": "E1521700195121",
        "都道府県名及び市町村名": "新潟県妙高市",
        "施設・場所名": "社会福祉法人越後上越福祉会　特別養護老人ホームあいれふ妙高",
        "住所": "新潟県妙高市大字除戸243",
        "指定緊急避難場所との住所同一": "",
        "その他市町村長が必要と認める事項": "",
        "受入対象者": "妙高市福祉避難所設置運営マニュアルによる要援護者",
        "備考": ""
      }
    },
    {
      "type": "Feature",
      "geometry": {
        "type": "Point",
        "coordinates": [
          138.235548,
          37.024807
        ]
      },
      "properties": {
        "NO": 31035,
        "共通ID": "E1521700086111",
        "都道府県名及び市町村名": "新潟県妙高市",
        "施設・場所名": "総合支援学校体育館",
        "住所": "新潟県妙高市大字小丸山新田56-2",
        "指定緊急避難場所との住所同一": "1",
        "その他市町村長が必要と認める事項": null,
        "受入対象者": null,
        "備考": ""
      }
    },
    {
      "type": "Feature",
      "geometry": {
        "type": "Point",
        "coordinates": [
          138.26867,
          36.97458
        ]
      },
      "properties": {
        "NO": 31036,
        "共通ID": "E1521700198121",
        "都道府県名及び市町村名": "新潟県妙高市",
        "施設・場所名": "医療法人愛広会　介護老人福祉施設新井愛広苑",
        "住所": "新潟県妙高市大字小原新田528",
        "指定緊急避難場所との住所同一": "",
        "その他市町村長が必要と認める事項": "",
        "受入対象者": "妙高市福祉避難所設置運営マニュアルによる要援護者",
        "備考": ""
      }
    },
    {
      "type": "Feature",
      "geometry": {
        "type": "Point",
        "coordinates": [
          138.26569,
          37.02144
        ]
      },
      "properties": {
        "NO": 31037,
        "共通ID": "E1521700191121",
        "都道府県名及び市町村名": "新潟県妙高市",
        "施設・場所名": "社会福祉法人新井頸南福祉会　特別養護老人ホームみなかみの里",
        "住所": "新潟県妙高市大字上新保549",
        "指定緊急避難場所との住所同一": "",
        "その他市町村長が必要と認める事項": "",
        "受入対象者": "妙高市福祉避難所設置運営マニュアルによる要援護者",
        "備考": ""
      }
    },
    {
      "type": "Feature",
      "geometry": {
        "type": "Point",
        "coordinates": [
          138.165214,
          36.851949
        ]
      },
      "properties": {
        "NO": 31038,
        "共通ID": "E1521700099111",
        "都道府県名及び市町村名": "新潟県妙高市",
        "施設・場所名": "杉野沢トレーニングセンター",
        "住所": "新潟県妙高市大字杉野沢1749",
        "指定緊急避難場所との住所同一": "1",
        "その他市町村長が必要と認める事項": null,
        "受入対象者": null,
        "備考": ""
      }
    },
    {
      "type": "Feature",
      "geometry": {
        "type": "Point",
        "coordinates": [
          138.268714,
          37.028586
        ]
      },
      "properties": {
        "NO": 31039,
        "共通ID": "E1521700103111",
        "都道府県名及び市町村名": "新潟県妙高市",
        "施設・場所名": "水上コミュニティセンター",
        "住所": "新潟県妙高市大字西条451",
        "指定緊急避難場所との住所同一": "1",
        "その他市町村長が必要と認める事項": null,
        "受入対象者": null,
        "備考": ""
      }
    },
    {
      "type": "Feature",
      "geometry": {
        "type": "Point",
        "coordinates": [
          138.252739,
          36.951122
        ]
      },
      "properties": {
        "NO": 31040,
        "共通ID": "E1521700194121",
        "都道府県名及び市町村名": "新潟県妙高市",
        "施設・場所名": "社会福祉法人妙心会　特別養護老人ホーム　ブナの里",
        "住所": "新潟県妙高市大字西田屋新田247",
        "指定緊急避難場所との住所同一": "",
        "その他市町村長が必要と認める事項": "",
        "受入対象者": "妙高市福祉避難所設置運営マニュアルによる要援護者",
        "備考": ""
      }
    },
    {
      "type": "Feature",
      "geometry": {
        "type": "Point",
        "coordinates": [
          138.25965,
          36.942217
        ]
      },
      "properties": {
        "NO": 31041,
        "共通ID": "E1521700114111",
        "都道府県名及び市町村名": "新潟県妙高市",
        "施設・場所名": "大鹿克雪管理センター",
        "住所": "新潟県妙高市大字大鹿2103",
        "指定緊急避難場所との住所同一": "1",
        "その他市町村長が必要と認める事項": null,
        "受入対象者": null,
        "備考": ""
      }
    },
    {
      "type": "Feature",
      "geometry": {
        "type": "Point",
        "coordinates": [
          138.316737,
          36.983463
        ]
      },
      "properties": {
        "NO": 31042,
        "共通ID": "E1521700117111",
        "都道府県名及び市町村名": "新潟県妙高市",
        "施設・場所名": "妙高市多目的集会施設大濁集落センター",
        "住所": "新潟県妙高市大字大濁1767",
        "指定緊急避難場所との住所同一": "1",
        "その他市町村長が必要と認める事項": null,
        "受入対象者": null,
        "備考": ""
      }
    },
    {
      "type": "Feature",
      "geometry": {
        "type": "Point",
        "coordinates": [
          138.276369,
          36.883369
        ]
      },
      "properties": {
        "NO": 31043,
        "共通ID": "E1521700120111",
        "都道府県名及び市町村名": "新潟県妙高市",
        "施設・場所名": "上樽本集会所",
        "住所": "新潟県妙高市大字樽本丙364",
        "指定緊急避難場所との住所同一": "1",
        "その他市町村長が必要と認める事項": null,
        "受入対象者": null,
        "備考": ""
      }
    },
    {
      "type": "Feature",
      "geometry": {
        "type": "Point",
        "coordinates": [
          138.301818,
          36.926502
        ]
      },
      "properties": {
        "NO": 31044,
        "共通ID": "E1521700130111",
        "都道府県名及び市町村名": "新潟県妙高市",
        "施設・場所名": "長沢会館",
        "住所": "新潟県妙高市大字長沢3195-1",
        "指定緊急避難場所との住所同一": "",
        "その他市町村長が必要と認める事項": null,
        "受入対象者": null,
        "備考": ""
      }
    },
    {
      "type": "Feature",
      "geometry": {
        "type": "Point",
        "coordinates": [
          138.206609,
          36.871899
        ]
      },
      "properties": {
        "NO": 31045,
        "共通ID": "E1521700138111",
        "都道府県名及び市町村名": "新潟県妙高市",
        "施設・場所名": "妙高高原メッセ",
        "住所": "新潟県妙高市大字田口33",
        "指定緊急避難場所との住所同一": "1",
        "その他市町村長が必要と認める事項": null,
        "受入対象者": null,
        "備考": ""
      }
    },
    {
      "type": "Feature",
      "geometry": {
        "type": "Point",
        "coordinates": [
          138.206878,
          36.882597
        ]
      },
      "properties": {
        "NO": 31046,
        "共通ID": "E1521700141111",
        "都道府県名及び市町村名": "新潟県妙高市",
        "施設・場所名": "妙高高原小学校体育館",
        "住所": "新潟県妙高市大字田切120",
        "指定緊急避難場所との住所同一": "1",
        "その他市町村長が必要と認める事項": "",
        "受入対象者": "",
        "備考": ""
      }
    },
    {
      "type": "Feature",
      "geometry": {
        "type": "Point",
        "coordinates": [
          138.179104,
          36.889495
        ]
      },
      "properties": {
        "NO": 31047,
        "共通ID": "E1521700152111",
        "都道府県名及び市町村名": "新潟県妙高市",
        "施設・場所名": "赤倉体育センター",
        "住所": "新潟県妙高市大字二俣1516",
        "指定緊急避難場所との住所同一": "1",
        "その他市町村長が必要と認める事項": null,
        "受入対象者": null,
        "備考": ""
      }
    },
    {
      "type": "Feature",
      "geometry": {
        "type": "Point",
        "coordinates": [
          138.24284,
          37.057269
        ]
      },
      "properties": {
        "NO": 31048,
        "共通ID": "E1521700154111",
        "都道府県名及び市町村名": "新潟県妙高市",
        "施設・場所名": "斐太北小学校体育館",
        "住所": "新潟県妙高市大字飛田690",
        "指定緊急避難場所との住所同一": "1",
        "その他市町村長が必要と認める事項": null,
        "受入対象者": null,
        "備考": ""
      }
    },
    {
      "type": "Feature",
      "geometry": {
        "type": "Point",
        "coordinates": [
          138.260384,
          37.006492
        ]
      },
      "properties": {
        "NO": 31049,
        "共通ID": "E1521700158111",
        "都道府県名及び市町村名": "新潟県妙高市",
        "施設・場所名": "姫川原コミュニティスポーツセンター",
        "住所": "新潟県妙高市大字姫川原762-1",
        "指定緊急避難場所との住所同一": "1",
        "その他市町村長が必要と認める事項": null,
        "受入対象者": null,
        "備考": ""
      }
    },
    {
      "type": "Feature",
      "geometry": {
        "type": "Point",
        "coordinates": [
          138.236049,
          36.942134
        ]
      },
      "properties": {
        "NO": 31050,
        "共通ID": "E1521700159111",
        "都道府県名及び市町村名": "新潟県妙高市",
        "施設・場所名": "妙高ふれあいパーク",
        "住所": "新潟県妙高市大字米島新田61",
        "指定緊急避難場所との住所同一": "1",
        "その他市町村長が必要と認める事項": null,
        "受入対象者": null,
        "備考": ""
      }
    },
    {
      "type": "Feature",
      "geometry": {
        "type": "Point",
        "coordinates": [
          138.28255,
          36.973414
        ]
      },
      "properties": {
        "NO": 31051,
        "共通ID": "E1521700169111",
        "都道府県名及び市町村名": "新潟県妙高市",
        "施設・場所名": "妙高市多目的集会施設泉会館",
        "住所": "新潟県妙高市大字和屋52",
        "指定緊急避難場所との住所同一": "1",
        "その他市町村長が必要と認める事項": null,
        "受入対象者": null,
        "備考": ""
      }
    },
    {
      "type": "Feature",
      "geometry": {
        "type": "Point",
        "coordinates": [
          138.269815,
          36.95644
        ]
      },
      "properties": {
        "NO": 31052,
        "共通ID": "E1521700170111",
        "都道府県名及び市町村名": "新潟県妙高市",
        "施設・場所名": "妙高市多目的集会施設瑞穂会館",
        "住所": "新潟県妙高市大字楡島128",
        "指定緊急避難場所との住所同一": "1",
        "その他市町村長が必要と認める事項": null,
        "受入対象者": null,
        "備考": ""
      }
    },
    {
      "type": "Feature",
      "geometry": {
        "type": "Point",
        "coordinates": [
          138.247455,
          37.022939
        ]
      },
      "properties": {
        "NO": 31053,
        "共通ID": "E1521700182111",
        "都道府県名及び市町村名": "新潟県妙高市",
        "施設・場所名": "新井小学校体育館",
        "住所": "新潟県妙高市白山町4-1-12",
        "指定緊急避難場所との住所同一": "1",
        "その他市町村長が必要と認める事項": null,
        "受入対象者": null,
        "備考": ""
      }
    },
    {
      "type": "Feature",
      "geometry": {
        "type": "Point",
        "coordinates": [
          138.248322,
          37.020846
        ]
      },
      "properties": {
        "NO": 31054,
        "共通ID": "E1521700184111",
        "都道府県名及び市町村名": "新潟県妙高市",
        "施設・場所名": "妙高市総合体育館",
        "住所": "新潟県妙高市白山町4-1-31",
        "指定緊急避難場所との住所同一": "1",
        "その他市町村長が必要と認める事項": null,
        "受入対象者": null,
        "備考": ""
      }
    },
    {
      "type": "Feature",
      "geometry": {
        "type": "Point",
        "coordinates": [
          138.296614,
          36.855136
        ]
      },
      "properties": {
        "NO": 31055,
        "共通ID": "E1521700189111",
        "都道府県名及び市町村名": "新潟県妙高市",
        "施設・場所名": "まだらお高原山の家",
        "住所": "長野県飯山市斑尾高原11492-70",
        "指定緊急避難場所との住所同一": "1",
        "その他市町村長が必要と認める事項": null,
        "受入対象者": null,
        "備考": ""
      }
    }
  ]
}