{
  "type": "FeatureCollection",
  "name": "152242",
  "features": [
    {
      "type": "Feature",
      "geometry": {
        "type": "Point",
        "coordinates": [
          138.236001,
          37.975521
        ]
      },
      "properties": {
        "NO": 31354,
        "共通ID": "E1522400001111",
        "都道府県名及び市町村名": "新潟県佐渡市",
        "施設・場所名": "七浦小学校体育館",
        "住所": "新潟県佐渡市稲鯨1312",
        "指定緊急避難場所との住所同一": "1",
        "その他市町村長が必要と認める事項": null,
        "受入対象者": null,
        "備考": ""
      }
    },
    {
      "type": "Feature",
      "geometry": {
        "type": "Point",
        "coordinates": [
          138.328069,
          37.860351
        ]
      },
      "properties": {
        "NO": 31355,
        "共通ID": "E1522400004111",
        "都道府県名及び市町村名": "新潟県佐渡市",
        "施設・場所名": "羽茂Ｂ＆Ｇ海洋センター",
        "住所": "新潟県佐渡市羽茂飯岡195",
        "指定緊急避難場所との住所同一": "1",
        "その他市町村長が必要と認める事項": null,
        "受入対象者": null,
        "備考": ""
      }
    },
    {
      "type": "Feature",
      "geometry": {
        "type": "Point",
        "coordinates": [
          138.314176,
          37.845088
        ]
      },
      "properties": {
        "NO": 31356,
        "共通ID": "E1522400005111",
        "都道府県名及び市町村名": "新潟県佐渡市",
        "施設・場所名": "羽茂高等学校第１体育館",
        "住所": "新潟県佐渡市羽茂本郷401-1",
        "指定緊急避難場所との住所同一": "1",
        "その他市町村長が必要と認める事項": null,
        "受入対象者": null,
        "備考": ""
      }
    },
    {
      "type": "Feature",
      "geometry": {
        "type": "Point",
        "coordinates": [
          138.311923,
          37.842418
        ]
      },
      "properties": {
        "NO": 31357,
        "共通ID": "E1522400006111",
        "都道府県名及び市町村名": "新潟県佐渡市",
        "施設・場所名": "南佐渡中学校体育館",
        "住所": "新潟県佐渡市羽茂本郷47",
        "指定緊急避難場所との住所同一": "1",
        "その他市町村長が必要と認める事項": null,
        "受入対象者": null,
        "備考": ""
      }
    },
    {
      "type": "Feature",
      "geometry": {
        "type": "Point",
        "coordinates": [
          138.318746,
          37.848016
        ]
      },
      "properties": {
        "NO": 31358,
        "共通ID": "E1522400007111",
        "都道府県名及び市町村名": "新潟県佐渡市",
        "施設・場所名": "羽茂小学校体育館",
        "住所": "新潟県佐渡市羽茂本郷559-1",
        "指定緊急避難場所との住所同一": "1",
        "その他市町村長が必要と認める事項": null,
        "受入対象者": null,
        "備考": ""
      }
    },
    {
      "type": "Feature",
      "geometry": {
        "type": "Point",
        "coordinates": [
          138.317065,
          37.849383
        ]
      },
      "properties": {
        "NO": 31359,
        "共通ID": "E1522400008111",
        "都道府県名及び市町村名": "新潟県佐渡市",
        "施設・場所名": "羽茂農村環境改善センター",
        "住所": "新潟県佐渡市羽茂本郷617",
        "指定緊急避難場所との住所同一": "1",
        "その他市町村長が必要と認める事項": null,
        "受入対象者": null,
        "備考": ""
      }
    },
    {
      "type": "Feature",
      "geometry": {
        "type": "Point",
        "coordinates": [
          138.471597,
          38.063804
        ]
      },
      "properties": {
        "NO": 31360,
        "共通ID": "E1522400009111",
        "都道府県名及び市町村名": "新潟県佐渡市",
        "施設・場所名": "河崎小学校体育館",
        "住所": "新潟県佐渡市下久知501",
        "指定緊急避難場所との住所同一": "1",
        "その他市町村長が必要と認める事項": null,
        "受入対象者": null,
        "備考": ""
      }
    },
    {
      "type": "Feature",
      "geometry": {
        "type": "Point",
        "coordinates": [
          138.427683,
          38.091496
        ]
      },
      "properties": {
        "NO": 31361,
        "共通ID": "E1522400011111",
        "都道府県名及び市町村名": "新潟県佐渡市",
        "施設・場所名": "両津中学校体育館",
        "住所": "新潟県佐渡市加茂歌代1449",
        "指定緊急避難場所との住所同一": "1",
        "その他市町村長が必要と認める事項": null,
        "受入対象者": null,
        "備考": ""
      }
    },
    {
      "type": "Feature",
      "geometry": {
        "type": "Point",
        "coordinates": [
          138.319669,
          37.999869
        ]
      },
      "properties": {
        "NO": 31362,
        "共通ID": "E1522400012111",
        "都道府県名及び市町村名": "新潟県佐渡市",
        "施設・場所名": "河原田小学校体育館",
        "住所": "新潟県佐渡市河原田本町262",
        "指定緊急避難場所との住所同一": "1",
        "その他市町村長が必要と認める事項": null,
        "受入対象者": null,
        "備考": ""
      }
    },
    {
      "type": "Feature",
      "geometry": {
        "type": "Point",
        "coordinates": [
          138.322566,
          37.998093
        ]
      },
      "properties": {
        "NO": 31363,
        "共通ID": "E1522400013111",
        "都道府県名及び市町村名": "新潟県佐渡市",
        "施設・場所名": "佐渡中央会館",
        "住所": "新潟県佐渡市河原田本町394-1",
        "指定緊急避難場所との住所同一": "1",
        "その他市町村長が必要と認める事項": null,
        "受入対象者": null,
        "備考": ""
      }
    },
    {
      "type": "Feature",
      "geometry": {
        "type": "Point",
        "coordinates": [
          138.394743,
          38.048674
        ]
      },
      "properties": {
        "NO": 31364,
        "共通ID": "E1522400014111",
        "都道府県名及び市町村名": "新潟県佐渡市",
        "施設・場所名": "金井東部地区コミュニティセンター",
        "住所": "新潟県佐渡市吉井29",
        "指定緊急避難場所との住所同一": "1",
        "その他市町村長が必要と認める事項": null,
        "受入対象者": null,
        "備考": ""
      }
    },
    {
      "type": "Feature",
      "geometry": {
        "type": "Point",
        "coordinates": [
          138.353938,
          37.974019
        ]
      },
      "properties": {
        "NO": 31365,
        "共通ID": "E1522400016111",
        "都道府県名及び市町村名": "新潟県佐渡市",
        "施設・場所名": "佐渡スポーツハウス",
        "住所": "新潟県佐渡市吉岡1675-1",
        "指定緊急避難場所との住所同一": "1",
        "その他市町村長が必要と認める事項": null,
        "受入対象者": null,
        "備考": ""
      }
    },
    {
      "type": "Feature",
      "geometry": {
        "type": "Point",
        "coordinates": [
          138.347727,
          37.970259
        ]
      },
      "properties": {
        "NO": 31366,
        "共通ID": "E1522400017111",
        "都道府県名及び市町村名": "新潟県佐渡市",
        "施設・場所名": "真野ふるさと会館",
        "住所": "新潟県佐渡市吉岡1695",
        "指定緊急避難場所との住所同一": "1",
        "その他市町村長が必要と認める事項": null,
        "受入対象者": null,
        "備考": ""
      }
    },
    {
      "type": "Feature",
      "geometry": {
        "type": "Point",
        "coordinates": [
          138.348904,
          37.969973
        ]
      },
      "properties": {
        "NO": 31367,
        "共通ID": "E1522400017112",
        "都道府県名及び市町村名": "新潟県佐渡市",
        "施設・場所名": "真野小学校体育館",
        "住所": "新潟県佐渡市吉岡1695",
        "指定緊急避難場所との住所同一": "1",
        "その他市町村長が必要と認める事項": null,
        "受入対象者": null,
        "備考": ""
      }
    },
    {
      "type": "Feature",
      "geometry": {
        "type": "Point",
        "coordinates": [
          138.369418,
          38.024142
        ]
      },
      "properties": {
        "NO": 31368,
        "共通ID": "E1522400020111",
        "都道府県名及び市町村名": "新潟県佐渡市",
        "施設・場所名": "金井中学校体育館",
        "住所": "新潟県佐渡市金井新保乙40",
        "指定緊急避難場所との住所同一": "1",
        "その他市町村長が必要と認める事項": null,
        "受入対象者": null,
        "備考": ""
      }
    },
    {
      "type": "Feature",
      "geometry": {
        "type": "Point",
        "coordinates": [
          138.312562,
          38.008562
        ]
      },
      "properties": {
        "NO": 31369,
        "共通ID": "E1522400021111",
        "都道府県名及び市町村名": "新潟県佐渡市",
        "施設・場所名": "佐和田中学校体育館",
        "住所": "新潟県佐渡市窪田60",
        "指定緊急避難場所との住所同一": "1",
        "その他市町村長が必要と認める事項": null,
        "受入対象者": null,
        "備考": ""
      }
    },
    {
      "type": "Feature",
      "geometry": {
        "type": "Point",
        "coordinates": [
          138.311525,
          38.009585
        ]
      },
      "properties": {
        "NO": 31370,
        "共通ID": "E1522400022111",
        "都道府県名及び市町村名": "新潟県佐渡市",
        "施設・場所名": "佐渡市総合体育館",
        "住所": "新潟県佐渡市窪田75-1",
        "指定緊急避難場所との住所同一": "1",
        "その他市町村長が必要と認める事項": null,
        "受入対象者": null,
        "備考": ""
      }
    },
    {
      "type": "Feature",
      "geometry": {
        "type": "Point",
        "coordinates": [
          138.41082,
          38.00175
        ]
      },
      "properties": {
        "NO": 31371,
        "共通ID": "E1522400025111",
        "都道府県名及び市町村名": "新潟県佐渡市",
        "施設・場所名": "佐渡総合高等学校第１体育館",
        "住所": "新潟県佐渡市栗野江377-1",
        "指定緊急避難場所との住所同一": "1",
        "その他市町村長が必要と認める事項": null,
        "受入対象者": null,
        "備考": ""
      }
    },
    {
      "type": "Feature",
      "geometry": {
        "type": "Point",
        "coordinates": [
          138.333661,
          38.197581
        ]
      },
      "properties": {
        "NO": 31372,
        "共通ID": "E1522400026111",
        "都道府県名及び市町村名": "新潟県佐渡市",
        "施設・場所名": "自然休養村管理センター",
        "住所": "新潟県佐渡市高千1014-1",
        "指定緊急避難場所との住所同一": "1",
        "その他市町村長が必要と認める事項": null,
        "受入対象者": null,
        "備考": ""
      }
    },
    {
      "type": "Feature",
      "geometry": {
        "type": "Point",
        "coordinates": [
          138.408829,
          38.065879
        ]
      },
      "properties": {
        "NO": 31373,
        "共通ID": "E1522400027111",
        "都道府県名及び市町村名": "新潟県佐渡市",
        "施設・場所名": "両津吉井小学校体育館",
        "住所": "新潟県佐渡市秋津1255",
        "指定緊急避難場所との住所同一": "1",
        "その他市町村長が必要と認める事項": null,
        "受入対象者": null,
        "備考": ""
      }
    },
    {
      "type": "Feature",
      "geometry": {
        "type": "Point",
        "coordinates": [
          138.279778,
          37.818486
        ]
      },
      "properties": {
        "NO": 31374,
        "共通ID": "E1522400029111",
        "都道府県名及び市町村名": "新潟県佐渡市",
        "施設・場所名": "小木小学校体育館",
        "住所": "新潟県佐渡市小木町905",
        "指定緊急避難場所との住所同一": "1",
        "その他市町村長が必要と認める事項": null,
        "受入対象者": null,
        "備考": ""
      }
    },
    {
      "type": "Feature",
      "geometry": {
        "type": "Point",
        "coordinates": [
          138.279075,
          37.819308
        ]
      },
      "properties": {
        "NO": 31375,
        "共通ID": "E1522400030111",
        "都道府県名及び市町村名": "新潟県佐渡市",
        "施設・場所名": "小木Ｂ＆Ｇ海洋センター",
        "住所": "新潟県佐渡市小木町950",
        "指定緊急避難場所との住所同一": "1",
        "その他市町村長が必要と認める事項": null,
        "受入対象者": null,
        "備考": ""
      }
    },
    {
      "type": "Feature",
      "geometry": {
        "type": "Point",
        "coordinates": [
          138.417185,
          38.015431
        ]
      },
      "properties": {
        "NO": 31376,
        "共通ID": "E1522400032111",
        "都道府県名及び市町村名": "新潟県佐渡市",
        "施設・場所名": "新穂小学校体育館",
        "住所": "新潟県佐渡市上新穂630",
        "指定緊急避難場所との住所同一": "1",
        "その他市町村長が必要と認める事項": null,
        "受入対象者": null,
        "備考": ""
      }
    },
    {
      "type": "Feature",
      "geometry": {
        "type": "Point",
        "coordinates": [
          138.425757,
          38.016382
        ]
      },
      "properties": {
        "NO": 31377,
        "共通ID": "E1522400033111",
        "都道府県名及び市町村名": "新潟県佐渡市",
        "施設・場所名": "トキのむら元気館",
        "住所": "新潟県佐渡市新穂瓜生屋362-1",
        "指定緊急避難場所との住所同一": "1",
        "その他市町村長が必要と認める事項": null,
        "受入対象者": null,
        "備考": ""
      }
    },
    {
      "type": "Feature",
      "geometry": {
        "type": "Point",
        "coordinates": [
          138.426436,
          38.016807
        ]
      },
      "properties": {
        "NO": 31378,
        "共通ID": "E1522400034111",
        "都道府県名及び市町村名": "新潟県佐渡市",
        "施設・場所名": "新穂武道館",
        "住所": "新潟県佐渡市新穂瓜生屋370",
        "指定緊急避難場所との住所同一": "1",
        "その他市町村長が必要と認める事項": null,
        "受入対象者": null,
        "備考": ""
      }
    },
    {
      "type": "Feature",
      "geometry": {
        "type": "Point",
        "coordinates": [
          138.426958,
          38.017178
        ]
      },
      "properties": {
        "NO": 31379,
        "共通ID": "E1522400035111",
        "都道府県名及び市町村名": "新潟県佐渡市",
        "施設・場所名": "新穂体育館",
        "住所": "新潟県佐渡市新穂瓜生屋501",
        "指定緊急避難場所との住所同一": "1",
        "その他市町村長が必要と認める事項": null,
        "受入対象者": null,
        "備考": ""
      }
    },
    {
      "type": "Feature",
      "geometry": {
        "type": "Point",
        "coordinates": [
          138.430866,
          38.016747
        ]
      },
      "properties": {
        "NO": 31380,
        "共通ID": "E1522400036111",
        "都道府県名及び市町村名": "新潟県佐渡市",
        "施設・場所名": "新穂中学校体育館",
        "住所": "新潟県佐渡市新穂瓜生屋719",
        "指定緊急避難場所との住所同一": "1",
        "その他市町村長が必要と認める事項": null,
        "受入対象者": null,
        "備考": ""
      }
    },
    {
      "type": "Feature",
      "geometry": {
        "type": "Point",
        "coordinates": [
          138.433883,
          38.027991
        ]
      },
      "properties": {
        "NO": 31381,
        "共通ID": "E1522400037111",
        "都道府県名及び市町村名": "新潟県佐渡市",
        "施設・場所名": "行谷小学校体育館",
        "住所": "新潟県佐渡市新穂正明寺99",
        "指定緊急避難場所との住所同一": "1",
        "その他市町村長が必要と認める事項": null,
        "受入対象者": null,
        "備考": ""
      }
    },
    {
      "type": "Feature",
      "geometry": {
        "type": "Point",
        "coordinates": [
          138.344366,
          37.957453
        ]
      },
      "properties": {
        "NO": 31382,
        "共通ID": "E1522400039111",
        "都道府県名及び市町村名": "新潟県佐渡市",
        "施設・場所名": "いぶき２１",
        "住所": "新潟県佐渡市真野691",
        "指定緊急避難場所との住所同一": "1",
        "その他市町村長が必要と認める事項": null,
        "受入対象者": null,
        "備考": ""
      }
    },
    {
      "type": "Feature",
      "geometry": {
        "type": "Point",
        "coordinates": [
          138.569433,
          38.07825
        ]
      },
      "properties": {
        "NO": 31383,
        "共通ID": "E1522400040111",
        "都道府県名及び市町村名": "新潟県佐渡市",
        "施設・場所名": "前浜小中学校体育館",
        "住所": "新潟県佐渡市水津858",
        "指定緊急避難場所との住所同一": "1",
        "その他市町村長が必要と認める事項": null,
        "受入対象者": null,
        "備考": ""
      }
    },
    {
      "type": "Feature",
      "geometry": {
        "type": "Point",
        "coordinates": [
          138.321646,
          38.010894
        ]
      },
      "properties": {
        "NO": 31384,
        "共通ID": "E1522400041111",
        "都道府県名及び市町村名": "新潟県佐渡市",
        "施設・場所名": "二宮小学校体育館",
        "住所": "新潟県佐渡市石田489",
        "指定緊急避難場所との住所同一": "1",
        "その他市町村長が必要と認める事項": null,
        "受入対象者": null,
        "備考": ""
      }
    },
    {
      "type": "Feature",
      "geometry": {
        "type": "Point",
        "coordinates": [
          138.322899,
          38.006802
        ]
      },
      "properties": {
        "NO": 31385,
        "共通ID": "E1522400042111",
        "都道府県名及び市町村名": "新潟県佐渡市",
        "施設・場所名": "佐渡高等学校第１体育館",
        "住所": "新潟県佐渡市石田567",
        "指定緊急避難場所との住所同一": "1",
        "その他市町村長が必要と認める事項": null,
        "受入対象者": null,
        "備考": ""
      }
    },
    {
      "type": "Feature",
      "geometry": {
        "type": "Point",
        "coordinates": [
          138.409548,
          37.865703
        ]
      },
      "properties": {
        "NO": 31386,
        "共通ID": "E1522400043111",
        "都道府県名及び市町村名": "新潟県佐渡市",
        "施設・場所名": "赤泊自然休養村管理センター",
        "住所": "新潟県佐渡市赤泊2206-7",
        "指定緊急避難場所との住所同一": "1",
        "その他市町村長が必要と認める事項": null,
        "受入対象者": null,
        "備考": ""
      }
    },
    {
      "type": "Feature",
      "geometry": {
        "type": "Point",
        "coordinates": [
          138.40942,
          37.864183
        ]
      },
      "properties": {
        "NO": 31387,
        "共通ID": "E1522400044111",
        "都道府県名及び市町村名": "新潟県佐渡市",
        "施設・場所名": "赤泊中学校体育館",
        "住所": "新潟県佐渡市赤泊2457",
        "指定緊急避難場所との住所同一": "1",
        "その他市町村長が必要と認める事項": null,
        "受入対象者": null,
        "備考": ""
      }
    },
    {
      "type": "Feature",
      "geometry": {
        "type": "Point",
        "coordinates": [
          138.410582,
          37.865745
        ]
      },
      "properties": {
        "NO": 31388,
        "共通ID": "E1522400045111",
        "都道府県名及び市町村名": "新潟県佐渡市",
        "施設・場所名": "赤泊総合文化会館",
        "住所": "新潟県佐渡市赤泊2458",
        "指定緊急避難場所との住所同一": "1",
        "その他市町村長が必要と認める事項": null,
        "受入対象者": null,
        "備考": ""
      }
    },
    {
      "type": "Feature",
      "geometry": {
        "type": "Point",
        "coordinates": [
          138.410993,
          37.8702
        ]
      },
      "properties": {
        "NO": 31389,
        "共通ID": "E1522400046111",
        "都道府県名及び市町村名": "新潟県佐渡市",
        "施設・場所名": "赤泊体育館",
        "住所": "新潟県佐渡市赤泊283-1",
        "指定緊急避難場所との住所同一": "1",
        "その他市町村長が必要と認める事項": null,
        "受入対象者": null,
        "備考": ""
      }
    },
    {
      "type": "Feature",
      "geometry": {
        "type": "Point",
        "coordinates": [
          138.411544,
          37.871033
        ]
      },
      "properties": {
        "NO": 31390,
        "共通ID": "E1522400047111",
        "都道府県名及び市町村名": "新潟県佐渡市",
        "施設・場所名": "赤泊小学校体育館",
        "住所": "新潟県佐渡市赤泊289-1",
        "指定緊急避難場所との住所同一": "1",
        "その他市町村長が必要と認める事項": null,
        "受入対象者": null,
        "備考": ""
      }
    },
    {
      "type": "Feature",
      "geometry": {
        "type": "Point",
        "coordinates": [
          138.367467,
          38.018208
        ]
      },
      "properties": {
        "NO": 31391,
        "共通ID": "E1522400049111",
        "都道府県名及び市町村名": "新潟県佐渡市",
        "施設・場所名": "金井コミュニティセンター",
        "住所": "新潟県佐渡市千種240",
        "指定緊急避難場所との住所同一": "1",
        "その他市町村長が必要と認める事項": null,
        "受入対象者": null,
        "備考": ""
      }
    },
    {
      "type": "Feature",
      "geometry": {
        "type": "Point",
        "coordinates": [
          138.366564,
          38.025663
        ]
      },
      "properties": {
        "NO": 31392,
        "共通ID": "E1522400050111",
        "都道府県名及び市町村名": "新潟県佐渡市",
        "施設・場所名": "金井小学校体育館",
        "住所": "新潟県佐渡市千種丙178-1",
        "指定緊急避難場所との住所同一": "1",
        "その他市町村長が必要と認める事項": null,
        "受入対象者": null,
        "備考": ""
      }
    },
    {
      "type": "Feature",
      "geometry": {
        "type": "Point",
        "coordinates": [
          138.236692,
          38.036121
        ]
      },
      "properties": {
        "NO": 31393,
        "共通ID": "E1522400051111",
        "都道府県名及び市町村名": "新潟県佐渡市",
        "施設・場所名": "相川体育館",
        "住所": "新潟県佐渡市相川栄町1",
        "指定緊急避難場所との住所同一": "1",
        "その他市町村長が必要と認める事項": null,
        "受入対象者": null,
        "備考": ""
      }
    },
    {
      "type": "Feature",
      "geometry": {
        "type": "Point",
        "coordinates": [
          138.236783,
          38.035601
        ]
      },
      "properties": {
        "NO": 31394,
        "共通ID": "E1522400051112",
        "都道府県名及び市町村名": "新潟県佐渡市",
        "施設・場所名": "あいかわ開発総合センター",
        "住所": "新潟県佐渡市相川栄町1",
        "指定緊急避難場所との住所同一": "1",
        "その他市町村長が必要と認める事項": null,
        "受入対象者": null,
        "備考": ""
      }
    },
    {
      "type": "Feature",
      "geometry": {
        "type": "Point",
        "coordinates": [
          138.240785,
          38.027277
        ]
      },
      "properties": {
        "NO": 31395,
        "共通ID": "E1522400053111",
        "都道府県名及び市町村名": "新潟県佐渡市",
        "施設・場所名": "相川小学校体育館",
        "住所": "新潟県佐渡市相川下戸村1-1",
        "指定緊急避難場所との住所同一": "1",
        "その他市町村長が必要と認める事項": null,
        "受入対象者": null,
        "備考": ""
      }
    },
    {
      "type": "Feature",
      "geometry": {
        "type": "Point",
        "coordinates": [
          138.243799,
          38.024124
        ]
      },
      "properties": {
        "NO": 31396,
        "共通ID": "E1522400054111",
        "都道府県名及び市町村名": "新潟県佐渡市",
        "施設・場所名": "相川中学校体育館",
        "住所": "新潟県佐渡市相川下戸村210",
        "指定緊急避難場所との住所同一": "1",
        "その他市町村長が必要と認める事項": null,
        "受入対象者": null,
        "備考": ""
      }
    },
    {
      "type": "Feature",
      "geometry": {
        "type": "Point",
        "coordinates": [
          138.478101,
          37.914319
        ]
      },
      "properties": {
        "NO": 31397,
        "共通ID": "E1522400055111",
        "都道府県名及び市町村名": "新潟県佐渡市",
        "施設・場所名": "松ヶ崎小中学校体育館",
        "住所": "新潟県佐渡市多田139",
        "指定緊急避難場所との住所同一": "1",
        "その他市町村長が必要と認める事項": null,
        "受入対象者": null,
        "備考": ""
      }
    },
    {
      "type": "Feature",
      "geometry": {
        "type": "Point",
        "coordinates": [
          138.48144,
          37.911838
        ]
      },
      "properties": {
        "NO": 31398,
        "共通ID": "E1522400056111",
        "都道府県名及び市町村名": "新潟県佐渡市",
        "施設・場所名": "松ヶ崎総合センター",
        "住所": "新潟県佐渡市多田262-10",
        "指定緊急避難場所との住所同一": "1",
        "その他市町村長が必要と認める事項": null,
        "受入対象者": null,
        "備考": ""
      }
    },
    {
      "type": "Feature",
      "geometry": {
        "type": "Point",
        "coordinates": [
          138.248944,
          38.08268
        ]
      },
      "properties": {
        "NO": 31399,
        "共通ID": "E1522400058111",
        "都道府県名及び市町村名": "新潟県佐渡市",
        "施設・場所名": "金泉小学校体育館",
        "住所": "新潟県佐渡市達者1200-2",
        "指定緊急避難場所との住所同一": "1",
        "その他市町村長が必要と認める事項": null,
        "受入対象者": null,
        "備考": ""
      }
    },
    {
      "type": "Feature",
      "geometry": {
        "type": "Point",
        "coordinates": [
          138.358732,
          38.01449
        ]
      },
      "properties": {
        "NO": 31400,
        "共通ID": "E1522400060111",
        "都道府県名及び市町村名": "新潟県佐渡市",
        "施設・場所名": "金井西部地区コミュニティセンター",
        "住所": "新潟県佐渡市中興甲371",
        "指定緊急避難場所との住所同一": "1",
        "その他市町村長が必要と認める事項": null,
        "受入対象者": null,
        "備考": ""
      }
    },
    {
      "type": "Feature",
      "geometry": {
        "type": "Point",
        "coordinates": [
          138.317776,
          38.008117
        ]
      },
      "properties": {
        "NO": 31401,
        "共通ID": "E1522400061111",
        "都道府県名及び市町村名": "新潟県佐渡市",
        "施設・場所名": "アミューズメント佐渡（佐渡中央文化会館）",
        "住所": "新潟県佐渡市中原234-1",
        "指定緊急避難場所との住所同一": "1",
        "その他市町村長が必要と認める事項": null,
        "受入対象者": null,
        "備考": ""
      }
    },
    {
      "type": "Feature",
      "geometry": {
        "type": "Point",
        "coordinates": [
          138.321455,
          38.18334
        ]
      },
      "properties": {
        "NO": 31402,
        "共通ID": "E1522400063111",
        "都道府県名及び市町村名": "新潟県佐渡市",
        "施設・場所名": "高千中学校体育館",
        "住所": "新潟県佐渡市入川1872-1",
        "指定緊急避難場所との住所同一": "1",
        "その他市町村長が必要と認める事項": null,
        "受入対象者": null,
        "備考": ""
      }
    },
    {
      "type": "Feature",
      "geometry": {
        "type": "Point",
        "coordinates": [
          138.321897,
          38.184311
        ]
      },
      "properties": {
        "NO": 31403,
        "共通ID": "E1522400064111",
        "都道府県名及び市町村名": "新潟県佐渡市",
        "施設・場所名": "高千小学校体育館",
        "住所": "新潟県佐渡市入川1872-4",
        "指定緊急避難場所との住所同一": "1",
        "その他市町村長が必要と認める事項": null,
        "受入対象者": null,
        "備考": ""
      }
    },
    {
      "type": "Feature",
      "geometry": {
        "type": "Point",
        "coordinates": [
          138.429449,
          38.098188
        ]
      },
      "properties": {
        "NO": 31404,
        "共通ID": "E1522400065111",
        "都道府県名及び市町村名": "新潟県佐渡市",
        "施設・場所名": "佐渡中等教育学校体育館",
        "住所": "新潟県佐渡市梅津1750",
        "指定緊急避難場所との住所同一": "1",
        "その他市町村長が必要と認める事項": null,
        "受入対象者": null,
        "備考": ""
      }
    },
    {
      "type": "Feature",
      "geometry": {
        "type": "Point",
        "coordinates": [
          138.430507,
          38.093548
        ]
      },
      "properties": {
        "NO": 31405,
        "共通ID": "E1522400067111",
        "都道府県名及び市町村名": "新潟県佐渡市",
        "施設・場所名": "加茂小学校体育館",
        "住所": "新潟県佐渡市梅津2341-1",
        "指定緊急避難場所との住所同一": "1",
        "その他市町村長が必要と認める事項": null,
        "受入対象者": null,
        "備考": ""
      }
    },
    {
      "type": "Feature",
      "geometry": {
        "type": "Point",
        "coordinates": [
          138.431554,
          38.093063
        ]
      },
      "properties": {
        "NO": 31406,
        "共通ID": "E1522400068111",
        "都道府県名及び市町村名": "新潟県佐渡市",
        "施設・場所名": "両津総合体育館",
        "住所": "新潟県佐渡市梅津2343-1",
        "指定緊急避難場所との住所同一": "1",
        "その他市町村長が必要と認める事項": null,
        "受入対象者": null,
        "備考": ""
      }
    },
    {
      "type": "Feature",
      "geometry": {
        "type": "Point",
        "coordinates": [
          138.398421,
          37.988512
        ]
      },
      "properties": {
        "NO": 31407,
        "共通ID": "E1522400069111",
        "都道府県名及び市町村名": "新潟県佐渡市",
        "施設・場所名": "畑野中学校体育館",
        "住所": "新潟県佐渡市畑野甲250",
        "指定緊急避難場所との住所同一": "1",
        "その他市町村長が必要と認める事項": null,
        "受入対象者": null,
        "備考": ""
      }
    },
    {
      "type": "Feature",
      "geometry": {
        "type": "Point",
        "coordinates": [
          138.399118,
          37.989658
        ]
      },
      "properties": {
        "NO": 31408,
        "共通ID": "E1522400070111",
        "都道府県名及び市町村名": "新潟県佐渡市",
        "施設・場所名": "畑野小学校体育館",
        "住所": "新潟県佐渡市畑野甲271-1",
        "指定緊急避難場所との住所同一": "1",
        "その他市町村長が必要と認める事項": null,
        "受入対象者": null,
        "備考": ""
      }
    },
    {
      "type": "Feature",
      "geometry": {
        "type": "Point",
        "coordinates": [
          138.394655,
          37.986331
        ]
      },
      "properties": {
        "NO": 31409,
        "共通ID": "E1522400071111",
        "都道府県名及び市町村名": "新潟県佐渡市",
        "施設・場所名": "畑野農村環境改善センター",
        "住所": "新潟県佐渡市畑野甲65-1",
        "指定緊急避難場所との住所同一": "1",
        "その他市町村長が必要と認める事項": null,
        "受入対象者": null,
        "備考": ""
      }
    },
    {
      "type": "Feature",
      "geometry": {
        "type": "Point",
        "coordinates": [
          138.33848,
          37.990737
        ]
      },
      "properties": {
        "NO": 31410,
        "共通ID": "E1522400072111",
        "都道府県名及び市町村名": "新潟県佐渡市",
        "施設・場所名": "八幡小学校体育館",
        "住所": "新潟県佐渡市八幡2002",
        "指定緊急避難場所との住所同一": "1",
        "その他市町村長が必要と認める事項": null,
        "受入対象者": null,
        "備考": ""
      }
    },
    {
      "type": "Feature",
      "geometry": {
        "type": "Point",
        "coordinates": [
          138.346164,
          37.990276
        ]
      },
      "properties": {
        "NO": 31411,
        "共通ID": "E1522400073111",
        "都道府県名及び市町村名": "新潟県佐渡市",
        "施設・場所名": "佐渡市防災センター",
        "住所": "新潟県佐渡市八幡58",
        "指定緊急避難場所との住所同一": "1",
        "その他市町村長が必要と認める事項": null,
        "受入対象者": null,
        "備考": ""
      }
    },
    {
      "type": "Feature",
      "geometry": {
        "type": "Point",
        "coordinates": [
          138.350272,
          37.970905
        ]
      },
      "properties": {
        "NO": 31412,
        "共通ID": "E1522400076111",
        "都道府県名及び市町村名": "新潟県佐渡市",
        "施設・場所名": "真野中学校体育館",
        "住所": "新潟県佐渡市名古屋145",
        "指定緊急避難場所との住所同一": "1",
        "その他市町村長が必要と認める事項": null,
        "受入対象者": null,
        "備考": ""
      }
    },
    {
      "type": "Feature",
      "geometry": {
        "type": "Point",
        "coordinates": [
          138.35107,
          37.971301
        ]
      },
      "properties": {
        "NO": 31413,
        "共通ID": "E1522400078111",
        "都道府県名及び市町村名": "新潟県佐渡市",
        "施設・場所名": "真野武道館",
        "住所": "新潟県佐渡市名古屋165-5",
        "指定緊急避難場所との住所同一": "1",
        "その他市町村長が必要と認める事項": null,
        "受入対象者": null,
        "備考": ""
      }
    },
    {
      "type": "Feature",
      "geometry": {
        "type": "Point",
        "coordinates": [
          138.436341,
          38.083739
        ]
      },
      "properties": {
        "NO": 31414,
        "共通ID": "E1522400079111",
        "都道府県名及び市町村名": "新潟県佐渡市",
        "施設・場所名": "あいぽーと佐渡",
        "住所": "新潟県佐渡市両津夷384-11",
        "指定緊急避難場所との住所同一": "1",
        "その他市町村長が必要と認める事項": null,
        "受入対象者": null,
        "備考": ""
      }
    },
    {
      "type": "Feature",
      "geometry": {
        "type": "Point",
        "coordinates": [
          138.435072,
          38.080823
        ]
      },
      "properties": {
        "NO": 31415,
        "共通ID": "E1522400080111",
        "都道府県名及び市町村名": "新潟県佐渡市",
        "施設・場所名": "佐渡島開発総合センター",
        "住所": "新潟県佐渡市両津湊198",
        "指定緊急避難場所との住所同一": "1",
        "その他市町村長が必要と認める事項": null,
        "受入対象者": null,
        "備考": ""
      }
    },
    {
      "type": "Feature",
      "geometry": {
        "type": "Point",
        "coordinates": [
          138.434564,
          38.080143
        ]
      },
      "properties": {
        "NO": 31416,
        "共通ID": "E1522400081111",
        "都道府県名及び市町村名": "新潟県佐渡市",
        "施設・場所名": "両津小学校体育館",
        "住所": "新潟県佐渡市両津湊200-1",
        "指定緊急避難場所との住所同一": "1",
        "その他市町村長が必要と認める事項": null,
        "受入対象者": null,
        "備考": ""
      }
    },
    {
      "type": "Feature",
      "geometry": {
        "type": "Point",
        "coordinates": [
          138.512798,
          38.320037
        ]
      },
      "properties": {
        "NO": 31417,
        "共通ID": "E1522400083111",
        "都道府県名及び市町村名": "新潟県佐渡市",
        "施設・場所名": "内海府小中学校体育館",
        "住所": "新潟県佐渡市鷲崎918",
        "指定緊急避難場所との住所同一": "1",
        "その他市町村長が必要と認める事項": null,
        "受入対象者": null,
        "備考": ""
      }
    }
  ]
}