{
  "type": "FeatureCollection",
  "name": "162019",
  "features": [
    {
      "type": "Feature",
      "geometry": {
        "type": "Point",
        "coordinates": [
          137.202615,
          36.69424
        ]
      },
      "properties": {
        "NO": 31695,
        "共通ID": "E1620100002111",
        "都道府県名及び市町村名": "富山県富山市",
        "施設・場所名": "旧安野屋小学校体育館",
        "住所": "富山県富山市安野屋町1-1-42",
        "指定緊急避難場所との住所同一": "1",
        "その他市町村長が必要と認める事項": null,
        "受入対象者": null,
        "備考": ""
      }
    },
    {
      "type": "Feature",
      "geometry": {
        "type": "Point",
        "coordinates": [
          137.229834,
          36.508709
        ]
      },
      "properties": {
        "NO": 31696,
        "共通ID": "E1620100003111",
        "都道府県名及び市町村名": "富山県富山市",
        "施設・場所名": "庵谷地区公民館",
        "住所": "富山県富山市庵谷575-1",
        "指定緊急避難場所との住所同一": "1",
        "その他市町村長が必要と認める事項": null,
        "受入対象者": null,
        "備考": ""
      }
    },
    {
      "type": "Feature",
      "geometry": {
        "type": "Point",
        "coordinates": [
          137.225706,
          36.701854
        ]
      },
      "properties": {
        "NO": 31697,
        "共通ID": "E1620100007111",
        "都道府県名及び市町村名": "富山県富山市",
        "施設・場所名": "奥田中学校",
        "住所": "富山県富山市奥井町25-10",
        "指定緊急避難場所との住所同一": "1",
        "その他市町村長が必要と認める事項": null,
        "受入対象者": null,
        "備考": ""
      }
    },
    {
      "type": "Feature",
      "geometry": {
        "type": "Point",
        "coordinates": [
          137.221155,
          36.708122
        ]
      },
      "properties": {
        "NO": 31698,
        "共通ID": "E1620100008111",
        "都道府県名及び市町村名": "富山県富山市",
        "施設・場所名": "奥田小学校",
        "住所": "富山県富山市奥田双葉町10-18",
        "指定緊急避難場所との住所同一": "1",
        "その他市町村長が必要と認める事項": null,
        "受入対象者": null,
        "備考": ""
      }
    },
    {
      "type": "Feature",
      "geometry": {
        "type": "Point",
        "coordinates": [
          137.326586,
          36.582746
        ]
      },
      "properties": {
        "NO": 31699,
        "共通ID": "E1620100009111",
        "都道府県名及び市町村名": "富山県富山市",
        "施設・場所名": "岡田公民館（旧上滝公民館岡田分館）",
        "住所": "富山県富山市岡田781",
        "指定緊急避難場所との住所同一": "1",
        "その他市町村長が必要と認める事項": "",
        "受入対象者": "",
        "備考": ""
      }
    },
    {
      "type": "Feature",
      "geometry": {
        "type": "Point",
        "coordinates": [
          137.212192,
          36.634278
        ]
      },
      "properties": {
        "NO": 31700,
        "共通ID": "E1620100011111",
        "都道府県名及び市町村名": "富山県富山市",
        "施設・場所名": "興南中学校",
        "住所": "富山県富山市下熊野728",
        "指定緊急避難場所との住所同一": "1",
        "その他市町村長が必要と認める事項": null,
        "受入対象者": null,
        "備考": ""
      }
    },
    {
      "type": "Feature",
      "geometry": {
        "type": "Point",
        "coordinates": [
          137.220611,
          36.719318
        ]
      },
      "properties": {
        "NO": 31701,
        "共通ID": "E1620100012111",
        "都道府県名及び市町村名": "富山県富山市",
        "施設・場所名": "奥田北小学校",
        "住所": "富山県富山市下新北町3-72",
        "指定緊急避難場所との住所同一": "1",
        "その他市町村長が必要と認める事項": null,
        "受入対象者": null,
        "備考": ""
      }
    },
    {
      "type": "Feature",
      "geometry": {
        "type": "Point",
        "coordinates": [
          137.208066,
          36.605104
        ]
      },
      "properties": {
        "NO": 31702,
        "共通ID": "E1620100013111",
        "都道府県名及び市町村名": "富山県富山市",
        "施設・場所名": "大久保ふれあいセンター",
        "住所": "富山県富山市下大久保1776-1",
        "指定緊急避難場所との住所同一": "1",
        "その他市町村長が必要と認める事項": null,
        "受入対象者": null,
        "備考": ""
      }
    },
    {
      "type": "Feature",
      "geometry": {
        "type": "Point",
        "coordinates": [
          137.204395,
          36.604529
        ]
      },
      "properties": {
        "NO": 31703,
        "共通ID": "E1620100014111",
        "都道府県名及び市町村名": "富山県富山市",
        "施設・場所名": "大久保小学校",
        "住所": "富山県富山市下大久保2430",
        "指定緊急避難場所との住所同一": "1",
        "その他市町村長が必要と認める事項": null,
        "受入対象者": null,
        "備考": ""
      }
    },
    {
      "type": "Feature",
      "geometry": {
        "type": "Point",
        "coordinates": [
          137.262086,
          36.730608
        ]
      },
      "properties": {
        "NO": 31704,
        "共通ID": "E1620100015111",
        "都道府県名及び市町村名": "富山県富山市",
        "施設・場所名": "富山市民球場",
        "住所": "富山県富山市下飯野30-1",
        "指定緊急避難場所との住所同一": "1",
        "その他市町村長が必要と認める事項": null,
        "受入対象者": null,
        "備考": ""
      }
    },
    {
      "type": "Feature",
      "geometry": {
        "type": "Point",
        "coordinates": [
          137.256756,
          36.74095
        ]
      },
      "properties": {
        "NO": 31705,
        "共通ID": "E1620100016111",
        "都道府県名及び市町村名": "富山県富山市",
        "施設・場所名": "富山東高校",
        "住所": "富山県富山市下飯野荒田6-1",
        "指定緊急避難場所との住所同一": "1",
        "その他市町村長が必要と認める事項": null,
        "受入対象者": null,
        "備考": ""
      }
    },
    {
      "type": "Feature",
      "geometry": {
        "type": "Point",
        "coordinates": [
          137.290665,
          36.611271
        ]
      },
      "properties": {
        "NO": 31706,
        "共通ID": "E1620100017111",
        "都道府県名及び市町村名": "富山県富山市",
        "施設・場所名": "大山社会体育館",
        "住所": "富山県富山市花崎378",
        "指定緊急避難場所との住所同一": "1",
        "その他市町村長が必要と認める事項": "",
        "受入対象者": "",
        "備考": ""
      }
    },
    {
      "type": "Feature",
      "geometry": {
        "type": "Point",
        "coordinates": [
          137.290695,
          36.610713
        ]
      },
      "properties": {
        "NO": 31707,
        "共通ID": "E1620100018111",
        "都道府県名及び市町村名": "富山県富山市",
        "施設・場所名": "大山総合体育センター",
        "住所": "富山県富山市花崎386",
        "指定緊急避難場所との住所同一": "1",
        "その他市町村長が必要と認める事項": "",
        "受入対象者": "",
        "備考": ""
      }
    },
    {
      "type": "Feature",
      "geometry": {
        "type": "Point",
        "coordinates": [
          137.24361,
          36.461964
        ]
      },
      "properties": {
        "NO": 31708,
        "共通ID": "E1620100021111",
        "都道府県名及び市町村名": "富山県富山市",
        "施設・場所名": "蟹寺地区公民館",
        "住所": "富山県富山市蟹寺153",
        "指定緊急避難場所との住所同一": "1",
        "その他市町村長が必要と認める事項": null,
        "受入対象者": null,
        "備考": ""
      }
    },
    {
      "type": "Feature",
      "geometry": {
        "type": "Point",
        "coordinates": [
          137.226946,
          36.54777
        ]
      },
      "properties": {
        "NO": 31709,
        "共通ID": "E1620100022111",
        "都道府県名及び市町村名": "富山県富山市",
        "施設・場所名": "富山県漕艇場",
        "住所": "富山県富山市岩稲20-1",
        "指定緊急避難場所との住所同一": "1",
        "その他市町村長が必要と認める事項": null,
        "受入対象者": null,
        "備考": ""
      }
    },
    {
      "type": "Feature",
      "geometry": {
        "type": "Point",
        "coordinates": [
          137.224815,
          36.549843
        ]
      },
      "properties": {
        "NO": 31710,
        "共通ID": "E1620100023111",
        "都道府県名及び市町村名": "富山県富山市",
        "施設・場所名": "岩稲地区公民館",
        "住所": "富山県富山市岩稲419",
        "指定緊急避難場所との住所同一": "1",
        "その他市町村長が必要と認める事項": null,
        "受入対象者": null,
        "備考": ""
      }
    },
    {
      "type": "Feature",
      "geometry": {
        "type": "Point",
        "coordinates": [
          137.230574,
          36.754188
        ]
      },
      "properties": {
        "NO": 31711,
        "共通ID": "E1620100024111",
        "都道府県名及び市町村名": "富山県富山市",
        "施設・場所名": "岩瀬小学校",
        "住所": "富山県富山市岩瀬御蔵町1",
        "指定緊急避難場所との住所同一": "1",
        "その他市町村長が必要と認める事項": null,
        "受入対象者": null,
        "備考": ""
      }
    },
    {
      "type": "Feature",
      "geometry": {
        "type": "Point",
        "coordinates": [
          137.139494,
          36.721183
        ]
      },
      "properties": {
        "NO": 31712,
        "共通ID": "E1620100029111",
        "都道府県名及び市町村名": "富山県富山市",
        "施設・場所名": "富山短期大学",
        "住所": "富山県富山市願海寺444",
        "指定緊急避難場所との住所同一": "1",
        "その他市町村長が必要と認める事項": null,
        "受入対象者": null,
        "備考": ""
      }
    },
    {
      "type": "Feature",
      "geometry": {
        "type": "Point",
        "coordinates": [
          137.140475,
          36.722039
        ]
      },
      "properties": {
        "NO": 31713,
        "共通ID": "E1620100316111",
        "都道府県名及び市町村名": "富山県富山市",
        "施設・場所名": "富山国際大学付属高等学校",
        "住所": "富山県富山市願海寺水口444",
        "指定緊急避難場所との住所同一": "1",
        "その他市町村長が必要と認める事項": "",
        "受入対象者": "",
        "備考": ""
      }
    },
    {
      "type": "Feature",
      "geometry": {
        "type": "Point",
        "coordinates": [
          137.221072,
          36.629346
        ]
      },
      "properties": {
        "NO": 31714,
        "共通ID": "E1620100032111",
        "都道府県名及び市町村名": "富山県富山市",
        "施設・場所名": "熊野小学校",
        "住所": "富山県富山市宮保602",
        "指定緊急避難場所との住所同一": "1",
        "その他市町村長が必要と認める事項": null,
        "受入対象者": null,
        "備考": ""
      }
    },
    {
      "type": "Feature",
      "geometry": {
        "type": "Point",
        "coordinates": [
          137.165585,
          36.69228
        ]
      },
      "properties": {
        "NO": 31715,
        "共通ID": "E1620100036111",
        "都道府県名及び市町村名": "富山県富山市",
        "施設・場所名": "富山総合支援学校",
        "住所": "富山県富山市金屋4982",
        "指定緊急避難場所との住所同一": "1",
        "その他市町村長が必要と認める事項": null,
        "受入対象者": null,
        "備考": ""
      }
    },
    {
      "type": "Feature",
      "geometry": {
        "type": "Point",
        "coordinates": [
          137.251327,
          36.634142
        ]
      },
      "properties": {
        "NO": 31716,
        "共通ID": "E1620100037111",
        "都道府県名及び市町村名": "富山県富山市",
        "施設・場所名": "営農サポートセンター",
        "住所": "富山県富山市月岡町3-101",
        "指定緊急避難場所との住所同一": "1",
        "その他市町村長が必要と認める事項": null,
        "受入対象者": null,
        "備考": ""
      }
    },
    {
      "type": "Feature",
      "geometry": {
        "type": "Point",
        "coordinates": [
          137.141257,
          36.691601
        ]
      },
      "properties": {
        "NO": 31717,
        "共通ID": "E1620100039111",
        "都道府県名及び市町村名": "富山県富山市",
        "施設・場所名": "古沢小学校",
        "住所": "富山県富山市古沢501",
        "指定緊急避難場所との住所同一": "1",
        "その他市町村長が必要と認める事項": null,
        "受入対象者": null,
        "備考": ""
      }
    },
    {
      "type": "Feature",
      "geometry": {
        "type": "Point",
        "coordinates": [
          137.219482,
          36.686964
        ]
      },
      "properties": {
        "NO": 31718,
        "共通ID": "E1620100040111",
        "都道府県名及び市町村名": "富山県富山市",
        "施設・場所名": "中央小学校",
        "住所": "富山県富山市五番町4-35",
        "指定緊急避難場所との住所同一": "1",
        "その他市町村長が必要と認める事項": null,
        "受入対象者": null,
        "備考": ""
      }
    },
    {
      "type": "Feature",
      "geometry": {
        "type": "Point",
        "coordinates": [
          137.190003,
          36.703321
        ]
      },
      "properties": {
        "NO": 31719,
        "共通ID": "E1620100041111",
        "都道府県名及び市町村名": "富山県富山市",
        "施設・場所名": "西部中学校",
        "住所": "富山県富山市五福130",
        "指定緊急避難場所との住所同一": "1",
        "その他市町村長が必要と認める事項": null,
        "受入対象者": null,
        "備考": ""
      }
    },
    {
      "type": "Feature",
      "geometry": {
        "type": "Point",
        "coordinates": [
          137.193533,
          36.698519
        ]
      },
      "properties": {
        "NO": 31720,
        "共通ID": "E1620100042111",
        "都道府県名及び市町村名": "富山県富山市",
        "施設・場所名": "富山工業高校",
        "住所": "富山県富山市五福2238",
        "指定緊急避難場所との住所同一": "1",
        "その他市町村長が必要と認める事項": null,
        "受入対象者": null,
        "備考": ""
      }
    },
    {
      "type": "Feature",
      "geometry": {
        "type": "Point",
        "coordinates": [
          137.186103,
          36.699312
        ]
      },
      "properties": {
        "NO": 31721,
        "共通ID": "E1620100043111",
        "都道府県名及び市町村名": "富山県富山市",
        "施設・場所名": "富山大学五福キャンパス",
        "住所": "富山県富山市五福3190",
        "指定緊急避難場所との住所同一": "1",
        "その他市町村長が必要と認める事項": null,
        "受入対象者": null,
        "備考": ""
      }
    },
    {
      "type": "Feature",
      "geometry": {
        "type": "Point",
        "coordinates": [
          137.184582,
          36.70228
        ]
      },
      "properties": {
        "NO": 31722,
        "共通ID": "E1620100045111",
        "都道府県名及び市町村名": "富山県富山市",
        "施設・場所名": "五福小学校",
        "住所": "富山県富山市五福4431-2",
        "指定緊急避難場所との住所同一": "1",
        "その他市町村長が必要と認める事項": null,
        "受入対象者": null,
        "備考": ""
      }
    },
    {
      "type": "Feature",
      "geometry": {
        "type": "Point",
        "coordinates": [
          137.194911,
          36.705228
        ]
      },
      "properties": {
        "NO": 31723,
        "共通ID": "E1620100048111",
        "都道府県名及び市町村名": "富山県富山市",
        "施設・場所名": "富山大学附属小・中学校",
        "住所": "富山県富山市五艘1300",
        "指定緊急避難場所との住所同一": "1",
        "その他市町村長が必要と認める事項": null,
        "受入対象者": null,
        "備考": ""
      }
    },
    {
      "type": "Feature",
      "geometry": {
        "type": "Point",
        "coordinates": [
          137.161363,
          36.716828
        ]
      },
      "properties": {
        "NO": 31724,
        "共通ID": "E1620100049111",
        "都道府県名及び市町村名": "富山県富山市",
        "施設・場所名": "呉羽高校",
        "住所": "富山県富山市呉羽町2070-5",
        "指定緊急避難場所との住所同一": "1",
        "その他市町村長が必要と認める事項": null,
        "受入対象者": null,
        "備考": ""
      }
    },
    {
      "type": "Feature",
      "geometry": {
        "type": "Point",
        "coordinates": [
          137.164762,
          36.716974
        ]
      },
      "properties": {
        "NO": 31725,
        "共通ID": "E1620100050111",
        "都道府県名及び市町村名": "富山県富山市",
        "施設・場所名": "富山市民芸術創造センター",
        "住所": "富山県富山市呉羽町2247-3",
        "指定緊急避難場所との住所同一": "1",
        "その他市町村長が必要と認める事項": null,
        "受入対象者": null,
        "備考": ""
      }
    },
    {
      "type": "Feature",
      "geometry": {
        "type": "Point",
        "coordinates": [
          137.169028,
          36.713886
        ]
      },
      "properties": {
        "NO": 31726,
        "共通ID": "E1620100051111",
        "都道府県名及び市町村名": "富山県富山市",
        "施設・場所名": "呉羽小学校",
        "住所": "富山県富山市呉羽町6171",
        "指定緊急避難場所との住所同一": "1",
        "その他市町村長が必要と認める事項": null,
        "受入対象者": null,
        "備考": ""
      }
    },
    {
      "type": "Feature",
      "geometry": {
        "type": "Point",
        "coordinates": [
          137.164895,
          36.712375
        ]
      },
      "properties": {
        "NO": 31727,
        "共通ID": "E1620100052111",
        "都道府県名及び市町村名": "富山県富山市",
        "施設・場所名": "呉羽中学校",
        "住所": "富山県富山市呉羽町6662",
        "指定緊急避難場所との住所同一": "1",
        "その他市町村長が必要と認める事項": null,
        "受入対象者": null,
        "備考": ""
      }
    },
    {
      "type": "Feature",
      "geometry": {
        "type": "Point",
        "coordinates": [
          137.262473,
          36.700538
        ]
      },
      "properties": {
        "NO": 31728,
        "共通ID": "E1620100054111",
        "都道府県名及び市町村名": "富山県富山市",
        "施設・場所名": "富山県技術専門学院",
        "住所": "富山県富山市向新庄町1-14-48",
        "指定緊急避難場所との住所同一": "1",
        "その他市町村長が必要と認める事項": null,
        "受入対象者": null,
        "備考": ""
      }
    },
    {
      "type": "Feature",
      "geometry": {
        "type": "Point",
        "coordinates": [
          137.265264,
          36.706625
        ]
      },
      "properties": {
        "NO": 31729,
        "共通ID": "E1620100055111",
        "都道府県名及び市町村名": "富山県富山市",
        "施設・場所名": "富山第一高校",
        "住所": "富山県富山市向新庄町5-1-54",
        "指定緊急避難場所との住所同一": "1",
        "その他市町村長が必要と認める事項": null,
        "受入対象者": null,
        "備考": ""
      }
    },
    {
      "type": "Feature",
      "geometry": {
        "type": "Point",
        "coordinates": [
          137.253705,
          36.694394
        ]
      },
      "properties": {
        "NO": 31730,
        "共通ID": "E1620100058111",
        "都道府県名及び市町村名": "富山県富山市",
        "施設・場所名": "新庄中学校",
        "住所": "富山県富山市荒川5-4-18",
        "指定緊急避難場所との住所同一": "1",
        "その他市町村長が必要と認める事項": null,
        "受入対象者": null,
        "備考": ""
      }
    },
    {
      "type": "Feature",
      "geometry": {
        "type": "Point",
        "coordinates": [
          137.184558,
          36.686201
        ]
      },
      "properties": {
        "NO": 31731,
        "共通ID": "E1620100060111",
        "都道府県名及び市町村名": "富山県富山市",
        "施設・場所名": "神明小学校",
        "住所": "富山県富山市高田147-2",
        "指定緊急避難場所との住所同一": "1",
        "その他市町村長が必要と認める事項": null,
        "受入対象者": null,
        "備考": ""
      }
    },
    {
      "type": "Feature",
      "geometry": {
        "type": "Point",
        "coordinates": [
          137.206353,
          36.577642
        ]
      },
      "properties": {
        "NO": 31732,
        "共通ID": "E1620100064111",
        "都道府県名及び市町村名": "富山県富山市",
        "施設・場所名": "大沢野小学校",
        "住所": "富山県富山市高内144",
        "指定緊急避難場所との住所同一": "1",
        "その他市町村長が必要と認める事項": null,
        "受入対象者": null,
        "備考": ""
      }
    },
    {
      "type": "Feature",
      "geometry": {
        "type": "Point",
        "coordinates": [
          137.229759,
          36.74643
        ]
      },
      "properties": {
        "NO": 31733,
        "共通ID": "E1620100066111",
        "都道府県名及び市町村名": "富山県富山市",
        "施設・場所名": "萩浦小学校",
        "住所": "富山県富山市高畠町2-11-28",
        "指定緊急避難場所との住所同一": "1",
        "その他市町村長が必要と認める事項": null,
        "受入対象者": null,
        "備考": ""
      }
    },
    {
      "type": "Feature",
      "geometry": {
        "type": "Point",
        "coordinates": [
          137.223966,
          36.585483
        ]
      },
      "properties": {
        "NO": 31734,
        "共通ID": "E1620100071111",
        "都道府県名及び市町村名": "富山県富山市",
        "施設・場所名": "船峅小学校",
        "住所": "富山県富山市坂本1733",
        "指定緊急避難場所との住所同一": "1",
        "その他市町村長が必要と認める事項": null,
        "受入対象者": null,
        "備考": ""
      }
    },
    {
      "type": "Feature",
      "geometry": {
        "type": "Point",
        "coordinates": [
          137.214291,
          36.586411
        ]
      },
      "properties": {
        "NO": 31735,
        "共通ID": "E1620100072111",
        "都道府県名及び市町村名": "富山県富山市",
        "施設・場所名": "富山高等支援学校",
        "住所": "富山県富山市坂本2600",
        "指定緊急避難場所との住所同一": "1",
        "その他市町村長が必要と認める事項": null,
        "受入対象者": null,
        "備考": ""
      }
    },
    {
      "type": "Feature",
      "geometry": {
        "type": "Point",
        "coordinates": [
          137.221539,
          36.583688
        ]
      },
      "properties": {
        "NO": 31736,
        "共通ID": "E1620100073111",
        "都道府県名及び市町村名": "富山県富山市",
        "施設・場所名": "船峅公民館",
        "住所": "富山県富山市坂本482",
        "指定緊急避難場所との住所同一": "1",
        "その他市町村長が必要と認める事項": null,
        "受入対象者": null,
        "備考": ""
      }
    },
    {
      "type": "Feature",
      "geometry": {
        "type": "Point",
        "coordinates": [
          137.213234,
          36.562368
        ]
      },
      "properties": {
        "NO": 31737,
        "共通ID": "E1620100076111",
        "都道府県名及び市町村名": "富山県富山市",
        "施設・場所名": "笹津会館",
        "住所": "富山県富山市笹津495",
        "指定緊急避難場所との住所同一": "1",
        "その他市町村長が必要と認める事項": null,
        "受入対象者": null,
        "備考": ""
      }
    },
    {
      "type": "Feature",
      "geometry": {
        "type": "Point",
        "coordinates": [
          137.240693,
          36.668552
        ]
      },
      "properties": {
        "NO": 31738,
        "共通ID": "E1620100077111",
        "都道府県名及び市町村名": "富山県富山市",
        "施設・場所名": "山室中学校",
        "住所": "富山県富山市山室30-1",
        "指定緊急避難場所との住所同一": "1",
        "その他市町村長が必要と認める事項": null,
        "受入対象者": null,
        "備考": ""
      }
    },
    {
      "type": "Feature",
      "geometry": {
        "type": "Point",
        "coordinates": [
          137.253602,
          36.67185
        ]
      },
      "properties": {
        "NO": 31739,
        "共通ID": "E1620100079111",
        "都道府県名及び市町村名": "富山県富山市",
        "施設・場所名": "山室中部小学校",
        "住所": "富山県富山市山室荒屋162-2",
        "指定緊急避難場所との住所同一": "1",
        "その他市町村長が必要と認める事項": null,
        "受入対象者": null,
        "備考": ""
      }
    },
    {
      "type": "Feature",
      "geometry": {
        "type": "Point",
        "coordinates": [
          137.097037,
          36.583455
        ]
      },
      "properties": {
        "NO": 31740,
        "共通ID": "E1620100081111",
        "都道府県名及び市町村名": "富山県富山市",
        "施設・場所名": "東部地区集会場（沢連）",
        "住所": "富山県富山市山田宿坊823",
        "指定緊急避難場所との住所同一": "1",
        "その他市町村長が必要と認める事項": null,
        "受入対象者": null,
        "備考": ""
      }
    },
    {
      "type": "Feature",
      "geometry": {
        "type": "Point",
        "coordinates": [
          137.049224,
          36.589492
        ]
      },
      "properties": {
        "NO": 31741,
        "共通ID": "E1620100082111",
        "都道府県名及び市町村名": "富山県富山市",
        "施設・場所名": "西部地区集会場（清水）",
        "住所": "富山県富山市山田清水7",
        "指定緊急避難場所との住所同一": "1",
        "その他市町村長が必要と認める事項": null,
        "受入対象者": null,
        "備考": ""
      }
    },
    {
      "type": "Feature",
      "geometry": {
        "type": "Point",
        "coordinates": [
          137.064937,
          36.579935
        ]
      },
      "properties": {
        "NO": 31742,
        "共通ID": "E1620100083111",
        "都道府県名及び市町村名": "富山県富山市",
        "施設・場所名": "山田交流促進センター",
        "住所": "富山県富山市山田赤目谷145",
        "指定緊急避難場所との住所同一": "1",
        "その他市町村長が必要と認める事項": null,
        "受入対象者": null,
        "備考": ""
      }
    },
    {
      "type": "Feature",
      "geometry": {
        "type": "Point",
        "coordinates": [
          137.063537,
          36.551109
        ]
      },
      "properties": {
        "NO": 31743,
        "共通ID": "E1620100084111",
        "都道府県名及び市町村名": "富山県富山市",
        "施設・場所名": "南部地区集会場（谷）",
        "住所": "富山県富山市山田谷425",
        "指定緊急避難場所との住所同一": "1",
        "その他市町村長が必要と認める事項": null,
        "受入対象者": null,
        "備考": ""
      }
    },
    {
      "type": "Feature",
      "geometry": {
        "type": "Point",
        "coordinates": [
          137.084196,
          36.587471
        ]
      },
      "properties": {
        "NO": 31744,
        "共通ID": "E1620100085111",
        "都道府県名及び市町村名": "富山県富山市",
        "施設・場所名": "山田総合体育センター",
        "住所": "富山県富山市山田中瀬2",
        "指定緊急避難場所との住所同一": "1",
        "その他市町村長が必要と認める事項": null,
        "受入対象者": null,
        "備考": ""
      }
    },
    {
      "type": "Feature",
      "geometry": {
        "type": "Point",
        "coordinates": [
          137.080844,
          36.580053
        ]
      },
      "properties": {
        "NO": 31745,
        "共通ID": "E1620100086111",
        "都道府県名及び市町村名": "富山県富山市",
        "施設・場所名": "山田公民館",
        "住所": "富山県富山市山田湯880",
        "指定緊急避難場所との住所同一": "1",
        "その他市町村長が必要と認める事項": null,
        "受入対象者": null,
        "備考": ""
      }
    },
    {
      "type": "Feature",
      "geometry": {
        "type": "Point",
        "coordinates": [
          137.080571,
          36.5847
        ]
      },
      "properties": {
        "NO": 31746,
        "共通ID": "E1620100087111",
        "都道府県名及び市町村名": "富山県富山市",
        "施設・場所名": "山田小・中学校",
        "住所": "富山県富山市山田北山41",
        "指定緊急避難場所との住所同一": "1",
        "その他市町村長が必要と認める事項": null,
        "受入対象者": null,
        "備考": ""
      }
    },
    {
      "type": "Feature",
      "geometry": {
        "type": "Point",
        "coordinates": [
          137.195478,
          36.754912
        ]
      },
      "properties": {
        "NO": 31747,
        "共通ID": "E1620100089111",
        "都道府県名及び市町村名": "富山県富山市",
        "施設・場所名": "四方小学校",
        "住所": "富山県富山市四方405",
        "指定緊急避難場所との住所同一": "1",
        "その他市町村長が必要と認める事項": null,
        "受入対象者": null,
        "備考": ""
      }
    },
    {
      "type": "Feature",
      "geometry": {
        "type": "Point",
        "coordinates": [
          137.204492,
          36.69669
        ]
      },
      "properties": {
        "NO": 31748,
        "共通ID": "E1620100093112",
        "都道府県名及び市町村名": "富山県富山市",
        "施設・場所名": "芝園小学校",
        "住所": "富山県富山市芝園町3-1-26",
        "指定緊急避難場所との住所同一": "1",
        "その他市町村長が必要と認める事項": null,
        "受入対象者": null,
        "備考": ""
      }
    },
    {
      "type": "Feature",
      "geometry": {
        "type": "Point",
        "coordinates": [
          137.204354,
          36.697035
        ]
      },
      "properties": {
        "NO": 31749,
        "共通ID": "E1620100093113",
        "都道府県名及び市町村名": "富山県富山市",
        "施設・場所名": "芝園中学校",
        "住所": "富山県富山市芝園町3-1-26",
        "指定緊急避難場所との住所同一": "1",
        "その他市町村長が必要と認める事項": null,
        "受入対象者": null,
        "備考": ""
      }
    },
    {
      "type": "Feature",
      "geometry": {
        "type": "Point",
        "coordinates": [
          137.203698,
          36.695882
        ]
      },
      "properties": {
        "NO": 31750,
        "共通ID": "E1620100093111",
        "都道府県名及び市町村名": "富山県富山市",
        "施設・場所名": "富山中部高校",
        "住所": "富山県富山市芝園町3-1-26",
        "指定緊急避難場所との住所同一": "1",
        "その他市町村長が必要と認める事項": null,
        "受入対象者": null,
        "備考": ""
      }
    },
    {
      "type": "Feature",
      "geometry": {
        "type": "Point",
        "coordinates": [
          137.220895,
          36.560027
        ]
      },
      "properties": {
        "NO": 31751,
        "共通ID": "E1620100096111",
        "都道府県名及び市町村名": "富山県富山市",
        "施設・場所名": "猿倉コミュニティセンター",
        "住所": "富山県富山市舟新81-1",
        "指定緊急避難場所との住所同一": "1",
        "その他市町村長が必要と認める事項": null,
        "受入対象者": null,
        "備考": ""
      }
    },
    {
      "type": "Feature",
      "geometry": {
        "type": "Point",
        "coordinates": [
          137.24289,
          36.471098
        ]
      },
      "properties": {
        "NO": 31752,
        "共通ID": "E1620100097112",
        "都道府県名及び市町村名": "富山県富山市",
        "施設・場所名": "下タ南部公民館",
        "住所": "富山県富山市舟渡66",
        "指定緊急避難場所との住所同一": "1",
        "その他市町村長が必要と認める事項": null,
        "受入対象者": null,
        "備考": ""
      }
    },
    {
      "type": "Feature",
      "geometry": {
        "type": "Point",
        "coordinates": [
          137.242972,
          36.470854
        ]
      },
      "properties": {
        "NO": 31753,
        "共通ID": "E1620100097111",
        "都道府県名及び市町村名": "富山県富山市",
        "施設・場所名": "下タ南部公民館（体育館）",
        "住所": "富山県富山市舟渡66",
        "指定緊急避難場所との住所同一": "1",
        "その他市町村長が必要と認める事項": "",
        "受入対象者": "",
        "備考": ""
      }
    },
    {
      "type": "Feature",
      "geometry": {
        "type": "Point",
        "coordinates": [
          137.20223,
          36.561304
        ]
      },
      "properties": {
        "NO": 31754,
        "共通ID": "E1620100098111",
        "都道府県名及び市町村名": "富山県富山市",
        "施設・場所名": "大沢野健康福祉センター（ウインディ）",
        "住所": "富山県富山市春日96-1",
        "指定緊急避難場所との住所同一": "1",
        "その他市町村長が必要と認める事項": null,
        "受入対象者": null,
        "備考": ""
      }
    },
    {
      "type": "Feature",
      "geometry": {
        "type": "Point",
        "coordinates": [
          137.189973,
          36.56497
        ]
      },
      "properties": {
        "NO": 31755,
        "共通ID": "E1620100099111",
        "都道府県名及び市町村名": "富山県富山市",
        "施設・場所名": "旧小羽小学校（体育館）",
        "住所": "富山県富山市小羽279",
        "指定緊急避難場所との住所同一": "1",
        "その他市町村長が必要と認める事項": null,
        "受入対象者": null,
        "備考": ""
      }
    },
    {
      "type": "Feature",
      "geometry": {
        "type": "Point",
        "coordinates": [
          137.191424,
          36.564573
        ]
      },
      "properties": {
        "NO": 31756,
        "共通ID": "E1620100100111",
        "都道府県名及び市町村名": "富山県富山市",
        "施設・場所名": "小羽公民館",
        "住所": "富山県富山市小羽361",
        "指定緊急避難場所との住所同一": "1",
        "その他市町村長が必要と認める事項": null,
        "受入対象者": null,
        "備考": ""
      }
    },
    {
      "type": "Feature",
      "geometry": {
        "type": "Point",
        "coordinates": [
          137.384049,
          36.574347
        ]
      },
      "properties": {
        "NO": 31757,
        "共通ID": "E1620100101111",
        "都道府県名及び市町村名": "富山県富山市",
        "施設・場所名": "小見小学校",
        "住所": "富山県富山市小見250",
        "指定緊急避難場所との住所同一": "1",
        "その他市町村長が必要と認める事項": null,
        "受入対象者": null,
        "備考": ""
      }
    },
    {
      "type": "Feature",
      "geometry": {
        "type": "Point",
        "coordinates": [
          137.188356,
          36.693026
        ]
      },
      "properties": {
        "NO": 31758,
        "共通ID": "E1620100103111",
        "都道府県名及び市町村名": "富山県富山市",
        "施設・場所名": "富山商業高校",
        "住所": "富山県富山市庄高田413",
        "指定緊急避難場所との住所同一": "1",
        "その他市町村長が必要と認める事項": null,
        "受入対象者": null,
        "備考": ""
      }
    },
    {
      "type": "Feature",
      "geometry": {
        "type": "Point",
        "coordinates": [
          137.252915,
          36.622538
        ]
      },
      "properties": {
        "NO": 31759,
        "共通ID": "E1620100104111",
        "都道府県名及び市町村名": "富山県富山市",
        "施設・場所名": "月岡小学校",
        "住所": "富山県富山市上千俵町500",
        "指定緊急避難場所との住所同一": "1",
        "その他市町村長が必要と認める事項": null,
        "受入対象者": null,
        "備考": ""
      }
    },
    {
      "type": "Feature",
      "geometry": {
        "type": "Point",
        "coordinates": [
          137.207665,
          36.586493
        ]
      },
      "properties": {
        "NO": 31760,
        "共通ID": "E1620100107111",
        "都道府県名及び市町村名": "富山県富山市",
        "施設・場所名": "旧大沢野北部地区福祉センター",
        "住所": "富山県富山市上大久保187",
        "指定緊急避難場所との住所同一": "1",
        "その他市町村長が必要と認める事項": null,
        "受入対象者": null,
        "備考": ""
      }
    },
    {
      "type": "Feature",
      "geometry": {
        "type": "Point",
        "coordinates": [
          137.30096,
          36.609758
        ]
      },
      "properties": {
        "NO": 31761,
        "共通ID": "E1620100108111",
        "都道府県名及び市町村名": "富山県富山市",
        "施設・場所名": "上滝小学校",
        "住所": "富山県富山市上滝517",
        "指定緊急避難場所との住所同一": "1",
        "その他市町村長が必要と認める事項": null,
        "受入対象者": null,
        "備考": ""
      }
    },
    {
      "type": "Feature",
      "geometry": {
        "type": "Point",
        "coordinates": [
          137.251822,
          36.702115
        ]
      },
      "properties": {
        "NO": 31762,
        "共通ID": "E1620100113111",
        "都道府県名及び市町村名": "富山県富山市",
        "施設・場所名": "新庄小学校",
        "住所": "富山県富山市新庄町1-6-30",
        "指定緊急避難場所との住所同一": "1",
        "その他市町村長が必要と認める事項": null,
        "受入対象者": null,
        "備考": ""
      }
    },
    {
      "type": "Feature",
      "geometry": {
        "type": "Point",
        "coordinates": [
          137.26298,
          36.711098
        ]
      },
      "properties": {
        "NO": 31763,
        "共通ID": "E1620100115111",
        "都道府県名及び市町村名": "富山県富山市",
        "施設・場所名": "新庄北小学校",
        "住所": "富山県富山市新庄本町2-4-11",
        "指定緊急避難場所との住所同一": "1",
        "その他市町村長が必要と認める事項": null,
        "受入対象者": null,
        "備考": ""
      }
    },
    {
      "type": "Feature",
      "geometry": {
        "type": "Point",
        "coordinates": [
          137.20677,
          36.701221
        ]
      },
      "properties": {
        "NO": 31764,
        "共通ID": "E1620100119111",
        "都道府県名及び市町村名": "富山県富山市",
        "施設・場所名": "雄峰高校",
        "住所": "富山県富山市神通町2-12-10",
        "指定緊急避難場所との住所同一": "1",
        "その他市町村長が必要と認める事項": null,
        "受入対象者": null,
        "備考": ""
      }
    },
    {
      "type": "Feature",
      "geometry": {
        "type": "Point",
        "coordinates": [
          137.267702,
          36.729686
        ]
      },
      "properties": {
        "NO": 31765,
        "共通ID": "E1620100120111",
        "都道府県名及び市町村名": "富山県富山市",
        "施設・場所名": "針原小学校",
        "住所": "富山県富山市針原中町523-1",
        "指定緊急避難場所との住所同一": "1",
        "その他市町村長が必要と認める事項": null,
        "受入対象者": null,
        "備考": ""
      }
    },
    {
      "type": "Feature",
      "geometry": {
        "type": "Point",
        "coordinates": [
          137.260375,
          36.759721
        ]
      },
      "properties": {
        "NO": 31766,
        "共通ID": "E1620100122111",
        "都道府県名及び市町村名": "富山県富山市",
        "施設・場所名": "富山学園",
        "住所": "富山県富山市針日225",
        "指定緊急避難場所との住所同一": "1",
        "その他市町村長が必要と認める事項": null,
        "受入対象者": null,
        "備考": ""
      }
    },
    {
      "type": "Feature",
      "geometry": {
        "type": "Point",
        "coordinates": [
          137.307017,
          36.75095
        ]
      },
      "properties": {
        "NO": 31767,
        "共通ID": "E1620100125111",
        "都道府県名及び市町村名": "富山県富山市",
        "施設・場所名": "水橋中学校",
        "住所": "富山県富山市水橋舘町443",
        "指定緊急避難場所との住所同一": "1",
        "その他市町村長が必要と認める事項": null,
        "受入対象者": null,
        "備考": ""
      }
    },
    {
      "type": "Feature",
      "geometry": {
        "type": "Point",
        "coordinates": [
          137.292954,
          36.721096
        ]
      },
      "properties": {
        "NO": 31768,
        "共通ID": "E1620100130111",
        "都道府県名及び市町村名": "富山県富山市",
        "施設・場所名": "三成小学校",
        "住所": "富山県富山市水橋小路345",
        "指定緊急避難場所との住所同一": "1",
        "その他市町村長が必要と認める事項": null,
        "受入対象者": null,
        "備考": ""
      }
    },
    {
      "type": "Feature",
      "geometry": {
        "type": "Point",
        "coordinates": [
          137.324639,
          36.739732
        ]
      },
      "properties": {
        "NO": 31769,
        "共通ID": "E1620100131111",
        "都道府県名及び市町村名": "富山県富山市",
        "施設・場所名": "水橋東部小学校",
        "住所": "富山県富山市水橋上桜木114",
        "指定緊急避難場所との住所同一": "1",
        "その他市町村長が必要と認める事項": null,
        "受入対象者": null,
        "備考": ""
      }
    },
    {
      "type": "Feature",
      "geometry": {
        "type": "Point",
        "coordinates": [
          137.312816,
          36.722435
        ]
      },
      "properties": {
        "NO": 31770,
        "共通ID": "E1620100133111",
        "都道府県名及び市町村名": "富山県富山市",
        "施設・場所名": "三成中学校",
        "住所": "富山県富山市水橋石割70",
        "指定緊急避難場所との住所同一": "1",
        "その他市町村長が必要と認める事項": null,
        "受入対象者": null,
        "備考": ""
      }
    },
    {
      "type": "Feature",
      "geometry": {
        "type": "Point",
        "coordinates": [
          137.314108,
          36.726485
        ]
      },
      "properties": {
        "NO": 31771,
        "共通ID": "E1620100136111",
        "都道府県名及び市町村名": "富山県富山市",
        "施設・場所名": "旧上条小学校（体育館）",
        "住所": "富山県富山市水橋石割99",
        "指定緊急避難場所との住所同一": "1",
        "その他市町村長が必要と認める事項": "",
        "受入対象者": "",
        "備考": ""
      }
    },
    {
      "type": "Feature",
      "geometry": {
        "type": "Point",
        "coordinates": [
          137.307042,
          36.751667
        ]
      },
      "properties": {
        "NO": 31772,
        "共通ID": "E1620100139111",
        "都道府県名及び市町村名": "富山県富山市",
        "施設・場所名": "水橋中部小学校",
        "住所": "富山県富山市水橋町568",
        "指定緊急避難場所との住所同一": "1",
        "その他市町村長が必要と認める事項": null,
        "受入対象者": null,
        "備考": ""
      }
    },
    {
      "type": "Feature",
      "geometry": {
        "type": "Point",
        "coordinates": [
          137.300039,
          36.752123
        ]
      },
      "properties": {
        "NO": 31773,
        "共通ID": "E1620100141111",
        "都道府県名及び市町村名": "富山県富山市",
        "施設・場所名": "水橋西部小学校",
        "住所": "富山県富山市水橋辻ヶ堂1919-2",
        "指定緊急避難場所との住所同一": "1",
        "その他市町村長が必要と認める事項": null,
        "受入対象者": null,
        "備考": ""
      }
    },
    {
      "type": "Feature",
      "geometry": {
        "type": "Point",
        "coordinates": [
          137.141932,
          36.679788
        ]
      },
      "properties": {
        "NO": 31774,
        "共通ID": "E1620100144111",
        "都道府県名及び市町村名": "富山県富山市",
        "施設・場所名": "富山大学杉谷キャンパス",
        "住所": "富山県富山市杉谷2630",
        "指定緊急避難場所との住所同一": "1",
        "その他市町村長が必要と認める事項": null,
        "受入対象者": null,
        "備考": ""
      }
    },
    {
      "type": "Feature",
      "geometry": {
        "type": "Point",
        "coordinates": [
          137.212977,
          36.684585
        ]
      },
      "properties": {
        "NO": 31775,
        "共通ID": "E1620100145111",
        "都道府県名及び市町村名": "富山県富山市",
        "施設・場所名": "旧星井町小学校（体育館）",
        "住所": "富山県富山市星井町2-7-29",
        "指定緊急避難場所との住所同一": "1",
        "その他市町村長が必要と認める事項": null,
        "受入対象者": null,
        "備考": ""
      }
    },
    {
      "type": "Feature",
      "geometry": {
        "type": "Point",
        "coordinates": [
          137.224024,
          36.685612
        ]
      },
      "properties": {
        "NO": 31776,
        "共通ID": "E1620100147111",
        "都道府県名及び市町村名": "富山県富山市",
        "施設・場所名": "旧清水町小学校（体育館）",
        "住所": "富山県富山市清水町8-1-1",
        "指定緊急避難場所との住所同一": "1",
        "その他市町村長が必要と認める事項": null,
        "受入対象者": null,
        "備考": ""
      }
    },
    {
      "type": "Feature",
      "geometry": {
        "type": "Point",
        "coordinates": [
          137.120061,
          36.682891
        ]
      },
      "properties": {
        "NO": 31777,
        "共通ID": "E1620100148111",
        "都道府県名及び市町村名": "富山県富山市",
        "施設・場所名": "池多小学校",
        "住所": "富山県富山市西押川1442",
        "指定緊急避難場所との住所同一": "1",
        "その他市町村長が必要と認める事項": null,
        "受入対象者": null,
        "備考": ""
      }
    },
    {
      "type": "Feature",
      "geometry": {
        "type": "Point",
        "coordinates": [
          137.150731,
          36.695519
        ]
      },
      "properties": {
        "NO": 31778,
        "共通ID": "E1620100149111",
        "都道府県名及び市町村名": "富山県富山市",
        "施設・場所名": "富山県呉羽青少年自然の家",
        "住所": "富山県富山市西金屋8194",
        "指定緊急避難場所との住所同一": "1",
        "その他市町村長が必要と認める事項": null,
        "受入対象者": null,
        "備考": ""
      }
    },
    {
      "type": "Feature",
      "geometry": {
        "type": "Point",
        "coordinates": [
          137.21581,
          36.556704
        ]
      },
      "properties": {
        "NO": 31779,
        "共通ID": "E1620100150111",
        "都道府県名及び市町村名": "富山県富山市",
        "施設・場所名": "西笹津集落センター",
        "住所": "富山県富山市西笹津258",
        "指定緊急避難場所との住所同一": "1",
        "その他市町村長が必要と認める事項": null,
        "受入対象者": null,
        "備考": ""
      }
    },
    {
      "type": "Feature",
      "geometry": {
        "type": "Point",
        "coordinates": [
          137.20642,
          36.685099
        ]
      },
      "properties": {
        "NO": 31780,
        "共通ID": "E1620100154111",
        "都道府県名及び市町村名": "富山県富山市",
        "施設・場所名": "西田地方小学校",
        "住所": "富山県富山市西田地方町1-1-25",
        "指定緊急避難場所との住所同一": "1",
        "その他市町村長が必要と認める事項": null,
        "受入対象者": null,
        "備考": ""
      }
    },
    {
      "type": "Feature",
      "geometry": {
        "type": "Point",
        "coordinates": [
          137.206632,
          36.682767
        ]
      },
      "properties": {
        "NO": 31781,
        "共通ID": "E1620100155111",
        "都道府県名及び市町村名": "富山県富山市",
        "施設・場所名": "南部中学校",
        "住所": "富山県富山市西田地方町2-10-10",
        "指定緊急避難場所との住所同一": "1",
        "その他市町村長が必要と認める事項": null,
        "受入対象者": null,
        "備考": ""
      }
    },
    {
      "type": "Feature",
      "geometry": {
        "type": "Point",
        "coordinates": [
          137.235636,
          36.69039
        ]
      },
      "properties": {
        "NO": 31782,
        "共通ID": "E1620100158111",
        "都道府県名及び市町村名": "富山県富山市",
        "施設・場所名": "東部小学校",
        "住所": "富山県富山市石金1-5-44",
        "指定緊急避難場所との住所同一": "1",
        "その他市町村長が必要と認める事項": null,
        "受入対象者": null,
        "備考": ""
      }
    },
    {
      "type": "Feature",
      "geometry": {
        "type": "Point",
        "coordinates": [
          137.219021,
          36.701249
        ]
      },
      "properties": {
        "NO": 31783,
        "共通ID": "E1620100159111",
        "都道府県名及び市町村名": "富山県富山市",
        "施設・場所名": "龍谷富山高校",
        "住所": "富山県富山市赤江町2-10",
        "指定緊急避難場所との住所同一": "1",
        "その他市町村長が必要と認める事項": null,
        "受入対象者": null,
        "備考": ""
      }
    },
    {
      "type": "Feature",
      "geometry": {
        "type": "Point",
        "coordinates": [
          137.222151,
          36.654223
        ]
      },
      "properties": {
        "NO": 31784,
        "共通ID": "E1620100161111",
        "都道府県名及び市町村名": "富山県富山市",
        "施設・場所名": "蜷川小学校",
        "住所": "富山県富山市赤田75-1",
        "指定緊急避難場所との住所同一": "1",
        "その他市町村長が必要と認める事項": null,
        "受入対象者": null,
        "備考": ""
      }
    },
    {
      "type": "Feature",
      "geometry": {
        "type": "Point",
        "coordinates": [
          137.279102,
          36.619067
        ]
      },
      "properties": {
        "NO": 31785,
        "共通ID": "E1620100163111",
        "都道府県名及び市町村名": "富山県富山市",
        "施設・場所名": "大庄小学校",
        "住所": "富山県富山市善名453",
        "指定緊急避難場所との住所同一": "1",
        "その他市町村長が必要と認める事項": null,
        "受入対象者": null,
        "備考": ""
      }
    },
    {
      "type": "Feature",
      "geometry": {
        "type": "Point",
        "coordinates": [
          137.209585,
          36.690442
        ]
      },
      "properties": {
        "NO": 31786,
        "共通ID": "E1620100167111",
        "都道府県名及び市町村名": "富山県富山市",
        "施設・場所名": "旧総曲輪小学校（体育館）",
        "住所": "富山県富山市総曲輪4-4-7",
        "指定緊急避難場所との住所同一": "1",
        "その他市町村長が必要と認める事項": null,
        "受入対象者": null,
        "備考": ""
      }
    },
    {
      "type": "Feature",
      "geometry": {
        "type": "Point",
        "coordinates": [
          137.208025,
          36.745307
        ]
      },
      "properties": {
        "NO": 31787,
        "共通ID": "E1620100168111",
        "都道府県名及び市町村名": "富山県富山市",
        "施設・場所名": "草島小学校",
        "住所": "富山県富山市草島93",
        "指定緊急避難場所との住所同一": "1",
        "その他市町村長が必要と認める事項": null,
        "受入対象者": null,
        "備考": ""
      }
    },
    {
      "type": "Feature",
      "geometry": {
        "type": "Point",
        "coordinates": [
          137.25095,
          36.653771
        ]
      },
      "properties": {
        "NO": 31788,
        "共通ID": "E1620100169111",
        "都道府県名及び市町村名": "富山県富山市",
        "施設・場所名": "太田小学校",
        "住所": "富山県富山市太田14-2",
        "指定緊急避難場所との住所同一": "1",
        "その他市町村長が必要と認める事項": null,
        "受入対象者": null,
        "備考": ""
      }
    },
    {
      "type": "Feature",
      "geometry": {
        "type": "Point",
        "coordinates": [
          137.217398,
          36.672595
        ]
      },
      "properties": {
        "NO": 31789,
        "共通ID": "E1620100170111",
        "都道府県名及び市町村名": "富山県富山市",
        "施設・場所名": "富山高校",
        "住所": "富山県富山市太郎丸1",
        "指定緊急避難場所との住所同一": "1",
        "その他市町村長が必要と認める事項": null,
        "受入対象者": null,
        "備考": ""
      }
    },
    {
      "type": "Feature",
      "geometry": {
        "type": "Point",
        "coordinates": [
          137.267844,
          36.693803
        ]
      },
      "properties": {
        "NO": 31790,
        "共通ID": "E1620100171111",
        "都道府県名及び市町村名": "富山県富山市",
        "施設・場所名": "富山視覚総合支援学校",
        "住所": "富山県富山市大江干144",
        "指定緊急避難場所との住所同一": "1",
        "その他市町村長が必要と認める事項": null,
        "受入対象者": null,
        "備考": ""
      }
    },
    {
      "type": "Feature",
      "geometry": {
        "type": "Point",
        "coordinates": [
          137.228325,
          36.678994
        ]
      },
      "properties": {
        "NO": 31791,
        "共通ID": "E1620100174111",
        "都道府県名及び市町村名": "富山県富山市",
        "施設・場所名": "大泉中学校",
        "住所": "富山県富山市大泉東町2-11-26",
        "指定緊急避難場所との住所同一": "1",
        "その他市町村長が必要と認める事項": null,
        "受入対象者": null,
        "備考": ""
      }
    },
    {
      "type": "Feature",
      "geometry": {
        "type": "Point",
        "coordinates": [
          137.240125,
          36.678746
        ]
      },
      "properties": {
        "NO": 31792,
        "共通ID": "E1620100176111",
        "都道府県名及び市町村名": "富山県富山市",
        "施設・場所名": "山室小学校",
        "住所": "富山県富山市中市2-10-5",
        "指定緊急避難場所との住所同一": "1",
        "その他市町村長が必要と認める事項": null,
        "受入対象者": null,
        "備考": ""
      }
    },
    {
      "type": "Feature",
      "geometry": {
        "type": "Point",
        "coordinates": [
          137.292513,
          36.610404
        ]
      },
      "properties": {
        "NO": 31793,
        "共通ID": "E1620100178111",
        "都道府県名及び市町村名": "富山県富山市",
        "施設・場所名": "上滝中学校",
        "住所": "富山県富山市中滝160",
        "指定緊急避難場所との住所同一": "1",
        "その他市町村長が必要と認める事項": "",
        "受入対象者": "",
        "備考": ""
      }
    },
    {
      "type": "Feature",
      "geometry": {
        "type": "Point",
        "coordinates": [
          137.251912,
          36.617282
        ]
      },
      "properties": {
        "NO": 31794,
        "共通ID": "E1620100179111",
        "都道府県名及び市町村名": "富山県富山市",
        "施設・場所名": "月岡中学校",
        "住所": "富山県富山市中布目156",
        "指定緊急避難場所との住所同一": "1",
        "その他市町村長が必要と認める事項": null,
        "受入対象者": null,
        "備考": ""
      }
    },
    {
      "type": "Feature",
      "geometry": {
        "type": "Point",
        "coordinates": [
          137.131882,
          36.707771
        ]
      },
      "properties": {
        "NO": 31795,
        "共通ID": "E1620100180111",
        "都道府県名及び市町村名": "富山県富山市",
        "施設・場所名": "老田小学校",
        "住所": "富山県富山市中老田317",
        "指定緊急避難場所との住所同一": "1",
        "その他市町村長が必要と認める事項": null,
        "受入対象者": null,
        "備考": ""
      }
    },
    {
      "type": "Feature",
      "geometry": {
        "type": "Point",
        "coordinates": [
          137.238392,
          36.473022
        ]
      },
      "properties": {
        "NO": 31796,
        "共通ID": "E1620100181111",
        "都道府県名及び市町村名": "富山県富山市",
        "施設・場所名": "細入南部公民館",
        "住所": "富山県富山市猪谷851-1",
        "指定緊急避難場所との住所同一": "1",
        "その他市町村長が必要と認める事項": "",
        "受入対象者": "",
        "備考": ""
      }
    },
    {
      "type": "Feature",
      "geometry": {
        "type": "Point",
        "coordinates": [
          137.239315,
          36.471344
        ]
      },
      "properties": {
        "NO": 31797,
        "共通ID": "E1620100182111",
        "都道府県名及び市町村名": "富山県富山市",
        "施設・場所名": "猪谷関所館",
        "住所": "富山県富山市猪谷978-4",
        "指定緊急避難場所との住所同一": "1",
        "その他市町村長が必要と認める事項": null,
        "受入対象者": null,
        "備考": ""
      }
    },
    {
      "type": "Feature",
      "geometry": {
        "type": "Point",
        "coordinates": [
          137.189089,
          36.719782
        ]
      },
      "properties": {
        "NO": 31798,
        "共通ID": "E1620100183111",
        "都道府県名及び市町村名": "富山県富山市",
        "施設・場所名": "長岡小学校",
        "住所": "富山県富山市長岡9420",
        "指定緊急避難場所との住所同一": "1",
        "その他市町村長が必要と認める事項": null,
        "受入対象者": null,
        "備考": ""
      }
    },
    {
      "type": "Feature",
      "geometry": {
        "type": "Point",
        "coordinates": [
          137.242943,
          36.691451
        ]
      },
      "properties": {
        "NO": 31799,
        "共通ID": "E1620100184111",
        "都道府県名及び市町村名": "富山県富山市",
        "施設・場所名": "東部中学校",
        "住所": "富山県富山市長江新町4-4-60",
        "指定緊急避難場所との住所同一": "1",
        "その他市町村長が必要と認める事項": null,
        "受入対象者": null,
        "備考": ""
      }
    },
    {
      "type": "Feature",
      "geometry": {
        "type": "Point",
        "coordinates": [
          137.249973,
          36.680758
        ]
      },
      "properties": {
        "NO": 31800,
        "共通ID": "E1620100185111",
        "都道府県名及び市町村名": "富山県富山市",
        "施設・場所名": "２０００年体育館",
        "住所": "富山県富山市天正寺1400",
        "指定緊急避難場所との住所同一": "1",
        "その他市町村長が必要と認める事項": null,
        "受入対象者": null,
        "備考": ""
      }
    },
    {
      "type": "Feature",
      "geometry": {
        "type": "Point",
        "coordinates": [
          137.199077,
          36.708279
        ]
      },
      "properties": {
        "NO": 31801,
        "共通ID": "E1620100186111",
        "都道府県名及び市町村名": "富山県富山市",
        "施設・場所名": "桜谷小学校",
        "住所": "富山県富山市田刈屋279",
        "指定緊急避難場所との住所同一": "1",
        "その他市町村長が必要と認める事項": null,
        "受入対象者": null,
        "備考": ""
      }
    },
    {
      "type": "Feature",
      "geometry": {
        "type": "Point",
        "coordinates": [
          137.252846,
          36.754252
        ]
      },
      "properties": {
        "NO": 31802,
        "共通ID": "E1620100187111",
        "都道府県名及び市町村名": "富山県富山市",
        "施設・場所名": "大広田小学校",
        "住所": "富山県富山市田畑183",
        "指定緊急避難場所との住所同一": "1",
        "その他市町村長が必要と認める事項": null,
        "受入対象者": null,
        "備考": ""
      }
    },
    {
      "type": "Feature",
      "geometry": {
        "type": "Point",
        "coordinates": [
          137.238726,
          36.68511
        ]
      },
      "properties": {
        "NO": 31803,
        "共通ID": "E1620100189111",
        "都道府県名及び市町村名": "富山県富山市",
        "施設・場所名": "不二越工業高校",
        "住所": "富山県富山市東石金町7-5",
        "指定緊急避難場所との住所同一": "1",
        "その他市町村長が必要と認める事項": null,
        "受入対象者": null,
        "備考": ""
      }
    },
    {
      "type": "Feature",
      "geometry": {
        "type": "Point",
        "coordinates": [
          137.252949,
          36.748776
        ]
      },
      "properties": {
        "NO": 31804,
        "共通ID": "E1620100190111",
        "都道府県名及び市町村名": "富山県富山市",
        "施設・場所名": "高朋高校",
        "住所": "富山県富山市東富山寿町1-1-39",
        "指定緊急避難場所との住所同一": "1",
        "その他市町村長が必要と認める事項": null,
        "受入対象者": null,
        "備考": ""
      }
    },
    {
      "type": "Feature",
      "geometry": {
        "type": "Point",
        "coordinates": [
          137.249548,
          36.747919
        ]
      },
      "properties": {
        "NO": 31805,
        "共通ID": "E1620100192111",
        "都道府県名及び市町村名": "富山県富山市",
        "施設・場所名": "北部中学校",
        "住所": "富山県富山市東富山寿町2-4-52",
        "指定緊急避難場所との住所同一": "1",
        "その他市町村長が必要と認める事項": null,
        "受入対象者": null,
        "備考": ""
      }
    },
    {
      "type": "Feature",
      "geometry": {
        "type": "Point",
        "coordinates": [
          137.254396,
          36.601655
        ]
      },
      "properties": {
        "NO": 31806,
        "共通ID": "E1620100193111",
        "都道府県名及び市町村名": "富山県富山市",
        "施設・場所名": "大山農村環境改善センター",
        "住所": "富山県富山市東福沢1818",
        "指定緊急避難場所との住所同一": "1",
        "その他市町村長が必要と認める事項": null,
        "受入対象者": null,
        "備考": ""
      }
    },
    {
      "type": "Feature",
      "geometry": {
        "type": "Point",
        "coordinates": [
          137.256935,
          36.603436
        ]
      },
      "properties": {
        "NO": 31807,
        "共通ID": "E1620100194111",
        "都道府県名及び市町村名": "富山県富山市",
        "施設・場所名": "福沢小学校",
        "住所": "富山県富山市東福沢46-4",
        "指定緊急避難場所との住所同一": "1",
        "その他市町村長が必要と認める事項": null,
        "受入対象者": null,
        "備考": ""
      }
    },
    {
      "type": "Feature",
      "geometry": {
        "type": "Point",
        "coordinates": [
          137.26815,
          36.686873
        ]
      },
      "properties": {
        "NO": 31808,
        "共通ID": "E1620100195111",
        "都道府県名及び市町村名": "富山県富山市",
        "施設・場所名": "藤ノ木小学校",
        "住所": "富山県富山市藤木1246",
        "指定緊急避難場所との住所同一": "1",
        "その他市町村長が必要と認める事項": null,
        "受入対象者": null,
        "備考": ""
      }
    },
    {
      "type": "Feature",
      "geometry": {
        "type": "Point",
        "coordinates": [
          137.246989,
          36.713522
        ]
      },
      "properties": {
        "NO": 31809,
        "共通ID": "E1620100197111",
        "都道府県名及び市町村名": "富山県富山市",
        "施設・場所名": "広田小学校",
        "住所": "富山県富山市鍋田22-53",
        "指定緊急避難場所との住所同一": "1",
        "その他市町村長が必要と認める事項": null,
        "受入対象者": null,
        "備考": ""
      }
    },
    {
      "type": "Feature",
      "geometry": {
        "type": "Point",
        "coordinates": [
          137.203756,
          36.673155
        ]
      },
      "properties": {
        "NO": 31810,
        "共通ID": "E1620100199111",
        "都道府県名及び市町村名": "富山県富山市",
        "施設・場所名": "光陽小学校",
        "住所": "富山県富山市二口町1-4-1",
        "指定緊急避難場所との住所同一": "1",
        "その他市町村長が必要と認める事項": null,
        "受入対象者": null,
        "備考": ""
      }
    },
    {
      "type": "Feature",
      "geometry": {
        "type": "Point",
        "coordinates": [
          137.273533,
          36.577097
        ]
      },
      "properties": {
        "NO": 31811,
        "共通ID": "E1620100200111",
        "都道府県名及び市町村名": "富山県富山市",
        "施設・場所名": "日尾公民館（旧瀬戸集落センター）",
        "住所": "富山県富山市日尾214-1",
        "指定緊急避難場所との住所同一": "1",
        "その他市町村長が必要と認める事項": null,
        "受入対象者": null,
        "備考": ""
      }
    },
    {
      "type": "Feature",
      "geometry": {
        "type": "Point",
        "coordinates": [
          137.273544,
          36.691873
        ]
      },
      "properties": {
        "NO": 31812,
        "共通ID": "E1620100201111",
        "都道府県名及び市町村名": "富山県富山市",
        "施設・場所名": "藤ノ木中学校",
        "住所": "富山県富山市日俣222",
        "指定緊急避難場所との住所同一": "1",
        "その他市町村長が必要と認める事項": null,
        "受入対象者": null,
        "備考": ""
      }
    },
    {
      "type": "Feature",
      "geometry": {
        "type": "Point",
        "coordinates": [
          137.194799,
          36.634606
        ]
      },
      "properties": {
        "NO": 31813,
        "共通ID": "E1620100202111",
        "都道府県名及び市町村名": "富山県富山市",
        "施設・場所名": "新保小学校",
        "住所": "富山県富山市任海888-2",
        "指定緊急避難場所との住所同一": "1",
        "その他市町村長が必要と認める事項": null,
        "受入対象者": null,
        "備考": ""
      }
    },
    {
      "type": "Feature",
      "geometry": {
        "type": "Point",
        "coordinates": [
          137.217295,
          36.693392
        ]
      },
      "properties": {
        "NO": 31814,
        "共通ID": "E1620100203111",
        "都道府県名及び市町村名": "富山県富山市",
        "施設・場所名": "旧八人町小学校（体育館）",
        "住所": "富山県富山市八人町5-17",
        "指定緊急避難場所との住所同一": "1",
        "その他市町村長が必要と認める事項": null,
        "受入対象者": null,
        "備考": ""
      }
    },
    {
      "type": "Feature",
      "geometry": {
        "type": "Point",
        "coordinates": [
          137.196146,
          36.740874
        ]
      },
      "properties": {
        "NO": 31815,
        "共通ID": "E1620100205111",
        "都道府県名及び市町村名": "富山県富山市",
        "施設・場所名": "八幡小学校",
        "住所": "富山県富山市八幡670",
        "指定緊急避難場所との住所同一": "1",
        "その他市町村長が必要と認める事項": null,
        "受入対象者": null,
        "備考": ""
      }
    },
    {
      "type": "Feature",
      "geometry": {
        "type": "Point",
        "coordinates": [
          137.143735,
          36.601364
        ]
      },
      "properties": {
        "NO": 31816,
        "共通ID": "E1620100206111",
        "都道府県名及び市町村名": "富山県富山市",
        "施設・場所名": "八尾スポーツアリーナ",
        "住所": "富山県富山市八尾町井田101",
        "指定緊急避難場所との住所同一": "1",
        "その他市町村長が必要と認める事項": null,
        "受入対象者": null,
        "備考": ""
      }
    },
    {
      "type": "Feature",
      "geometry": {
        "type": "Point",
        "coordinates": [
          137.14345,
          36.599681
        ]
      },
      "properties": {
        "NO": 31817,
        "共通ID": "E1620100232111",
        "都道府県名及び市町村名": "富山県富山市",
        "施設・場所名": "八尾中学校",
        "住所": "富山県富山市八尾町井田120-1",
        "指定緊急避難場所との住所同一": "1",
        "その他市町村長が必要と認める事項": "",
        "受入対象者": "",
        "備考": ""
      }
    },
    {
      "type": "Feature",
      "geometry": {
        "type": "Point",
        "coordinates": [
          137.143599,
          36.600419
        ]
      },
      "properties": {
        "NO": 31818,
        "共通ID": "E1620100208111",
        "都道府県名及び市町村名": "富山県富山市",
        "施設・場所名": "八尾コミュニティセンター",
        "住所": "富山県富山市八尾町井田126",
        "指定緊急避難場所との住所同一": "1",
        "その他市町村長が必要と認める事項": null,
        "受入対象者": null,
        "備考": ""
      }
    },
    {
      "type": "Feature",
      "geometry": {
        "type": "Point",
        "coordinates": [
          137.149697,
          36.564306
        ]
      },
      "properties": {
        "NO": 31819,
        "共通ID": "E1620100209111",
        "都道府県名及び市町村名": "富山県富山市",
        "施設・場所名": "卯花公民館",
        "住所": "富山県富山市八尾町下笹原42-1",
        "指定緊急避難場所との住所同一": "1",
        "その他市町村長が必要と認める事項": null,
        "受入対象者": null,
        "備考": ""
      }
    },
    {
      "type": "Feature",
      "geometry": {
        "type": "Point",
        "coordinates": [
          137.137924,
          36.576042
        ]
      },
      "properties": {
        "NO": 31820,
        "共通ID": "E1620100207111",
        "都道府県名及び市町村名": "富山県富山市",
        "施設・場所名": "八尾小学校",
        "住所": "富山県富山市八尾町下笹原5320",
        "指定緊急避難場所との住所同一": "1",
        "その他市町村長が必要と認める事項": null,
        "受入対象者": null,
        "備考": ""
      }
    },
    {
      "type": "Feature",
      "geometry": {
        "type": "Point",
        "coordinates": [
          137.140706,
          36.568937
        ]
      },
      "properties": {
        "NO": 31821,
        "共通ID": "E1620100210111",
        "都道府県名及び市町村名": "富山県富山市",
        "施設・場所名": "八尾ゆめの森交流施設（中山間地活性化施設）",
        "住所": "富山県富山市八尾町下笹原678-1",
        "指定緊急避難場所との住所同一": "1",
        "その他市町村長が必要と認める事項": "",
        "受入対象者": "",
        "備考": ""
      }
    },
    {
      "type": "Feature",
      "geometry": {
        "type": "Point",
        "coordinates": [
          137.159632,
          36.571063
        ]
      },
      "properties": {
        "NO": 31822,
        "共通ID": "E1620100211111",
        "都道府県名及び市町村名": "富山県富山市",
        "施設・場所名": "旧黒瀬谷公民館",
        "住所": "富山県富山市八尾町樫尾162",
        "指定緊急避難場所との住所同一": "1",
        "その他市町村長が必要と認める事項": "",
        "受入対象者": "",
        "備考": ""
      }
    },
    {
      "type": "Feature",
      "geometry": {
        "type": "Point",
        "coordinates": [
          137.181925,
          36.521121
        ]
      },
      "properties": {
        "NO": 31823,
        "共通ID": "E1620100212111",
        "都道府県名及び市町村名": "富山県富山市",
        "施設・場所名": "桐谷防雪センター",
        "住所": "富山県富山市八尾町桐谷2055",
        "指定緊急避難場所との住所同一": "1",
        "その他市町村長が必要と認める事項": null,
        "受入対象者": null,
        "備考": ""
      }
    },
    {
      "type": "Feature",
      "geometry": {
        "type": "Point",
        "coordinates": [
          137.136991,
          36.611102
        ]
      },
      "properties": {
        "NO": 31824,
        "共通ID": "E1620100213111",
        "都道府県名及び市町村名": "富山県富山市",
        "施設・場所名": "保内小学校",
        "住所": "富山県富山市八尾町高善寺162",
        "指定緊急避難場所との住所同一": "1",
        "その他市町村長が必要と認める事項": null,
        "受入対象者": null,
        "備考": ""
      }
    },
    {
      "type": "Feature",
      "geometry": {
        "type": "Point",
        "coordinates": [
          137.162715,
          36.600206
        ]
      },
      "properties": {
        "NO": 31825,
        "共通ID": "E1620100214111",
        "都道府県名及び市町村名": "富山県富山市",
        "施設・場所名": "杉原小学校",
        "住所": "富山県富山市八尾町黒田3636",
        "指定緊急避難場所との住所同一": "1",
        "その他市町村長が必要と認める事項": null,
        "受入対象者": null,
        "備考": ""
      }
    },
    {
      "type": "Feature",
      "geometry": {
        "type": "Point",
        "coordinates": [
          137.097151,
          36.529579
        ]
      },
      "properties": {
        "NO": 31826,
        "共通ID": "E1620100215111",
        "都道府県名及び市町村名": "富山県富山市",
        "施設・場所名": "仁歩公民館",
        "住所": "富山県富山市八尾町三ッ松14-1",
        "指定緊急避難場所との住所同一": "1",
        "その他市町村長が必要と認める事項": "",
        "受入対象者": "",
        "備考": ""
      }
    },
    {
      "type": "Feature",
      "geometry": {
        "type": "Point",
        "coordinates": [
          137.155064,
          36.57542
        ]
      },
      "properties": {
        "NO": 31827,
        "共通ID": "E1620100216111",
        "都道府県名及び市町村名": "富山県富山市",
        "施設・場所名": "旧樫尾小学校",
        "住所": "富山県富山市八尾町小長谷349",
        "指定緊急避難場所との住所同一": "1",
        "その他市町村長が必要と認める事項": "",
        "受入対象者": "",
        "備考": ""
      }
    },
    {
      "type": "Feature",
      "geometry": {
        "type": "Point",
        "coordinates": [
          137.154166,
          36.575525
        ]
      },
      "properties": {
        "NO": 31828,
        "共通ID": "E1620100217111",
        "都道府県名及び市町村名": "富山県富山市",
        "施設・場所名": "黒瀬谷公民館",
        "住所": "富山県富山市八尾町小長谷352",
        "指定緊急避難場所との住所同一": "1",
        "その他市町村長が必要と認める事項": "",
        "受入対象者": "",
        "備考": ""
      }
    },
    {
      "type": "Feature",
      "geometry": {
        "type": "Point",
        "coordinates": [
          137.130619,
          36.576115
        ]
      },
      "properties": {
        "NO": 31829,
        "共通ID": "E1620100218111",
        "都道府県名及び市町村名": "富山県富山市",
        "施設・場所名": "八尾曳山展示館",
        "住所": "富山県富山市八尾町上新町2898-1",
        "指定緊急避難場所との住所同一": "1",
        "その他市町村長が必要と認める事項": null,
        "受入対象者": null,
        "備考": ""
      }
    },
    {
      "type": "Feature",
      "geometry": {
        "type": "Point",
        "coordinates": [
          137.131552,
          36.605835
        ]
      },
      "properties": {
        "NO": 31830,
        "共通ID": "E1620100219111",
        "都道府県名及び市町村名": "富山県富山市",
        "施設・場所名": "保内公民館",
        "住所": "富山県富山市八尾町新田101",
        "指定緊急避難場所との住所同一": "1",
        "その他市町村長が必要と認める事項": null,
        "受入対象者": null,
        "備考": ""
      }
    },
    {
      "type": "Feature",
      "geometry": {
        "type": "Point",
        "coordinates": [
          137.124731,
          36.548828
        ]
      },
      "properties": {
        "NO": 31831,
        "共通ID": "E1620100220111",
        "都道府県名及び市町村名": "富山県富山市",
        "施設・場所名": "野積公民館",
        "住所": "富山県富山市八尾町水口242",
        "指定緊急避難場所との住所同一": "1",
        "その他市町村長が必要と認める事項": "",
        "受入対象者": "",
        "備考": ""
      }
    },
    {
      "type": "Feature",
      "geometry": {
        "type": "Point",
        "coordinates": [
          137.162867,
          36.601385
        ]
      },
      "properties": {
        "NO": 31832,
        "共通ID": "E1620100221111",
        "都道府県名及び市町村名": "富山県富山市",
        "施設・場所名": "杉原公民館",
        "住所": "富山県富山市八尾町大杉12",
        "指定緊急避難場所との住所同一": "1",
        "その他市町村長が必要と認める事項": null,
        "受入対象者": null,
        "備考": ""
      }
    },
    {
      "type": "Feature",
      "geometry": {
        "type": "Point",
        "coordinates": [
          137.111785,
          36.570998
        ]
      },
      "properties": {
        "NO": 31833,
        "共通ID": "E1620100223111",
        "都道府県名及び市町村名": "富山県富山市",
        "施設・場所名": "室牧公民館",
        "住所": "富山県富山市八尾町中242",
        "指定緊急避難場所との住所同一": "1",
        "その他市町村長が必要と認める事項": "",
        "受入対象者": "",
        "備考": ""
      }
    },
    {
      "type": "Feature",
      "geometry": {
        "type": "Point",
        "coordinates": [
          137.136301,
          36.576672
        ]
      },
      "properties": {
        "NO": 31834,
        "共通ID": "E1620100224111",
        "都道府県名及び市町村名": "富山県富山市",
        "施設・場所名": "八尾公民館",
        "住所": "富山県富山市八尾町東町2108-10",
        "指定緊急避難場所との住所同一": "1",
        "その他市町村長が必要と認める事項": null,
        "受入対象者": null,
        "備考": ""
      }
    },
    {
      "type": "Feature",
      "geometry": {
        "type": "Point",
        "coordinates": [
          137.138104,
          36.578377
        ]
      },
      "properties": {
        "NO": 31835,
        "共通ID": "E1620100225111",
        "都道府県名及び市町村名": "富山県富山市",
        "施設・場所名": "八尾ふらっと館",
        "住所": "富山県富山市八尾町東町2149",
        "指定緊急避難場所との住所同一": "1",
        "その他市町村長が必要と認める事項": null,
        "受入対象者": null,
        "備考": ""
      }
    },
    {
      "type": "Feature",
      "geometry": {
        "type": "Point",
        "coordinates": [
          137.080362,
          36.479269
        ]
      },
      "properties": {
        "NO": 31836,
        "共通ID": "E1620100226111",
        "都道府県名及び市町村名": "富山県富山市",
        "施設・場所名": "大長谷交流センター",
        "住所": "富山県富山市八尾町内名88",
        "指定緊急避難場所との住所同一": "1",
        "その他市町村長が必要と認める事項": null,
        "受入対象者": null,
        "備考": ""
      }
    },
    {
      "type": "Feature",
      "geometry": {
        "type": "Point",
        "coordinates": [
          137.136845,
          36.570275
        ]
      },
      "properties": {
        "NO": 31837,
        "共通ID": "E1620100227111",
        "都道府県名及び市町村名": "富山県富山市",
        "施設・場所名": "林業総合センター",
        "住所": "富山県富山市八尾町梅苑町1-95-1",
        "指定緊急避難場所との住所同一": "1",
        "その他市町村長が必要と認める事項": null,
        "受入対象者": null,
        "備考": ""
      }
    },
    {
      "type": "Feature",
      "geometry": {
        "type": "Point",
        "coordinates": [
          137.13743,
          36.570067
        ]
      },
      "properties": {
        "NO": 31838,
        "共通ID": "E1620100227112",
        "都道府県名及び市町村名": "富山県富山市",
        "施設・場所名": "八尾農村環境改善センター",
        "住所": "富山県富山市八尾町梅苑町1-95-1",
        "指定緊急避難場所との住所同一": "1",
        "その他市町村長が必要と認める事項": null,
        "受入対象者": null,
        "備考": ""
      }
    },
    {
      "type": "Feature",
      "geometry": {
        "type": "Point",
        "coordinates": [
          137.114728,
          36.517951
        ]
      },
      "properties": {
        "NO": 31839,
        "共通ID": "E1620100228111",
        "都道府県名及び市町村名": "富山県富山市",
        "施設・場所名": "広畑防雪センター",
        "住所": "富山県富山市八尾町布谷1467-7",
        "指定緊急避難場所との住所同一": "1",
        "その他市町村長が必要と認める事項": null,
        "受入対象者": null,
        "備考": ""
      }
    },
    {
      "type": "Feature",
      "geometry": {
        "type": "Point",
        "coordinates": [
          137.137643,
          36.582861
        ]
      },
      "properties": {
        "NO": 31840,
        "共通ID": "E1620100229111",
        "都道府県名及び市町村名": "富山県富山市",
        "施設・場所名": "八尾行政サービスセンター",
        "住所": "富山県富山市八尾町福島200",
        "指定緊急避難場所との住所同一": "1",
        "その他市町村長が必要と認める事項": "",
        "受入対象者": "",
        "備考": ""
      }
    },
    {
      "type": "Feature",
      "geometry": {
        "type": "Point",
        "coordinates": [
          137.130456,
          36.585078
        ]
      },
      "properties": {
        "NO": 31841,
        "共通ID": "E1620100230111",
        "都道府県名及び市町村名": "富山県富山市",
        "施設・場所名": "八尾高校",
        "住所": "富山県富山市八尾町福島213",
        "指定緊急避難場所との住所同一": "1",
        "その他市町村長が必要と認める事項": null,
        "受入対象者": null,
        "備考": ""
      }
    },
    {
      "type": "Feature",
      "geometry": {
        "type": "Point",
        "coordinates": [
          137.214272,
          36.590554
        ]
      },
      "properties": {
        "NO": 31842,
        "共通ID": "E1620100233111",
        "都道府県名及び市町村名": "富山県富山市",
        "施設・場所名": "大沢野中学校",
        "住所": "富山県富山市八木山550",
        "指定緊急避難場所との住所同一": "1",
        "その他市町村長が必要と認める事項": null,
        "受入対象者": null,
        "備考": ""
      }
    },
    {
      "type": "Feature",
      "geometry": {
        "type": "Point",
        "coordinates": [
          137.27871,
          36.758354
        ]
      },
      "properties": {
        "NO": 31843,
        "共通ID": "E1620100237111",
        "都道府県名及び市町村名": "富山県富山市",
        "施設・場所名": "浜黒崎小学校",
        "住所": "富山県富山市浜黒崎3301-2",
        "指定緊急避難場所との住所同一": "1",
        "その他市町村長が必要と認める事項": null,
        "受入対象者": null,
        "備考": ""
      }
    },
    {
      "type": "Feature",
      "geometry": {
        "type": "Point",
        "coordinates": [
          137.128327,
          36.655772
        ]
      },
      "properties": {
        "NO": 31844,
        "共通ID": "E1620100241111",
        "都道府県名及び市町村名": "富山県富山市",
        "施設・場所名": "古里小学校",
        "住所": "富山県富山市婦中町羽根43",
        "指定緊急避難場所との住所同一": "1",
        "その他市町村長が必要と認める事項": null,
        "受入対象者": null,
        "備考": ""
      }
    },
    {
      "type": "Feature",
      "geometry": {
        "type": "Point",
        "coordinates": [
          137.127686,
          36.655346
        ]
      },
      "properties": {
        "NO": 31845,
        "共通ID": "E1620100242111",
        "都道府県名及び市町村名": "富山県富山市",
        "施設・場所名": "古里公民館",
        "住所": "富山県富山市婦中町羽根6",
        "指定緊急避難場所との住所同一": "1",
        "その他市町村長が必要と認める事項": "",
        "受入対象者": "",
        "備考": ""
      }
    },
    {
      "type": "Feature",
      "geometry": {
        "type": "Point",
        "coordinates": [
          137.15117,
          36.674721
        ]
      },
      "properties": {
        "NO": 31846,
        "共通ID": "E1620100244111",
        "都道府県名及び市町村名": "富山県富山市",
        "施設・場所名": "朝日公民館",
        "住所": "富山県富山市婦中町下条281",
        "指定緊急避難場所との住所同一": "1",
        "その他市町村長が必要と認める事項": "",
        "受入対象者": "",
        "備考": ""
      }
    },
    {
      "type": "Feature",
      "geometry": {
        "type": "Point",
        "coordinates": [
          137.151804,
          36.67729
        ]
      },
      "properties": {
        "NO": 31847,
        "共通ID": "E1620100245111",
        "都道府県名及び市町村名": "富山県富山市",
        "施設・場所名": "朝日小学校",
        "住所": "富山県富山市婦中町下条5518",
        "指定緊急避難場所との住所同一": "1",
        "その他市町村長が必要と認める事項": null,
        "受入対象者": null,
        "備考": ""
      }
    },
    {
      "type": "Feature",
      "geometry": {
        "type": "Point",
        "coordinates": [
          137.127413,
          36.658931
        ]
      },
      "properties": {
        "NO": 31848,
        "共通ID": "E1620100246111",
        "都道府県名及び市町村名": "富山県富山市",
        "施設・場所名": "しらとり支援学校",
        "住所": "富山県富山市婦中町下邑2877",
        "指定緊急避難場所との住所同一": "1",
        "その他市町村長が必要と認める事項": null,
        "受入対象者": null,
        "備考": ""
      }
    },
    {
      "type": "Feature",
      "geometry": {
        "type": "Point",
        "coordinates": [
          137.12249,
          36.64494
        ]
      },
      "properties": {
        "NO": 31849,
        "共通ID": "E1620100247111",
        "都道府県名及び市町村名": "富山県富山市",
        "施設・場所名": "城山中学校",
        "住所": "富山県富山市婦中町河原町561-5",
        "指定緊急避難場所との住所同一": "1",
        "その他市町村長が必要と認める事項": null,
        "受入対象者": null,
        "備考": ""
      }
    },
    {
      "type": "Feature",
      "geometry": {
        "type": "Point",
        "coordinates": [
          137.091937,
          36.629091
        ]
      },
      "properties": {
        "NO": 31850,
        "共通ID": "E1620100248111",
        "都道府県名及び市町村名": "富山県富山市",
        "施設・場所名": "婦中体育館音川分館",
        "住所": "富山県富山市婦中町外輪野5230-1",
        "指定緊急避難場所との住所同一": "1",
        "その他市町村長が必要と認める事項": "",
        "受入対象者": "",
        "備考": ""
      }
    },
    {
      "type": "Feature",
      "geometry": {
        "type": "Point",
        "coordinates": [
          137.094535,
          36.629737
        ]
      },
      "properties": {
        "NO": 31851,
        "共通ID": "E1620100249111",
        "都道府県名及び市町村名": "富山県富山市",
        "施設・場所名": "音川小学校",
        "住所": "富山県富山市婦中町外輪野5959",
        "指定緊急避難場所との住所同一": "1",
        "その他市町村長が必要と認める事項": null,
        "受入対象者": null,
        "備考": ""
      }
    },
    {
      "type": "Feature",
      "geometry": {
        "type": "Point",
        "coordinates": [
          137.09371,
          36.629582
        ]
      },
      "properties": {
        "NO": 31852,
        "共通ID": "E1620100250111",
        "都道府県名及び市町村名": "富山県富山市",
        "施設・場所名": "音川公民館",
        "住所": "富山県富山市婦中町外輪野6324-1",
        "指定緊急避難場所との住所同一": "1",
        "その他市町村長が必要と認める事項": "",
        "受入対象者": "",
        "備考": ""
      }
    },
    {
      "type": "Feature",
      "geometry": {
        "type": "Point",
        "coordinates": [
          137.168305,
          36.622423
        ]
      },
      "properties": {
        "NO": 31853,
        "共通ID": "E1620100251111",
        "都道府県名及び市町村名": "富山県富山市",
        "施設・場所名": "宮川公民館",
        "住所": "富山県富山市婦中町広田4178",
        "指定緊急避難場所との住所同一": "1",
        "その他市町村長が必要と認める事項": "",
        "受入対象者": "",
        "備考": ""
      }
    },
    {
      "type": "Feature",
      "geometry": {
        "type": "Point",
        "coordinates": [
          137.135286,
          36.637099
        ]
      },
      "properties": {
        "NO": 31854,
        "共通ID": "E1620100253111",
        "都道府県名及び市町村名": "富山県富山市",
        "施設・場所名": "神保小学校",
        "住所": "富山県富山市婦中町高日附820",
        "指定緊急避難場所との住所同一": "1",
        "その他市町村長が必要と認める事項": null,
        "受入対象者": null,
        "備考": ""
      }
    },
    {
      "type": "Feature",
      "geometry": {
        "type": "Point",
        "coordinates": [
          137.164155,
          36.654542
        ]
      },
      "properties": {
        "NO": 31855,
        "共通ID": "E1620100254111",
        "都道府県名及び市町村名": "富山県富山市",
        "施設・場所名": "婦中体育館",
        "住所": "富山県富山市婦中町砂子田1-1",
        "指定緊急避難場所との住所同一": "1",
        "その他市町村長が必要と認める事項": null,
        "受入対象者": null,
        "備考": ""
      }
    },
    {
      "type": "Feature",
      "geometry": {
        "type": "Point",
        "coordinates": [
          137.163895,
          36.655317
        ]
      },
      "properties": {
        "NO": 31856,
        "共通ID": "E1620100254112",
        "都道府県名及び市町村名": "富山県富山市",
        "施設・場所名": "婦中ふれあい館",
        "住所": "富山県富山市婦中町砂子田1-1",
        "指定緊急避難場所との住所同一": "1",
        "その他市町村長が必要と認める事項": null,
        "受入対象者": null,
        "備考": ""
      }
    },
    {
      "type": "Feature",
      "geometry": {
        "type": "Point",
        "coordinates": [
          137.163897,
          36.655822
        ]
      },
      "properties": {
        "NO": 31857,
        "共通ID": "E1620100254113",
        "都道府県名及び市町村名": "富山県富山市",
        "施設・場所名": "速星公民館",
        "住所": "富山県富山市婦中町砂子田1-1",
        "指定緊急避難場所との住所同一": "1",
        "その他市町村長が必要と認める事項": null,
        "受入対象者": null,
        "備考": ""
      }
    },
    {
      "type": "Feature",
      "geometry": {
        "type": "Point",
        "coordinates": [
          137.155858,
          36.66294
        ]
      },
      "properties": {
        "NO": 31858,
        "共通ID": "E1620100255111",
        "都道府県名及び市町村名": "富山県富山市",
        "施設・場所名": "速星公民館笹倉分館",
        "住所": "富山県富山市婦中町笹倉433",
        "指定緊急避難場所との住所同一": "1",
        "その他市町村長が必要と認める事項": "",
        "受入対象者": "",
        "備考": ""
      }
    },
    {
      "type": "Feature",
      "geometry": {
        "type": "Point",
        "coordinates": [
          137.137184,
          36.638592
        ]
      },
      "properties": {
        "NO": 31859,
        "共通ID": "E1620100256111",
        "都道府県名及び市町村名": "富山県富山市",
        "施設・場所名": "神保公民館",
        "住所": "富山県富山市婦中町上吉川403-1",
        "指定緊急避難場所との住所同一": "1",
        "その他市町村長が必要と認める事項": "",
        "受入対象者": "",
        "備考": ""
      }
    },
    {
      "type": "Feature",
      "geometry": {
        "type": "Point",
        "coordinates": [
          137.173742,
          36.669214
        ]
      },
      "properties": {
        "NO": 31860,
        "共通ID": "E1620100258111",
        "都道府県名及び市町村名": "富山県富山市",
        "施設・場所名": "鵜坂公民館",
        "住所": "富山県富山市婦中町上田島18-1",
        "指定緊急避難場所との住所同一": "1",
        "その他市町村長が必要と認める事項": null,
        "受入対象者": null,
        "備考": ""
      }
    },
    {
      "type": "Feature",
      "geometry": {
        "type": "Point",
        "coordinates": [
          137.175487,
          36.668976
        ]
      },
      "properties": {
        "NO": 31861,
        "共通ID": "E1620100259111",
        "都道府県名及び市町村名": "富山県富山市",
        "施設・場所名": "鵜坂小学校",
        "住所": "富山県富山市婦中町上田島68",
        "指定緊急避難場所との住所同一": "1",
        "その他市町村長が必要と認める事項": null,
        "受入対象者": null,
        "備考": ""
      }
    },
    {
      "type": "Feature",
      "geometry": {
        "type": "Point",
        "coordinates": [
          137.160186,
          36.660122
        ]
      },
      "properties": {
        "NO": 31862,
        "共通ID": "E1620100260111",
        "都道府県名及び市町村名": "富山県富山市",
        "施設・場所名": "婦中中央児童館",
        "住所": "富山県富山市婦中町速星750-2",
        "指定緊急避難場所との住所同一": "1",
        "その他市町村長が必要と認める事項": null,
        "受入対象者": null,
        "備考": ""
      }
    },
    {
      "type": "Feature",
      "geometry": {
        "type": "Point",
        "coordinates": [
          137.159507,
          36.660884
        ]
      },
      "properties": {
        "NO": 31863,
        "共通ID": "E1620100261111",
        "都道府県名及び市町村名": "富山県富山市",
        "施設・場所名": "速星小学校",
        "住所": "富山県富山市婦中町速星752",
        "指定緊急避難場所との住所同一": "1",
        "その他市町村長が必要と認める事項": null,
        "受入対象者": null,
        "備考": ""
      }
    },
    {
      "type": "Feature",
      "geometry": {
        "type": "Point",
        "coordinates": [
          137.164169,
          36.658545
        ]
      },
      "properties": {
        "NO": 31864,
        "共通ID": "E1620100262111",
        "都道府県名及び市町村名": "富山県富山市",
        "施設・場所名": "富山西高校",
        "住所": "富山県富山市婦中町速星926",
        "指定緊急避難場所との住所同一": "1",
        "その他市町村長が必要と認める事項": null,
        "受入対象者": null,
        "備考": ""
      }
    },
    {
      "type": "Feature",
      "geometry": {
        "type": "Point",
        "coordinates": [
          137.171727,
          36.630532
        ]
      },
      "properties": {
        "NO": 31865,
        "共通ID": "E1620100263111",
        "都道府県名及び市町村名": "富山県富山市",
        "施設・場所名": "宮野小学校",
        "住所": "富山県富山市婦中町地角399",
        "指定緊急避難場所との住所同一": "1",
        "その他市町村長が必要と認める事項": null,
        "受入対象者": null,
        "備考": ""
      }
    },
    {
      "type": "Feature",
      "geometry": {
        "type": "Point",
        "coordinates": [
          137.12311,
          36.645372
        ]
      },
      "properties": {
        "NO": 31866,
        "共通ID": "E1620100264111",
        "都道府県名及び市町村名": "富山県富山市",
        "施設・場所名": "婦中武道館",
        "住所": "富山県富山市婦中町長沢428",
        "指定緊急避難場所との住所同一": "1",
        "その他市町村長が必要と認める事項": null,
        "受入対象者": null,
        "備考": ""
      }
    },
    {
      "type": "Feature",
      "geometry": {
        "type": "Point",
        "coordinates": [
          137.164843,
          36.655306
        ]
      },
      "properties": {
        "NO": 31867,
        "共通ID": "E1620100266111",
        "都道府県名及び市町村名": "富山県富山市",
        "施設・場所名": "速星中学校",
        "住所": "富山県富山市婦中町板倉345-1",
        "指定緊急避難場所との住所同一": "1",
        "その他市町村長が必要と認める事項": "",
        "受入対象者": "",
        "備考": ""
      }
    },
    {
      "type": "Feature",
      "geometry": {
        "type": "Point",
        "coordinates": [
          137.168879,
          36.637931
        ]
      },
      "properties": {
        "NO": 31868,
        "共通ID": "E1620100267111",
        "都道府県名及び市町村名": "富山県富山市",
        "施設・場所名": "婦中熊野公民館",
        "住所": "富山県富山市婦中町堀657",
        "指定緊急避難場所との住所同一": "1",
        "その他市町村長が必要と認める事項": null,
        "受入対象者": null,
        "備考": ""
      }
    },
    {
      "type": "Feature",
      "geometry": {
        "type": "Point",
        "coordinates": [
          137.237129,
          36.648532
        ]
      },
      "properties": {
        "NO": 31869,
        "共通ID": "E1620100268111",
        "都道府県名及び市町村名": "富山県富山市",
        "施設・場所名": "富山南高校",
        "住所": "富山県富山市布市98",
        "指定緊急避難場所との住所同一": "1",
        "その他市町村長が必要と認める事項": null,
        "受入対象者": null,
        "備考": ""
      }
    },
    {
      "type": "Feature",
      "geometry": {
        "type": "Point",
        "coordinates": [
          137.232258,
          36.522055
        ]
      },
      "properties": {
        "NO": 31870,
        "共通ID": "E1620100270111",
        "都道府県名及び市町村名": "富山県富山市",
        "施設・場所名": "下タ北部公民館",
        "住所": "富山県富山市布尻991",
        "指定緊急避難場所との住所同一": "1",
        "その他市町村長が必要と認める事項": null,
        "受入対象者": null,
        "備考": ""
      }
    },
    {
      "type": "Feature",
      "geometry": {
        "type": "Point",
        "coordinates": [
          137.186049,
          36.749191
        ]
      },
      "properties": {
        "NO": 31871,
        "共通ID": "E1620100273111",
        "都道府県名及び市町村名": "富山県富山市",
        "施設・場所名": "和合中学校",
        "住所": "富山県富山市布目3967",
        "指定緊急避難場所との住所同一": "1",
        "その他市町村長が必要と認める事項": null,
        "受入対象者": null,
        "備考": ""
      }
    },
    {
      "type": "Feature",
      "geometry": {
        "type": "Point",
        "coordinates": [
          137.191121,
          36.749091
        ]
      },
      "properties": {
        "NO": 31872,
        "共通ID": "E1620100274111",
        "都道府県名及び市町村名": "富山県富山市",
        "施設・場所名": "倉垣小学校",
        "住所": "富山県富山市布目4002",
        "指定緊急避難場所との住所同一": "1",
        "その他市町村長が必要と認める事項": null,
        "受入対象者": null,
        "備考": ""
      }
    },
    {
      "type": "Feature",
      "geometry": {
        "type": "Point",
        "coordinates": [
          137.294895,
          36.603303
        ]
      },
      "properties": {
        "NO": 31873,
        "共通ID": "E1620100276111",
        "都道府県名及び市町村名": "富山県富山市",
        "施設・場所名": "文珠寺公民館",
        "住所": "富山県富山市文珠寺1300-4",
        "指定緊急避難場所との住所同一": "1",
        "その他市町村長が必要と認める事項": null,
        "受入対象者": null,
        "備考": ""
      }
    },
    {
      "type": "Feature",
      "geometry": {
        "type": "Point",
        "coordinates": [
          137.247597,
          36.736956
        ]
      },
      "properties": {
        "NO": 31874,
        "共通ID": "E1620100277111",
        "都道府県名及び市町村名": "富山県富山市",
        "施設・場所名": "東富山体育館",
        "住所": "富山県富山市米田16-2",
        "指定緊急避難場所との住所同一": "1",
        "その他市町村長が必要と認める事項": null,
        "受入対象者": null,
        "備考": ""
      }
    },
    {
      "type": "Feature",
      "geometry": {
        "type": "Point",
        "coordinates": [
          137.242089,
          36.729921
        ]
      },
      "properties": {
        "NO": 31875,
        "共通ID": "E1620100278111",
        "都道府県名及び市町村名": "富山県富山市",
        "施設・場所名": "豊田小学校",
        "住所": "富山県富山市米田2-1",
        "指定緊急避難場所との住所同一": "1",
        "その他市町村長が必要と認める事項": null,
        "受入対象者": null,
        "備考": ""
      }
    },
    {
      "type": "Feature",
      "geometry": {
        "type": "Point",
        "coordinates": [
          137.235826,
          36.491155
        ]
      },
      "properties": {
        "NO": 31876,
        "共通ID": "E1620100279111",
        "都道府県名及び市町村名": "富山県富山市",
        "施設・場所名": "片掛地区公民館",
        "住所": "富山県富山市片掛1981-1",
        "指定緊急避難場所との住所同一": "1",
        "その他市町村長が必要と認める事項": null,
        "受入対象者": null,
        "備考": ""
      }
    },
    {
      "type": "Feature",
      "geometry": {
        "type": "Point",
        "coordinates": [
          137.354698,
          36.569757
        ]
      },
      "properties": {
        "NO": 31877,
        "共通ID": "E1620100314111",
        "都道府県名及び市町村名": "富山県富山市",
        "施設・場所名": "牧公民館",
        "住所": "富山県富山市牧814",
        "指定緊急避難場所との住所同一": "1",
        "その他市町村長が必要と認める事項": "",
        "受入対象者": "",
        "備考": ""
      }
    },
    {
      "type": "Feature",
      "geometry": {
        "type": "Point",
        "coordinates": [
          137.220885,
          36.677019
        ]
      },
      "properties": {
        "NO": 31878,
        "共通ID": "E1620100284111",
        "都道府県名及び市町村名": "富山県富山市",
        "施設・場所名": "堀川小学校",
        "住所": "富山県富山市堀川小泉町1-13-10",
        "指定緊急避難場所との住所同一": "1",
        "その他市町村長が必要と認める事項": null,
        "受入対象者": null,
        "備考": ""
      }
    },
    {
      "type": "Feature",
      "geometry": {
        "type": "Point",
        "coordinates": [
          137.220985,
          36.674841
        ]
      },
      "properties": {
        "NO": 31879,
        "共通ID": "E1620100286111",
        "都道府県名及び市町村名": "富山県富山市",
        "施設・場所名": "富山いずみ高校",
        "住所": "富山県富山市堀川小泉町1-21-1",
        "指定緊急避難場所との住所同一": "1",
        "その他市町村長が必要と認める事項": null,
        "受入対象者": null,
        "備考": ""
      }
    },
    {
      "type": "Feature",
      "geometry": {
        "type": "Point",
        "coordinates": [
          137.222787,
          36.674792
        ]
      },
      "properties": {
        "NO": 31880,
        "共通ID": "E1620100287111",
        "都道府県名及び市町村名": "富山県富山市",
        "施設・場所名": "堀川中学校",
        "住所": "富山県富山市堀川小泉町1-21-15",
        "指定緊急避難場所との住所同一": "1",
        "その他市町村長が必要と認める事項": null,
        "受入対象者": null,
        "備考": ""
      }
    },
    {
      "type": "Feature",
      "geometry": {
        "type": "Point",
        "coordinates": [
          137.432457,
          36.576731
        ]
      },
      "properties": {
        "NO": 31881,
        "共通ID": "E1620100289111",
        "都道府県名及び市町村名": "富山県富山市",
        "施設・場所名": "大山Ｂ＆Ｇ海洋センター体育館",
        "住所": "富山県富山市本宮12",
        "指定緊急避難場所との住所同一": "1",
        "その他市町村長が必要と認める事項": null,
        "受入対象者": null,
        "備考": ""
      }
    },
    {
      "type": "Feature",
      "geometry": {
        "type": "Point",
        "coordinates": [
          137.153007,
          36.729679
        ]
      },
      "properties": {
        "NO": 31882,
        "共通ID": "E1620100291111",
        "都道府県名及び市町村名": "富山県富山市",
        "施設・場所名": "寒江小学校",
        "住所": "富山県富山市本郷中部427",
        "指定緊急避難場所との住所同一": "1",
        "その他市町村長が必要と認める事項": null,
        "受入対象者": null,
        "備考": ""
      }
    },
    {
      "type": "Feature",
      "geometry": {
        "type": "Point",
        "coordinates": [
          137.24413,
          36.650964
        ]
      },
      "properties": {
        "NO": 31883,
        "共通ID": "E1620100292111",
        "都道府県名及び市町村名": "富山県富山市",
        "施設・場所名": "富山高等専門学校",
        "住所": "富山県富山市本郷町13",
        "指定緊急避難場所との住所同一": "1",
        "その他市町村長が必要と認める事項": null,
        "受入対象者": null,
        "備考": ""
      }
    },
    {
      "type": "Feature",
      "geometry": {
        "type": "Point",
        "coordinates": [
          137.230448,
          36.663666
        ]
      },
      "properties": {
        "NO": 31884,
        "共通ID": "E1620100294111",
        "都道府県名及び市町村名": "富山県富山市",
        "施設・場所名": "堀川南小学校",
        "住所": "富山県富山市本郷町282-3",
        "指定緊急避難場所との住所同一": "1",
        "その他市町村長が必要と認める事項": null,
        "受入対象者": null,
        "備考": ""
      }
    },
    {
      "type": "Feature",
      "geometry": {
        "type": "Point",
        "coordinates": [
          137.214031,
          36.706757
        ]
      },
      "properties": {
        "NO": 31885,
        "共通ID": "E1620100295111",
        "都道府県名及び市町村名": "富山県富山市",
        "施設・場所名": "総合体育館",
        "住所": "富山県富山市湊入船町12-1",
        "指定緊急避難場所との住所同一": "1",
        "その他市町村長が必要と認める事項": null,
        "受入対象者": null,
        "備考": ""
      }
    },
    {
      "type": "Feature",
      "geometry": {
        "type": "Point",
        "coordinates": [
          137.223095,
          36.694607
        ]
      },
      "properties": {
        "NO": 31886,
        "共通ID": "E1620100298111",
        "都道府県名及び市町村名": "富山県富山市",
        "施設・場所名": "柳町小学校",
        "住所": "富山県富山市柳町4-2-26",
        "指定緊急避難場所との住所同一": "1",
        "その他市町村長が必要と認める事項": null,
        "受入対象者": null,
        "備考": ""
      }
    },
    {
      "type": "Feature",
      "geometry": {
        "type": "Point",
        "coordinates": [
          137.233021,
          36.742902
        ]
      },
      "properties": {
        "NO": 31887,
        "共通ID": "E1620100301111",
        "都道府県名及び市町村名": "富山県富山市",
        "施設・場所名": "岩瀬中学校",
        "住所": "富山県富山市蓮町4-3-10",
        "指定緊急避難場所との住所同一": "1",
        "その他市町村長が必要と認める事項": null,
        "受入対象者": null,
        "備考": ""
      }
    },
    {
      "type": "Feature",
      "geometry": {
        "type": "Point",
        "coordinates": [
          137.234619,
          36.742437
        ]
      },
      "properties": {
        "NO": 31888,
        "共通ID": "E1620100302111",
        "都道府県名及び市町村名": "富山県富山市",
        "施設・場所名": "富山北部高校",
        "住所": "富山県富山市蓮町4-3-20",
        "指定緊急避難場所との住所同一": "1",
        "その他市町村長が必要と認める事項": null,
        "受入対象者": null,
        "備考": ""
      }
    },
    {
      "type": "Feature",
      "geometry": {
        "type": "Point",
        "coordinates": [
          137.284898,
          36.583075
        ]
      },
      "properties": {
        "NO": 31889,
        "共通ID": "E1620100303111",
        "都道府県名及び市町村名": "富山県富山市",
        "施設・場所名": "楜ヶ原集落センター",
        "住所": "富山県富山市楜ケ原626-1",
        "指定緊急避難場所との住所同一": "1",
        "その他市町村長が必要と認める事項": null,
        "受入対象者": null,
        "備考": ""
      }
    },
    {
      "type": "Feature",
      "geometry": {
        "type": "Point",
        "coordinates": [
          137.229736,
          36.528619
        ]
      },
      "properties": {
        "NO": 31890,
        "共通ID": "E1620100305111",
        "都道府県名及び市町村名": "富山県富山市",
        "施設・場所名": "細入公民館",
        "住所": "富山県富山市楡原1128",
        "指定緊急避難場所との住所同一": "1",
        "その他市町村長が必要と認める事項": "",
        "受入対象者": "",
        "備考": ""
      }
    },
    {
      "type": "Feature",
      "geometry": {
        "type": "Point",
        "coordinates": [
          137.230925,
          36.532728
        ]
      },
      "properties": {
        "NO": 31891,
        "共通ID": "E1620100306111",
        "都道府県名及び市町村名": "富山県富山市",
        "施設・場所名": "楡原公民館",
        "住所": "富山県富山市楡原1280-1",
        "指定緊急避難場所との住所同一": "1",
        "その他市町村長が必要と認める事項": null,
        "受入対象者": null,
        "備考": ""
      }
    },
    {
      "type": "Feature",
      "geometry": {
        "type": "Point",
        "coordinates": [
          137.232867,
          36.53588
        ]
      },
      "properties": {
        "NO": 31892,
        "共通ID": "E1620100307111",
        "都道府県名及び市町村名": "富山県富山市",
        "施設・場所名": "神通碧小学校・楡原中学校",
        "住所": "富山県富山市楡原405",
        "指定緊急避難場所との住所同一": "1",
        "その他市町村長が必要と認める事項": null,
        "受入対象者": null,
        "備考": ""
      }
    }
  ]
}