{
  "type": "FeatureCollection",
  "name": "162060",
  "features": [
    {
      "type": "Feature",
      "geometry": {
        "type": "Point",
        "coordinates": [
          137.340325,
          36.755068
        ]
      },
      "properties": {
        "NO": 32130,
        "共通ID": "E1620600001111",
        "都道府県名及び市町村名": "富山県滑川市",
        "施設・場所名": "滑川中学校",
        "住所": "富山県滑川市下島54",
        "指定緊急避難場所との住所同一": "1",
        "その他市町村長が必要と認める事項": null,
        "受入対象者": null,
        "備考": ""
      }
    },
    {
      "type": "Feature",
      "geometry": {
        "type": "Point",
        "coordinates": [
          137.343366,
          36.746989
        ]
      },
      "properties": {
        "NO": 32131,
        "共通ID": "E1620600002111",
        "都道府県名及び市町村名": "富山県滑川市",
        "施設・場所名": "西加積地区公民館",
        "住所": "富山県滑川市下梅沢31-1",
        "指定緊急避難場所との住所同一": "1",
        "その他市町村長が必要と認める事項": null,
        "受入対象者": null,
        "備考": ""
      }
    },
    {
      "type": "Feature",
      "geometry": {
        "type": "Point",
        "coordinates": [
          137.333621,
          36.7604
        ]
      },
      "properties": {
        "NO": 32132,
        "共通ID": "E1620600003111",
        "都道府県名及び市町村名": "富山県滑川市",
        "施設・場所名": "西地区コミュニティホール（滑川西地区公民館）",
        "住所": "富山県滑川市加島町194",
        "指定緊急避難場所との住所同一": "1",
        "その他市町村長が必要と認める事項": null,
        "受入対象者": null,
        "備考": ""
      }
    },
    {
      "type": "Feature",
      "geometry": {
        "type": "Point",
        "coordinates": [
          137.333855,
          36.75955
        ]
      },
      "properties": {
        "NO": 32133,
        "共通ID": "E1620600004111",
        "都道府県名及び市町村名": "富山県滑川市",
        "施設・場所名": "田中小学校",
        "住所": "富山県滑川市加島町207",
        "指定緊急避難場所との住所同一": "1",
        "その他市町村長が必要と認める事項": null,
        "受入対象者": null,
        "備考": ""
      }
    },
    {
      "type": "Feature",
      "geometry": {
        "type": "Point",
        "coordinates": [
          137.331348,
          36.759001
        ]
      },
      "properties": {
        "NO": 32134,
        "共通ID": "E1620600005111",
        "都道府県名及び市町村名": "富山県滑川市",
        "施設・場所名": "滑川高等学校",
        "住所": "富山県滑川市加島町45",
        "指定緊急避難場所との住所同一": "1",
        "その他市町村長が必要と認める事項": null,
        "受入対象者": null,
        "備考": ""
      }
    },
    {
      "type": "Feature",
      "geometry": {
        "type": "Point",
        "coordinates": [
          137.372174,
          36.792752
        ]
      },
      "properties": {
        "NO": 32135,
        "共通ID": "E1620600006121",
        "都道府県名及び市町村名": "富山県滑川市",
        "施設・場所名": "カモメ荘",
        "住所": "富山県滑川市吉浦13",
        "指定緊急避難場所との住所同一": "",
        "その他市町村長が必要と認める事項": "",
        "受入対象者": "要配慮者",
        "備考": ""
      }
    },
    {
      "type": "Feature",
      "geometry": {
        "type": "Point",
        "coordinates": [
          137.363453,
          36.775506
        ]
      },
      "properties": {
        "NO": 32136,
        "共通ID": "E1620600007111",
        "都道府県名及び市町村名": "富山県滑川市",
        "施設・場所名": "浜加積地区公民館",
        "住所": "富山県滑川市曲渕333",
        "指定緊急避難場所との住所同一": "1",
        "その他市町村長が必要と認める事項": null,
        "受入対象者": null,
        "備考": ""
      }
    },
    {
      "type": "Feature",
      "geometry": {
        "type": "Point",
        "coordinates": [
          137.340953,
          36.76775
        ]
      },
      "properties": {
        "NO": 32137,
        "共通ID": "E1620600008111",
        "都道府県名及び市町村名": "富山県滑川市",
        "施設・場所名": "同朋保育園",
        "住所": "富山県滑川市吾妻町357-6",
        "指定緊急避難場所との住所同一": "1",
        "その他市町村長が必要と認める事項": null,
        "受入対象者": null,
        "備考": ""
      }
    },
    {
      "type": "Feature",
      "geometry": {
        "type": "Point",
        "coordinates": [
          137.344489,
          36.767227
        ]
      },
      "properties": {
        "NO": 32138,
        "共通ID": "E1620600009113",
        "都道府県名及び市町村名": "富山県滑川市",
        "施設・場所名": "滑川東地区公民館",
        "住所": "富山県滑川市吾妻町426",
        "指定緊急避難場所との住所同一": "1",
        "その他市町村長が必要と認める事項": null,
        "受入対象者": null,
        "備考": ""
      }
    },
    {
      "type": "Feature",
      "geometry": {
        "type": "Point",
        "coordinates": [
          137.344945,
          36.768509
        ]
      },
      "properties": {
        "NO": 32139,
        "共通ID": "E1620600009111",
        "都道府県名及び市町村名": "富山県滑川市",
        "施設・場所名": "滑川市民交流プラザ（３階・４階部分）",
        "住所": "富山県滑川市吾妻町426",
        "指定緊急避難場所との住所同一": "1",
        "その他市町村長が必要と認める事項": null,
        "受入対象者": null,
        "備考": ""
      }
    },
    {
      "type": "Feature",
      "geometry": {
        "type": "Point",
        "coordinates": [
          137.344288,
          36.767502
        ]
      },
      "properties": {
        "NO": 32140,
        "共通ID": "E1620600009112",
        "都道府県名及び市町村名": "富山県滑川市",
        "施設・場所名": "滑川市立図書館",
        "住所": "富山県滑川市吾妻町426",
        "指定緊急避難場所との住所同一": "1",
        "その他市町村長が必要と認める事項": null,
        "受入対象者": null,
        "備考": ""
      }
    },
    {
      "type": "Feature",
      "geometry": {
        "type": "Point",
        "coordinates": [
          137.322309,
          36.757906
        ]
      },
      "properties": {
        "NO": 32141,
        "共通ID": "E1620600010111",
        "都道府県名及び市町村名": "富山県滑川市",
        "施設・場所名": "フットボールセンター富山",
        "住所": "富山県滑川市高月町129",
        "指定緊急避難場所との住所同一": "1",
        "その他市町村長が必要と認める事項": null,
        "受入対象者": null,
        "備考": ""
      }
    },
    {
      "type": "Feature",
      "geometry": {
        "type": "Point",
        "coordinates": [
          137.326034,
          36.757367
        ]
      },
      "properties": {
        "NO": 32142,
        "共通ID": "E1620600011111",
        "都道府県名及び市町村名": "富山県滑川市",
        "施設・場所名": "認定こども園たかつき保育園",
        "住所": "富山県滑川市高月町72",
        "指定緊急避難場所との住所同一": "1",
        "その他市町村長が必要と認める事項": null,
        "受入対象者": null,
        "備考": ""
      }
    },
    {
      "type": "Feature",
      "geometry": {
        "type": "Point",
        "coordinates": [
          137.374716,
          36.775459
        ]
      },
      "properties": {
        "NO": 32143,
        "共通ID": "E1620600012111",
        "都道府県名及び市町村名": "富山県滑川市",
        "施設・場所名": "東部小学校",
        "住所": "富山県滑川市四ツ屋134",
        "指定緊急避難場所との住所同一": "1",
        "その他市町村長が必要と認める事項": null,
        "受入対象者": null,
        "備考": ""
      }
    },
    {
      "type": "Feature",
      "geometry": {
        "type": "Point",
        "coordinates": [
          137.343076,
          36.7652
        ]
      },
      "properties": {
        "NO": 32144,
        "共通ID": "E1620600013111",
        "都道府県名及び市町村名": "富山県滑川市",
        "施設・場所名": "滑川コミュニティ防災センター",
        "住所": "富山県滑川市四間町690-1",
        "指定緊急避難場所との住所同一": "1",
        "その他市町村長が必要と認める事項": null,
        "受入対象者": null,
        "備考": ""
      }
    },
    {
      "type": "Feature",
      "geometry": {
        "type": "Point",
        "coordinates": [
          137.341085,
          36.763862
        ]
      },
      "properties": {
        "NO": 32145,
        "共通ID": "E1620600014111",
        "都道府県名及び市町村名": "富山県滑川市",
        "施設・場所名": "滑川市民会館大ホール",
        "住所": "富山県滑川市寺家町104",
        "指定緊急避難場所との住所同一": "1",
        "その他市町村長が必要と認める事項": null,
        "受入対象者": null,
        "備考": ""
      }
    },
    {
      "type": "Feature",
      "geometry": {
        "type": "Point",
        "coordinates": [
          137.340626,
          36.765475
        ]
      },
      "properties": {
        "NO": 32146,
        "共通ID": "E1620600015111",
        "都道府県名及び市町村名": "富山県滑川市",
        "施設・場所名": "寺家小学校",
        "住所": "富山県滑川市寺家町98",
        "指定緊急避難場所との住所同一": "1",
        "その他市町村長が必要と認める事項": null,
        "受入対象者": null,
        "備考": ""
      }
    },
    {
      "type": "Feature",
      "geometry": {
        "type": "Point",
        "coordinates": [
          137.365297,
          36.739649
        ]
      },
      "properties": {
        "NO": 32147,
        "共通ID": "E1620600016111",
        "都道府県名及び市町村名": "富山県滑川市",
        "施設・場所名": "中加積保育園",
        "住所": "富山県滑川市小林69",
        "指定緊急避難場所との住所同一": "1",
        "その他市町村長が必要と認める事項": null,
        "受入対象者": null,
        "備考": ""
      }
    },
    {
      "type": "Feature",
      "geometry": {
        "type": "Point",
        "coordinates": [
          137.343012,
          36.759042
        ]
      },
      "properties": {
        "NO": 32148,
        "共通ID": "E1620600018111",
        "都道府県名及び市町村名": "富山県滑川市",
        "施設・場所名": "希望幼稚園",
        "住所": "富山県滑川市上小泉2005",
        "指定緊急避難場所との住所同一": "1",
        "その他市町村長が必要と認める事項": null,
        "受入対象者": null,
        "備考": ""
      }
    },
    {
      "type": "Feature",
      "geometry": {
        "type": "Point",
        "coordinates": [
          137.349483,
          36.761116
        ]
      },
      "properties": {
        "NO": 32149,
        "共通ID": "E1620600019111",
        "都道府県名及び市町村名": "富山県滑川市",
        "施設・場所名": "滑川市社会福祉センター",
        "住所": "富山県滑川市上小泉412-2",
        "指定緊急避難場所との住所同一": "1",
        "その他市町村長が必要と認める事項": null,
        "受入対象者": null,
        "備考": ""
      }
    },
    {
      "type": "Feature",
      "geometry": {
        "type": "Point",
        "coordinates": [
          137.34753,
          36.757913
        ]
      },
      "properties": {
        "NO": 32150,
        "共通ID": "E1620600020111",
        "都道府県名及び市町村名": "富山県滑川市",
        "施設・場所名": "認定こども園上小泉保育園",
        "住所": "富山県滑川市上小泉668",
        "指定緊急避難場所との住所同一": "1",
        "その他市町村長が必要と認める事項": null,
        "受入対象者": null,
        "備考": ""
      }
    },
    {
      "type": "Feature",
      "geometry": {
        "type": "Point",
        "coordinates": [
          137.347512,
          36.760995
        ]
      },
      "properties": {
        "NO": 32151,
        "共通ID": "E1620600021111",
        "都道府県名及び市町村名": "富山県滑川市",
        "施設・場所名": "児童館",
        "住所": "富山県滑川市上小泉800",
        "指定緊急避難場所との住所同一": "1",
        "その他市町村長が必要と認める事項": null,
        "受入対象者": null,
        "備考": ""
      }
    },
    {
      "type": "Feature",
      "geometry": {
        "type": "Point",
        "coordinates": [
          137.349242,
          36.750943
        ]
      },
      "properties": {
        "NO": 32152,
        "共通ID": "E1620600022111",
        "都道府県名及び市町村名": "富山県滑川市",
        "施設・場所名": "西部小学校",
        "住所": "富山県滑川市上島471",
        "指定緊急避難場所との住所同一": "1",
        "その他市町村長が必要と認める事項": null,
        "受入対象者": null,
        "備考": ""
      }
    },
    {
      "type": "Feature",
      "geometry": {
        "type": "Point",
        "coordinates": [
          137.343459,
          36.768771
        ]
      },
      "properties": {
        "NO": 32153,
        "共通ID": "E1620600023111",
        "都道府県名及び市町村名": "富山県滑川市",
        "施設・場所名": "同朋幼稚園",
        "住所": "富山県滑川市常盤町630",
        "指定緊急避難場所との住所同一": "1",
        "その他市町村長が必要と認める事項": null,
        "受入対象者": null,
        "備考": ""
      }
    },
    {
      "type": "Feature",
      "geometry": {
        "type": "Point",
        "coordinates": [
          137.344847,
          36.765011
        ]
      },
      "properties": {
        "NO": 32154,
        "共通ID": "E1620600024111",
        "都道府県名及び市町村名": "富山県滑川市",
        "施設・場所名": "地域交流センター「青志会館」",
        "住所": "富山県滑川市清水町13-9",
        "指定緊急避難場所との住所同一": "1",
        "その他市町村長が必要と認める事項": null,
        "受入対象者": null,
        "備考": ""
      }
    },
    {
      "type": "Feature",
      "geometry": {
        "type": "Point",
        "coordinates": [
          137.364003,
          36.734712
        ]
      },
      "properties": {
        "NO": 32155,
        "共通ID": "E1620600025111",
        "都道府県名及び市町村名": "富山県滑川市",
        "施設・場所名": "中加積地区公民館",
        "住所": "富山県滑川市赤浜573",
        "指定緊急避難場所との住所同一": "1",
        "その他市町村長が必要と認める事項": null,
        "受入対象者": null,
        "備考": ""
      }
    },
    {
      "type": "Feature",
      "geometry": {
        "type": "Point",
        "coordinates": [
          137.364017,
          36.735272
        ]
      },
      "properties": {
        "NO": 32156,
        "共通ID": "E1620600026121",
        "都道府県名及び市町村名": "富山県滑川市",
        "施設・場所名": "清寿荘",
        "住所": "富山県滑川市赤浜573-1",
        "指定緊急避難場所との住所同一": "",
        "その他市町村長が必要と認める事項": "",
        "受入対象者": "要配慮者",
        "備考": ""
      }
    },
    {
      "type": "Feature",
      "geometry": {
        "type": "Point",
        "coordinates": [
          137.368324,
          36.736067
        ]
      },
      "properties": {
        "NO": 32157,
        "共通ID": "E1620600027111",
        "都道府県名及び市町村名": "富山県滑川市",
        "施設・場所名": "南部小学校",
        "住所": "富山県滑川市赤浜727",
        "指定緊急避難場所との住所同一": "1",
        "その他市町村長が必要と認める事項": null,
        "受入対象者": null,
        "備考": ""
      }
    },
    {
      "type": "Feature",
      "geometry": {
        "type": "Point",
        "coordinates": [
          137.399655,
          36.749712
        ]
      },
      "properties": {
        "NO": 32158,
        "共通ID": "E1620600028111",
        "都道府県名及び市町村名": "富山県滑川市",
        "施設・場所名": "東加積コミュニティセンター（東加積地区公民館）",
        "住所": "富山県滑川市大崎野244",
        "指定緊急避難場所との住所同一": "1",
        "その他市町村長が必要と認める事項": null,
        "受入対象者": null,
        "備考": ""
      }
    },
    {
      "type": "Feature",
      "geometry": {
        "type": "Point",
        "coordinates": [
          137.395649,
          36.745365
        ]
      },
      "properties": {
        "NO": 32159,
        "共通ID": "E1620600029111",
        "都道府県名及び市町村名": "富山県滑川市",
        "施設・場所名": "東加積小学校",
        "住所": "富山県滑川市大崎野45",
        "指定緊急避難場所との住所同一": "1",
        "その他市町村長が必要と認める事項": null,
        "受入対象者": null,
        "備考": ""
      }
    },
    {
      "type": "Feature",
      "geometry": {
        "type": "Point",
        "coordinates": [
          137.375259,
          36.759546
        ]
      },
      "properties": {
        "NO": 32160,
        "共通ID": "E1620600030111",
        "都道府県名及び市町村名": "富山県滑川市",
        "施設・場所名": "幼保連携型きたかづみ認定こども園",
        "住所": "富山県滑川市大島新509-1",
        "指定緊急避難場所との住所同一": "1",
        "その他市町村長が必要と認める事項": "",
        "受入対象者": "",
        "備考": ""
      }
    },
    {
      "type": "Feature",
      "geometry": {
        "type": "Point",
        "coordinates": [
          137.375578,
          36.758736
        ]
      },
      "properties": {
        "NO": 32161,
        "共通ID": "E1620600031111",
        "都道府県名及び市町村名": "富山県滑川市",
        "施設・場所名": "北加積小学校",
        "住所": "富山県滑川市中塚425",
        "指定緊急避難場所との住所同一": "1",
        "その他市町村長が必要と認める事項": null,
        "受入対象者": null,
        "備考": ""
      }
    },
    {
      "type": "Feature",
      "geometry": {
        "type": "Point",
        "coordinates": [
          137.375063,
          36.75923
        ]
      },
      "properties": {
        "NO": 32162,
        "共通ID": "E1620600032111",
        "都道府県名及び市町村名": "富山県滑川市",
        "施設・場所名": "北加積コミュニティ防災センター（北加積地区公民館）",
        "住所": "富山県滑川市中塚432",
        "指定緊急避難場所との住所同一": "1",
        "その他市町村長が必要と認める事項": null,
        "受入対象者": null,
        "備考": ""
      }
    },
    {
      "type": "Feature",
      "geometry": {
        "type": "Point",
        "coordinates": [
          137.368461,
          36.764241
        ]
      },
      "properties": {
        "NO": 32163,
        "共通ID": "E1620600033111",
        "都道府県名及び市町村名": "富山県滑川市",
        "施設・場所名": "早月中学校",
        "住所": "富山県滑川市中野島1260",
        "指定緊急避難場所との住所同一": "1",
        "その他市町村長が必要と認める事項": null,
        "受入対象者": null,
        "備考": ""
      }
    },
    {
      "type": "Feature",
      "geometry": {
        "type": "Point",
        "coordinates": [
          137.382809,
          36.776519
        ]
      },
      "properties": {
        "NO": 32164,
        "共通ID": "E1620600035111",
        "都道府県名及び市町村名": "富山県滑川市",
        "施設・場所名": "早月加積地区公民館",
        "住所": "富山県滑川市追分3801",
        "指定緊急避難場所との住所同一": "1",
        "その他市町村長が必要と認める事項": null,
        "受入対象者": null,
        "備考": ""
      }
    },
    {
      "type": "Feature",
      "geometry": {
        "type": "Point",
        "coordinates": [
          137.35153,
          36.775057
        ]
      },
      "properties": {
        "NO": 32165,
        "共通ID": "E1620600036111",
        "都道府県名及び市町村名": "富山県滑川市",
        "施設・場所名": "坪川保育所",
        "住所": "富山県滑川市坪川1180",
        "指定緊急避難場所との住所同一": "1",
        "その他市町村長が必要と認める事項": null,
        "受入対象者": null,
        "備考": ""
      }
    },
    {
      "type": "Feature",
      "geometry": {
        "type": "Point",
        "coordinates": [
          137.338881,
          36.760552
        ]
      },
      "properties": {
        "NO": 32166,
        "共通ID": "E1620600037111",
        "都道府県名及び市町村名": "富山県滑川市",
        "施設・場所名": "滑川市民健康センター",
        "住所": "富山県滑川市田中新町127",
        "指定緊急避難場所との住所同一": "1",
        "その他市町村長が必要と認める事項": null,
        "受入対象者": null,
        "備考": ""
      }
    },
    {
      "type": "Feature",
      "geometry": {
        "type": "Point",
        "coordinates": [
          137.338667,
          36.760793
        ]
      },
      "properties": {
        "NO": 32167,
        "共通ID": "E1620600038111",
        "都道府県名及び市町村名": "富山県滑川市",
        "施設・場所名": "働く婦人の家",
        "住所": "富山県滑川市田中新町129",
        "指定緊急避難場所との住所同一": "1",
        "その他市町村長が必要と認める事項": null,
        "受入対象者": null,
        "備考": ""
      }
    },
    {
      "type": "Feature",
      "geometry": {
        "type": "Point",
        "coordinates": [
          137.340162,
          36.761821
        ]
      },
      "properties": {
        "NO": 32168,
        "共通ID": "E1620600050111",
        "都道府県名及び市町村名": "富山県滑川市",
        "施設・場所名": "中滑川複合施設（３階部分）",
        "住所": "富山県滑川市田中新町39-5",
        "指定緊急避難場所との住所同一": "1",
        "その他市町村長が必要と認める事項": null,
        "受入対象者": null,
        "備考": ""
      }
    },
    {
      "type": "Feature",
      "geometry": {
        "type": "Point",
        "coordinates": [
          137.351807,
          36.733285
        ]
      },
      "properties": {
        "NO": 32169,
        "共通ID": "E1620600040111",
        "都道府県名及び市町村名": "富山県滑川市",
        "施設・場所名": "童和保育園",
        "住所": "富山県滑川市堀江1796",
        "指定緊急避難場所との住所同一": "1",
        "その他市町村長が必要と認める事項": null,
        "受入対象者": null,
        "備考": ""
      }
    },
    {
      "type": "Feature",
      "geometry": {
        "type": "Point",
        "coordinates": [
          137.384435,
          36.727298
        ]
      },
      "properties": {
        "NO": 32170,
        "共通ID": "E1620600041111",
        "都道府県名及び市町村名": "富山県滑川市",
        "施設・場所名": "山加積コミュニティセンター（山加積地区公民館）",
        "住所": "富山県滑川市本江308",
        "指定緊急避難場所との住所同一": "1",
        "その他市町村長が必要と認める事項": null,
        "受入対象者": null,
        "備考": ""
      }
    },
    {
      "type": "Feature",
      "geometry": {
        "type": "Point",
        "coordinates": [
          137.436687,
          36.727625
        ]
      },
      "properties": {
        "NO": 32171,
        "共通ID": "E1620600042111",
        "都道府県名及び市町村名": "富山県滑川市",
        "施設・場所名": "みのわ健康休養施設（みのわ温泉）",
        "住所": "富山県滑川市蓑輪28",
        "指定緊急避難場所との住所同一": "1",
        "その他市町村長が必要と認める事項": null,
        "受入対象者": null,
        "備考": ""
      }
    },
    {
      "type": "Feature",
      "geometry": {
        "type": "Point",
        "coordinates": [
          137.36931,
          36.763423
        ]
      },
      "properties": {
        "NO": 32172,
        "共通ID": "E1620600043111",
        "都道府県名及び市町村名": "富山県滑川市",
        "施設・場所名": "滑川市農村環境改善センター",
        "住所": "富山県滑川市野町1684-1",
        "指定緊急避難場所との住所同一": "1",
        "その他市町村長が必要と認める事項": null,
        "受入対象者": null,
        "備考": ""
      }
    },
    {
      "type": "Feature",
      "geometry": {
        "type": "Point",
        "coordinates": [
          137.368123,
          36.763401
        ]
      },
      "properties": {
        "NO": 32173,
        "共通ID": "E1620600044121",
        "都道府県名及び市町村名": "富山県滑川市",
        "施設・場所名": "なごみ苑",
        "住所": "富山県滑川市野町1686",
        "指定緊急避難場所との住所同一": "",
        "その他市町村長が必要と認める事項": "",
        "受入対象者": "要配慮者",
        "備考": ""
      }
    },
    {
      "type": "Feature",
      "geometry": {
        "type": "Point",
        "coordinates": [
          137.368445,
          36.762889
        ]
      },
      "properties": {
        "NO": 32174,
        "共通ID": "E1620600045111",
        "都道府県名及び市町村名": "富山県滑川市",
        "施設・場所名": "滑川市農村研修センター",
        "住所": "富山県滑川市野町363",
        "指定緊急避難場所との住所同一": "1",
        "その他市町村長が必要と認める事項": "",
        "受入対象者": "",
        "備考": ""
      }
    },
    {
      "type": "Feature",
      "geometry": {
        "type": "Point",
        "coordinates": [
          137.35575,
          36.769421
        ]
      },
      "properties": {
        "NO": 32175,
        "共通ID": "E1620600046111",
        "都道府県名及び市町村名": "富山県滑川市",
        "施設・場所名": "サン・アビリティーズ滑川",
        "住所": "富山県滑川市柳原1537-2",
        "指定緊急避難場所との住所同一": "1",
        "その他市町村長が必要と認める事項": null,
        "受入対象者": null,
        "備考": ""
      }
    },
    {
      "type": "Feature",
      "geometry": {
        "type": "Point",
        "coordinates": [
          137.35731,
          36.769881
        ]
      },
      "properties": {
        "NO": 32176,
        "共通ID": "E1620600047111",
        "都道府県名及び市町村名": "富山県滑川市",
        "施設・場所名": "滑川市総合体育センター",
        "住所": "富山県滑川市柳原238",
        "指定緊急避難場所との住所同一": "1",
        "その他市町村長が必要と認める事項": null,
        "受入対象者": null,
        "備考": ""
      }
    },
    {
      "type": "Feature",
      "geometry": {
        "type": "Point",
        "coordinates": [
          137.358732,
          36.769865
        ]
      },
      "properties": {
        "NO": 32177,
        "共通ID": "E1620600049121",
        "都道府県名及び市町村名": "富山県滑川市",
        "施設・場所名": "富山医療福祉専門学校",
        "住所": "富山県滑川市柳原字大門149-9",
        "指定緊急避難場所との住所同一": "",
        "その他市町村長が必要と認める事項": "",
        "受入対象者": "要配慮者",
        "備考": ""
      }
    }
  ]
}