{
  "type": "FeatureCollection",
  "name": "162094",
  "features": [
    {
      "type": "Feature",
      "geometry": {
        "type": "Point",
        "coordinates": [
          136.84723,
          36.677328
        ]
      },
      "properties": {
        "NO": 32334,
        "共通ID": "E1620900002111",
        "都道府県名及び市町村名": "富山県小矢部市",
        "施設・場所名": "南谷公民館",
        "住所": "富山県小矢部市安楽寺248",
        "指定緊急避難場所との住所同一": "1",
        "その他市町村長が必要と認める事項": "",
        "受入対象者": "",
        "備考": ""
      }
    },
    {
      "type": "Feature",
      "geometry": {
        "type": "Point",
        "coordinates": [
          136.909122,
          36.659116
        ]
      },
      "properties": {
        "NO": 32335,
        "共通ID": "E1620900003111",
        "都道府県名及び市町村名": "富山県小矢部市",
        "施設・場所名": "若林公民館",
        "住所": "富山県小矢部市下中1",
        "指定緊急避難場所との住所同一": "1",
        "その他市町村長が必要と認める事項": "",
        "受入対象者": "",
        "備考": ""
      }
    },
    {
      "type": "Feature",
      "geometry": {
        "type": "Point",
        "coordinates": [
          136.863485,
          36.678767
        ]
      },
      "properties": {
        "NO": 32336,
        "共通ID": "E1620900004111",
        "都道府県名及び市町村名": "富山県小矢部市",
        "施設・場所名": "石動中学校（体育館）",
        "住所": "富山県小矢部市観音町4-6",
        "指定緊急避難場所との住所同一": "1",
        "その他市町村長が必要と認める事項": "",
        "受入対象者": "",
        "備考": ""
      }
    },
    {
      "type": "Feature",
      "geometry": {
        "type": "Point",
        "coordinates": [
          136.816053,
          36.702146
        ]
      },
      "properties": {
        "NO": 32337,
        "共通ID": "E1620900005111",
        "都道府県名及び市町村名": "富山県小矢部市",
        "施設・場所名": "教育センター",
        "住所": "富山県小矢部市岩尾滝1073",
        "指定緊急避難場所との住所同一": "1",
        "その他市町村長が必要と認める事項": "",
        "受入対象者": "",
        "備考": ""
      }
    },
    {
      "type": "Feature",
      "geometry": {
        "type": "Point",
        "coordinates": [
          136.815305,
          36.702433
        ]
      },
      "properties": {
        "NO": 32338,
        "共通ID": "E1620900006111",
        "都道府県名及び市町村名": "富山県小矢部市",
        "施設・場所名": "岩尾滝くつろぎ交流館",
        "住所": "富山県小矢部市岩尾滝1240",
        "指定緊急避難場所との住所同一": "1",
        "その他市町村長が必要と認める事項": "",
        "受入対象者": "",
        "備考": ""
      }
    },
    {
      "type": "Feature",
      "geometry": {
        "type": "Point",
        "coordinates": [
          136.891853,
          36.608414
        ]
      },
      "properties": {
        "NO": 32339,
        "共通ID": "E1620900008111",
        "都道府県名及び市町村名": "富山県小矢部市",
        "施設・場所名": "南部公民館",
        "住所": "富山県小矢部市興法寺213-2",
        "指定緊急避難場所との住所同一": "1",
        "その他市町村長が必要と認める事項": "",
        "受入対象者": "",
        "備考": ""
      }
    },
    {
      "type": "Feature",
      "geometry": {
        "type": "Point",
        "coordinates": [
          136.898459,
          36.68833
        ]
      },
      "properties": {
        "NO": 32340,
        "共通ID": "E1620900010112",
        "都道府県名及び市町村名": "富山県小矢部市",
        "施設・場所名": "荒川公民館",
        "住所": "富山県小矢部市芹川184",
        "指定緊急避難場所との住所同一": "1",
        "その他市町村長が必要と認める事項": "",
        "受入対象者": "",
        "備考": ""
      }
    },
    {
      "type": "Feature",
      "geometry": {
        "type": "Point",
        "coordinates": [
          136.894355,
          36.664873
        ]
      },
      "properties": {
        "NO": 32341,
        "共通ID": "E1620900012111",
        "都道府県名及び市町村名": "富山県小矢部市",
        "施設・場所名": "大谷中学校（体育館）",
        "住所": "富山県小矢部市金屋本江630",
        "指定緊急避難場所との住所同一": "1",
        "その他市町村長が必要と認める事項": "",
        "受入対象者": "",
        "備考": ""
      }
    },
    {
      "type": "Feature",
      "geometry": {
        "type": "Point",
        "coordinates": [
          136.915507,
          36.680939
        ]
      },
      "properties": {
        "NO": 32342,
        "共通ID": "E1620900067111",
        "都道府県名及び市町村名": "富山県小矢部市",
        "施設・場所名": "いなば農協旧正得支店",
        "住所": "富山県小矢部市五社381-1",
        "指定緊急避難場所との住所同一": "1",
        "その他市町村長が必要と認める事項": "",
        "受入対象者": "",
        "備考": ""
      }
    },
    {
      "type": "Feature",
      "geometry": {
        "type": "Point",
        "coordinates": [
          136.856515,
          36.674021
        ]
      },
      "properties": {
        "NO": 32343,
        "共通ID": "E1620900013111",
        "都道府県名及び市町村名": "富山県小矢部市",
        "施設・場所名": "石動小学校（体育館）",
        "住所": "富山県小矢部市後谷1151",
        "指定緊急避難場所との住所同一": "1",
        "その他市町村長が必要と認める事項": "",
        "受入対象者": "",
        "備考": ""
      }
    },
    {
      "type": "Feature",
      "geometry": {
        "type": "Point",
        "coordinates": [
          136.875165,
          36.686792
        ]
      },
      "properties": {
        "NO": 32344,
        "共通ID": "E1620900016111",
        "都道府県名及び市町村名": "富山県小矢部市",
        "施設・場所名": "東部公民館",
        "住所": "富山県小矢部市桜町1284",
        "指定緊急避難場所との住所同一": "1",
        "その他市町村長が必要と認める事項": "",
        "受入対象者": "",
        "備考": ""
      }
    },
    {
      "type": "Feature",
      "geometry": {
        "type": "Point",
        "coordinates": [
          136.876681,
          36.689456
        ]
      },
      "properties": {
        "NO": 32345,
        "共通ID": "E1620900017111",
        "都道府県名及び市町村名": "富山県小矢部市",
        "施設・場所名": "道の駅メルヘンおやべ",
        "住所": "富山県小矢部市桜町1535-1",
        "指定緊急避難場所との住所同一": "1",
        "その他市町村長が必要と認める事項": "",
        "受入対象者": "",
        "備考": ""
      }
    },
    {
      "type": "Feature",
      "geometry": {
        "type": "Point",
        "coordinates": [
          136.873112,
          36.687647
        ]
      },
      "properties": {
        "NO": 32346,
        "共通ID": "E1620900018111",
        "都道府県名及び市町村名": "富山県小矢部市",
        "施設・場所名": "桜町ＪＯＭＯＮパーク",
        "住所": "富山県小矢部市桜町字中出1716-1",
        "指定緊急避難場所との住所同一": "1",
        "その他市町村長が必要と認める事項": "",
        "受入対象者": "",
        "備考": ""
      }
    },
    {
      "type": "Feature",
      "geometry": {
        "type": "Point",
        "coordinates": [
          136.865571,
          36.678177
        ]
      },
      "properties": {
        "NO": 32347,
        "共通ID": "E1620900020111",
        "都道府県名及び市町村名": "富山県小矢部市",
        "施設・場所名": "市民交流プラザ",
        "住所": "富山県小矢部市城山町1-1",
        "指定緊急避難場所との住所同一": "1",
        "その他市町村長が必要と認める事項": "",
        "受入対象者": "",
        "備考": ""
      }
    },
    {
      "type": "Feature",
      "geometry": {
        "type": "Point",
        "coordinates": [
          136.86463,
          36.678732
        ]
      },
      "properties": {
        "NO": 32348,
        "共通ID": "E1620900020112",
        "都道府県名及び市町村名": "富山県小矢部市",
        "施設・場所名": "市民体育館",
        "住所": "富山県小矢部市城山町1-1",
        "指定緊急避難場所との住所同一": "1",
        "その他市町村長が必要と認める事項": "",
        "受入対象者": "",
        "備考": ""
      }
    },
    {
      "type": "Feature",
      "geometry": {
        "type": "Point",
        "coordinates": [
          136.854064,
          36.669393
        ]
      },
      "properties": {
        "NO": 32349,
        "共通ID": "E1620900065111",
        "都道府県名及び市町村名": "富山県小矢部市",
        "施設・場所名": "文化スポーツセンター",
        "住所": "富山県小矢部市埴生字八俵2124-1",
        "指定緊急避難場所との住所同一": "1",
        "その他市町村長が必要と認める事項": "",
        "受入対象者": "",
        "備考": ""
      }
    },
    {
      "type": "Feature",
      "geometry": {
        "type": "Point",
        "coordinates": [
          136.893176,
          36.626347
        ]
      },
      "properties": {
        "NO": 32350,
        "共通ID": "E1620900023111",
        "都道府県名及び市町村名": "富山県小矢部市",
        "施設・場所名": "津沢小学校（体育館）",
        "住所": "富山県小矢部市新西222",
        "指定緊急避難場所との住所同一": "1",
        "その他市町村長が必要と認める事項": "",
        "受入対象者": "",
        "備考": ""
      }
    },
    {
      "type": "Feature",
      "geometry": {
        "type": "Point",
        "coordinates": [
          136.901423,
          36.641315
        ]
      },
      "properties": {
        "NO": 32351,
        "共通ID": "E1620900024113",
        "都道府県名及び市町村名": "富山県小矢部市",
        "施設・場所名": "水島保育所",
        "住所": "富山県小矢部市水島109-1",
        "指定緊急避難場所との住所同一": "1",
        "その他市町村長が必要と認める事項": "",
        "受入対象者": "",
        "備考": ""
      }
    },
    {
      "type": "Feature",
      "geometry": {
        "type": "Point",
        "coordinates": [
          136.900852,
          36.640744
        ]
      },
      "properties": {
        "NO": 32352,
        "共通ID": "E1620900024112",
        "都道府県名及び市町村名": "富山県小矢部市",
        "施設・場所名": "水島公民館",
        "住所": "富山県小矢部市水島109-1",
        "指定緊急避難場所との住所同一": "1",
        "その他市町村長が必要と認める事項": "",
        "受入対象者": "",
        "備考": ""
      }
    },
    {
      "type": "Feature",
      "geometry": {
        "type": "Point",
        "coordinates": [
          136.901053,
          36.641474
        ]
      },
      "properties": {
        "NO": 32353,
        "共通ID": "E1620900024111",
        "都道府県名及び市町村名": "富山県小矢部市",
        "施設・場所名": "水島スポーツセンター",
        "住所": "富山県小矢部市水島109-1",
        "指定緊急避難場所との住所同一": "1",
        "その他市町村長が必要と認める事項": "",
        "受入対象者": "",
        "備考": ""
      }
    },
    {
      "type": "Feature",
      "geometry": {
        "type": "Point",
        "coordinates": [
          136.898373,
          36.671517
        ]
      },
      "properties": {
        "NO": 32354,
        "共通ID": "E1620900025111",
        "都道府県名及び市町村名": "富山県小矢部市",
        "施設・場所名": "大谷小学校（体育館）",
        "住所": "富山県小矢部市水牧10",
        "指定緊急避難場所との住所同一": "1",
        "その他市町村長が必要と認める事項": "",
        "受入対象者": "",
        "備考": ""
      }
    },
    {
      "type": "Feature",
      "geometry": {
        "type": "Point",
        "coordinates": [
          136.895069,
          36.667835
        ]
      },
      "properties": {
        "NO": 32355,
        "共通ID": "E1620900026111",
        "都道府県名及び市町村名": "富山県小矢部市",
        "施設・場所名": "ＳＴ物流サービス㈱小矢部物流センター",
        "住所": "富山県小矢部市水牧123",
        "指定緊急避難場所との住所同一": "1",
        "その他市町村長が必要と認める事項": "",
        "受入対象者": "",
        "備考": ""
      }
    },
    {
      "type": "Feature",
      "geometry": {
        "type": "Point",
        "coordinates": [
          136.901611,
          36.625759
        ]
      },
      "properties": {
        "NO": 32356,
        "共通ID": "E1620900028111",
        "都道府県名及び市町村名": "富山県小矢部市",
        "施設・場所名": "津沢コミュニティプラザ（津沢公民館含む）",
        "住所": "富山県小矢部市清水369-1",
        "指定緊急避難場所との住所同一": "1",
        "その他市町村長が必要と認める事項": "",
        "受入対象者": "",
        "備考": ""
      }
    },
    {
      "type": "Feature",
      "geometry": {
        "type": "Point",
        "coordinates": [
          136.901601,
          36.61897
        ]
      },
      "properties": {
        "NO": 32357,
        "共通ID": "E1620900029111",
        "都道府県名及び市町村名": "富山県小矢部市",
        "施設・場所名": "となみ野高等学校",
        "住所": "富山県小矢部市清水95-1",
        "指定緊急避難場所との住所同一": "1",
        "その他市町村長が必要と認める事項": "",
        "受入対象者": "",
        "備考": ""
      }
    },
    {
      "type": "Feature",
      "geometry": {
        "type": "Point",
        "coordinates": [
          136.89774,
          36.619196
        ]
      },
      "properties": {
        "NO": 32358,
        "共通ID": "E1620900030111",
        "都道府県名及び市町村名": "富山県小矢部市",
        "施設・場所名": "津沢中学校（体育館）",
        "住所": "富山県小矢部市清沢1231",
        "指定緊急避難場所との住所同一": "1",
        "その他市町村長が必要と認める事項": "",
        "受入対象者": "",
        "備考": ""
      }
    },
    {
      "type": "Feature",
      "geometry": {
        "type": "Point",
        "coordinates": [
          136.908617,
          36.658479
        ]
      },
      "properties": {
        "NO": 32359,
        "共通ID": "E1620900031111",
        "都道府県名及び市町村名": "富山県小矢部市",
        "施設・場所名": "若林運動広場体育館",
        "住所": "富山県小矢部市西中209",
        "指定緊急避難場所との住所同一": "1",
        "その他市町村長が必要と認める事項": "",
        "受入対象者": "",
        "備考": ""
      }
    },
    {
      "type": "Feature",
      "geometry": {
        "type": "Point",
        "coordinates": [
          136.908693,
          36.658793
        ]
      },
      "properties": {
        "NO": 32360,
        "共通ID": "E1620900032111",
        "都道府県名及び市町村名": "富山県小矢部市",
        "施設・場所名": "小矢部園芸高等学校",
        "住所": "富山県小矢部市西中210",
        "指定緊急避難場所との住所同一": "1",
        "その他市町村長が必要と認める事項": null,
        "受入対象者": null,
        "備考": ""
      }
    },
    {
      "type": "Feature",
      "geometry": {
        "type": "Point",
        "coordinates": [
          136.87631,
          36.685676
        ]
      },
      "properties": {
        "NO": 32361,
        "共通ID": "E1620900033111",
        "都道府県名及び市町村名": "富山県小矢部市",
        "施設・場所名": "東部小学校（体育館）",
        "住所": "富山県小矢部市西中野320",
        "指定緊急避難場所との住所同一": "1",
        "その他市町村長が必要と認める事項": "",
        "受入対象者": "",
        "備考": ""
      }
    },
    {
      "type": "Feature",
      "geometry": {
        "type": "Point",
        "coordinates": [
          136.861998,
          36.674937
        ]
      },
      "properties": {
        "NO": 32362,
        "共通ID": "E1620900034111",
        "都道府県名及び市町村名": "富山県小矢部市",
        "施設・場所名": "石動高等学校（体育館）",
        "住所": "富山県小矢部市西町6-33",
        "指定緊急避難場所との住所同一": "1",
        "その他市町村長が必要と認める事項": "",
        "受入対象者": "",
        "備考": ""
      }
    },
    {
      "type": "Feature",
      "geometry": {
        "type": "Point",
        "coordinates": [
          136.85146,
          36.659798
        ]
      },
      "properties": {
        "NO": 32363,
        "共通ID": "E1620900036111",
        "都道府県名及び市町村名": "富山県小矢部市",
        "施設・場所名": "埴生保育所",
        "住所": "富山県小矢部市石坂1",
        "指定緊急避難場所との住所同一": "1",
        "その他市町村長が必要と認める事項": "",
        "受入対象者": "",
        "備考": ""
      }
    },
    {
      "type": "Feature",
      "geometry": {
        "type": "Point",
        "coordinates": [
          136.851322,
          36.658275
        ]
      },
      "properties": {
        "NO": 32364,
        "共通ID": "E1620900037111",
        "都道府県名及び市町村名": "富山県小矢部市",
        "施設・場所名": "埴生公民館",
        "住所": "富山県小矢部市石坂65",
        "指定緊急避難場所との住所同一": "1",
        "その他市町村長が必要と認める事項": "",
        "受入対象者": "",
        "備考": ""
      }
    },
    {
      "type": "Feature",
      "geometry": {
        "type": "Point",
        "coordinates": [
          136.880507,
          36.662554
        ]
      },
      "properties": {
        "NO": 32365,
        "共通ID": "E1620900039111",
        "都道府県名及び市町村名": "富山県小矢部市",
        "施設・場所名": "松沢公民館",
        "住所": "富山県小矢部市赤倉106",
        "指定緊急避難場所との住所同一": "1",
        "その他市町村長が必要と認める事項": "",
        "受入対象者": "",
        "備考": ""
      }
    },
    {
      "type": "Feature",
      "geometry": {
        "type": "Point",
        "coordinates": [
          136.873372,
          36.672684
        ]
      },
      "properties": {
        "NO": 32366,
        "共通ID": "E1620900040111",
        "都道府県名及び市町村名": "富山県小矢部市",
        "施設・場所名": "武道館",
        "住所": "富山県小矢部市泉町2-30",
        "指定緊急避難場所との住所同一": "1",
        "その他市町村長が必要と認める事項": "",
        "受入対象者": "",
        "備考": ""
      }
    },
    {
      "type": "Feature",
      "geometry": {
        "type": "Point",
        "coordinates": [
          136.868347,
          36.636958
        ]
      },
      "properties": {
        "NO": 32367,
        "共通ID": "E1620900043111",
        "都道府県名及び市町村名": "富山県小矢部市",
        "施設・場所名": "㈱北陸ＬＩＸＩＬ製作所　小矢部工場",
        "住所": "富山県小矢部市浅地130",
        "指定緊急避難場所との住所同一": "1",
        "その他市町村長が必要と認める事項": "",
        "受入対象者": "",
        "備考": ""
      }
    },
    {
      "type": "Feature",
      "geometry": {
        "type": "Point",
        "coordinates": [
          136.874262,
          36.63862
        ]
      },
      "properties": {
        "NO": 32368,
        "共通ID": "E1620900044113",
        "都道府県名及び市町村名": "富山県小矢部市",
        "施設・場所名": "薮波スポーツセンター",
        "住所": "富山県小矢部市浅地672-1",
        "指定緊急避難場所との住所同一": "1",
        "その他市町村長が必要と認める事項": "",
        "受入対象者": "",
        "備考": ""
      }
    },
    {
      "type": "Feature",
      "geometry": {
        "type": "Point",
        "coordinates": [
          136.873862,
          36.638525
        ]
      },
      "properties": {
        "NO": 32369,
        "共通ID": "E1620900044111",
        "都道府県名及び市町村名": "富山県小矢部市",
        "施設・場所名": "薮波公民館",
        "住所": "富山県小矢部市浅地672-1",
        "指定緊急避難場所との住所同一": "1",
        "その他市町村長が必要と認める事項": "",
        "受入対象者": "",
        "備考": ""
      }
    },
    {
      "type": "Feature",
      "geometry": {
        "type": "Point",
        "coordinates": [
          136.873831,
          36.622534
        ]
      },
      "properties": {
        "NO": 32370,
        "共通ID": "E1620900045111",
        "都道府県名及び市町村名": "富山県小矢部市",
        "施設・場所名": "サイクリングターミナル",
        "住所": "富山県小矢部市浅地字浄土寺119-9",
        "指定緊急避難場所との住所同一": "1",
        "その他市町村長が必要と認める事項": "",
        "受入対象者": "",
        "備考": ""
      }
    },
    {
      "type": "Feature",
      "geometry": {
        "type": "Point",
        "coordinates": [
          136.85382,
          36.630372
        ]
      },
      "properties": {
        "NO": 32371,
        "共通ID": "E1620900049111",
        "都道府県名及び市町村名": "富山県小矢部市",
        "施設・場所名": "東蟹谷公民館",
        "住所": "富山県小矢部市藤森5277-1",
        "指定緊急避難場所との住所同一": "1",
        "その他市町村長が必要と認める事項": "",
        "受入対象者": "",
        "備考": ""
      }
    },
    {
      "type": "Feature",
      "geometry": {
        "type": "Point",
        "coordinates": [
          136.854848,
          36.622511
        ]
      },
      "properties": {
        "NO": 32372,
        "共通ID": "E1620900050111",
        "都道府県名及び市町村名": "富山県小矢部市",
        "施設・場所名": "蟹谷中学校（体育館）",
        "住所": "富山県小矢部市藤森60",
        "指定緊急避難場所との住所同一": "1",
        "その他市町村長が必要と認める事項": "",
        "受入対象者": "",
        "備考": ""
      }
    },
    {
      "type": "Feature",
      "geometry": {
        "type": "Point",
        "coordinates": [
          136.837731,
          36.685479
        ]
      },
      "properties": {
        "NO": 32373,
        "共通ID": "E1620900052111",
        "都道府県名及び市町村名": "富山県小矢部市",
        "施設・場所名": "大和トランスポート㈱　研修センター　あすなろ",
        "住所": "富山県小矢部市道坪野869-2",
        "指定緊急避難場所との住所同一": "1",
        "その他市町村長が必要と認める事項": "",
        "受入対象者": "",
        "備考": ""
      }
    },
    {
      "type": "Feature",
      "geometry": {
        "type": "Point",
        "coordinates": [
          136.916865,
          36.680847
        ]
      },
      "properties": {
        "NO": 32374,
        "共通ID": "E1620900053111",
        "都道府県名及び市町村名": "富山県小矢部市",
        "施設・場所名": "正得公民館",
        "住所": "富山県小矢部市道明119",
        "指定緊急避難場所との住所同一": "1",
        "その他市町村長が必要と認める事項": "",
        "受入対象者": "",
        "備考": ""
      }
    },
    {
      "type": "Feature",
      "geometry": {
        "type": "Point",
        "coordinates": [
          136.875971,
          36.678997
        ]
      },
      "properties": {
        "NO": 32375,
        "共通ID": "E1620900055111",
        "都道府県名及び市町村名": "富山県小矢部市",
        "施設・場所名": "石動きらりこども園",
        "住所": "富山県小矢部市畠中町9-10",
        "指定緊急避難場所との住所同一": "1",
        "その他市町村長が必要と認める事項": "",
        "受入対象者": "",
        "備考": ""
      }
    },
    {
      "type": "Feature",
      "geometry": {
        "type": "Point",
        "coordinates": [
          136.853406,
          36.636204
        ]
      },
      "properties": {
        "NO": 32376,
        "共通ID": "E1620900056111",
        "都道府県名及び市町村名": "富山県小矢部市",
        "施設・場所名": "蟹谷こども園",
        "住所": "富山県小矢部市平桜6055",
        "指定緊急避難場所との住所同一": "1",
        "その他市町村長が必要と認める事項": "",
        "受入対象者": "",
        "備考": ""
      }
    },
    {
      "type": "Feature",
      "geometry": {
        "type": "Point",
        "coordinates": [
          136.847519,
          36.627243
        ]
      },
      "properties": {
        "NO": 32377,
        "共通ID": "E1620900057111",
        "都道府県名及び市町村名": "富山県小矢部市",
        "施設・場所名": "蟹谷小学校（体育館）",
        "住所": "富山県小矢部市平桜字岡山80",
        "指定緊急避難場所との住所同一": "1",
        "その他市町村長が必要と認める事項": "",
        "受入対象者": "",
        "備考": ""
      }
    },
    {
      "type": "Feature",
      "geometry": {
        "type": "Point",
        "coordinates": [
          136.833797,
          36.633387
        ]
      },
      "properties": {
        "NO": 32378,
        "共通ID": "E1620900058111",
        "都道府県名及び市町村名": "富山県小矢部市",
        "施設・場所名": "北蟹谷スポーツセンター",
        "住所": "富山県小矢部市末友26",
        "指定緊急避難場所との住所同一": "1",
        "その他市町村長が必要と認める事項": "",
        "受入対象者": "",
        "備考": ""
      }
    },
    {
      "type": "Feature",
      "geometry": {
        "type": "Point",
        "coordinates": [
          136.834131,
          36.634074
        ]
      },
      "properties": {
        "NO": 32379,
        "共通ID": "E1620900059111",
        "都道府県名及び市町村名": "富山県小矢部市",
        "施設・場所名": "北蟹谷公民館",
        "住所": "富山県小矢部市末友27",
        "指定緊急避難場所との住所同一": "1",
        "その他市町村長が必要と認める事項": "",
        "受入対象者": "",
        "備考": ""
      }
    },
    {
      "type": "Feature",
      "geometry": {
        "type": "Point",
        "coordinates": [
          136.892111,
          36.665553
        ]
      },
      "properties": {
        "NO": 32380,
        "共通ID": "E1620900060111",
        "都道府県名及び市町村名": "富山県小矢部市",
        "施設・場所名": "大谷こども園",
        "住所": "富山県小矢部市野寺80",
        "指定緊急避難場所との住所同一": "1",
        "その他市町村長が必要と認める事項": "",
        "受入対象者": "",
        "備考": ""
      }
    },
    {
      "type": "Feature",
      "geometry": {
        "type": "Point",
        "coordinates": [
          136.850019,
          36.703425
        ]
      },
      "properties": {
        "NO": 32381,
        "共通ID": "E1620900061111",
        "都道府県名及び市町村名": "富山県小矢部市",
        "施設・場所名": "宮島公民館",
        "住所": "富山県小矢部市了輪18",
        "指定緊急避難場所との住所同一": "1",
        "その他市町村長が必要と認める事項": "",
        "受入対象者": "",
        "備考": ""
      }
    },
    {
      "type": "Feature",
      "geometry": {
        "type": "Point",
        "coordinates": [
          136.87796,
          36.659857
        ]
      },
      "properties": {
        "NO": 32382,
        "共通ID": "E1620900062111",
        "都道府県名及び市町村名": "富山県小矢部市",
        "施設・場所名": "農村環境改善センター",
        "住所": "富山県小矢部市鷲島38-1",
        "指定緊急避難場所との住所同一": "1",
        "その他市町村長が必要と認める事項": "",
        "受入対象者": "",
        "備考": ""
      }
    }
  ]
}