{
  "type": "FeatureCollection",
  "name": "172049",
  "features": [
    {
      "type": "Feature",
      "geometry": {
        "type": "Point",
        "coordinates": [
          136.907363,
          37.372516
        ]
      },
      "properties": {
        "NO": 33076,
        "共通ID": "E1720400003111",
        "都道府県名及び市町村名": "石川県輪島市",
        "施設・場所名": "輪島市立河原田小学校（体育館）",
        "住所": "石川県輪島市横地町６字123",
        "指定緊急避難場所との住所同一": "1",
        "その他市町村長が必要と認める事項": null,
        "受入対象者": null,
        "備考": ""
      }
    },
    {
      "type": "Feature",
      "geometry": {
        "type": "Point",
        "coordinates": [
          136.911176,
          37.390082
        ]
      },
      "properties": {
        "NO": 33077,
        "共通ID": "E1720400004111",
        "都道府県名及び市町村名": "石川県輪島市",
        "施設・場所名": "輪島市立輪島中学校（武道館）",
        "住所": "石川県輪島市河井町１１部39-1",
        "指定緊急避難場所との住所同一": "1",
        "その他市町村長が必要と認める事項": null,
        "受入対象者": null,
        "備考": ""
      }
    },
    {
      "type": "Feature",
      "geometry": {
        "type": "Point",
        "coordinates": [
          136.912555,
          37.389585
        ]
      },
      "properties": {
        "NO": 33078,
        "共通ID": "E1720400004112",
        "都道府県名及び市町村名": "石川県輪島市",
        "施設・場所名": "輪島市立輪島中学校（屋内運動場、全天候型広場）",
        "住所": "石川県輪島市河井町１１部39-1",
        "指定緊急避難場所との住所同一": "1",
        "その他市町村長が必要と認める事項": null,
        "受入対象者": null,
        "備考": ""
      }
    },
    {
      "type": "Feature",
      "geometry": {
        "type": "Point",
        "coordinates": [
          136.903515,
          37.391979
        ]
      },
      "properties": {
        "NO": 33079,
        "共通ID": "E1720400006111",
        "都道府県名及び市町村名": "石川県輪島市",
        "施設・場所名": "輪島市立河井小学校（体育館）",
        "住所": "石川県輪島市河井町１８部1-2",
        "指定緊急避難場所との住所同一": "1",
        "その他市町村長が必要と認める事項": null,
        "受入対象者": null,
        "備考": ""
      }
    },
    {
      "type": "Feature",
      "geometry": {
        "type": "Point",
        "coordinates": [
          136.903365,
          37.390215
        ]
      },
      "properties": {
        "NO": 33080,
        "共通ID": "E1720400007111",
        "都道府県名及び市町村名": "石川県輪島市",
        "施設・場所名": "石川県立輪島高等学校（体育館）",
        "住所": "石川県輪島市河井町１８部42-2",
        "指定緊急避難場所との住所同一": "1",
        "その他市町村長が必要と認める事項": null,
        "受入対象者": null,
        "備考": ""
      }
    },
    {
      "type": "Feature",
      "geometry": {
        "type": "Point",
        "coordinates": [
          136.906179,
          37.3889
        ]
      },
      "properties": {
        "NO": 33081,
        "共通ID": "E1720400008111",
        "都道府県名及び市町村名": "石川県輪島市",
        "施設・場所名": "輪島駅ふらっと訪夢",
        "住所": "石川県輪島市河井町２０部1-131",
        "指定緊急避難場所との住所同一": "",
        "その他市町村長が必要と認める事項": null,
        "受入対象者": null,
        "備考": ""
      }
    },
    {
      "type": "Feature",
      "geometry": {
        "type": "Point",
        "coordinates": [
          136.905966,
          37.388582
        ]
      },
      "properties": {
        "NO": 33082,
        "共通ID": "E1720400009111",
        "都道府県名及び市町村名": "石川県輪島市",
        "施設・場所名": "輪島市文化会館（輪島市立輪島公民館）",
        "住所": "石川県輪島市河井町２０部１－１地",
        "指定緊急避難場所との住所同一": "1",
        "その他市町村長が必要と認める事項": null,
        "受入対象者": null,
        "備考": ""
      }
    },
    {
      "type": "Feature",
      "geometry": {
        "type": "Point",
        "coordinates": [
          136.901181,
          37.394124
        ]
      },
      "properties": {
        "NO": 33083,
        "共通ID": "E1720400011111",
        "都道府県名及び市町村名": "石川県輪島市",
        "施設・場所名": "輪島市ふれあい健康センター",
        "住所": "石川県輪島市河井町２部287-1",
        "指定緊急避難場所との住所同一": "1",
        "その他市町村長が必要と認める事項": null,
        "受入対象者": null,
        "備考": ""
      }
    },
    {
      "type": "Feature",
      "geometry": {
        "type": "Point",
        "coordinates": [
          136.918107,
          37.850587
        ]
      },
      "properties": {
        "NO": 33084,
        "共通ID": "E1720400015111",
        "都道府県名及び市町村名": "石川県輪島市",
        "施設・場所名": "舳倉島開発総合センター",
        "住所": "石川県輪島市海士町所属舳倉島出邑山1-4",
        "指定緊急避難場所との住所同一": "1",
        "その他市町村長が必要と認める事項": null,
        "受入対象者": null,
        "備考": ""
      }
    },
    {
      "type": "Feature",
      "geometry": {
        "type": "Point",
        "coordinates": [
          136.898234,
          37.315802
        ]
      },
      "properties": {
        "NO": 33085,
        "共通ID": "E1720400016111",
        "都道府県名及び市町村名": "石川県輪島市",
        "施設・場所名": "輪島市立三井小学校（体育館）",
        "住所": "石川県輪島市三井町興徳寺１０字29",
        "指定緊急避難場所との住所同一": "1",
        "その他市町村長が必要と認める事項": null,
        "受入対象者": null,
        "備考": ""
      }
    },
    {
      "type": "Feature",
      "geometry": {
        "type": "Point",
        "coordinates": [
          136.899684,
          37.316248
        ]
      },
      "properties": {
        "NO": 33086,
        "共通ID": "E1720400017111",
        "都道府県名及び市町村名": "石川県輪島市",
        "施設・場所名": "旧輪島市立三井中学校（体育館）",
        "住所": "石川県輪島市三井町興徳寺１０字33",
        "指定緊急避難場所との住所同一": "1",
        "その他市町村長が必要と認める事項": null,
        "受入対象者": null,
        "備考": ""
      }
    },
    {
      "type": "Feature",
      "geometry": {
        "type": "Point",
        "coordinates": [
          136.963145,
          37.298103
        ]
      },
      "properties": {
        "NO": 33087,
        "共通ID": "E1720400018111",
        "都道府県名及び市町村名": "石川県輪島市",
        "施設・場所名": "日本航空学園（ＷＡＪＩＭＡ　ＭＥＭＯＲＩＡＬ　ＧＩＭ）",
        "住所": "石川県輪島市三井町洲衛９部27-6",
        "指定緊急避難場所との住所同一": "",
        "その他市町村長が必要と認める事項": null,
        "受入対象者": null,
        "備考": ""
      }
    },
    {
      "type": "Feature",
      "geometry": {
        "type": "Point",
        "coordinates": [
          136.902599,
          37.315386
        ]
      },
      "properties": {
        "NO": 33088,
        "共通ID": "E1720400020111",
        "都道府県名及び市町村名": "石川県輪島市",
        "施設・場所名": "輪島市立三井公民館",
        "住所": "石川県輪島市三井町長沢２字12-1",
        "指定緊急避難場所との住所同一": "1",
        "その他市町村長が必要と認める事項": null,
        "受入対象者": null,
        "備考": ""
      }
    },
    {
      "type": "Feature",
      "geometry": {
        "type": "Point",
        "coordinates": [
          136.885962,
          37.381135
        ]
      },
      "properties": {
        "NO": 33089,
        "共通ID": "E1720400021111",
        "都道府県名及び市町村名": "石川県輪島市",
        "施設・場所名": "輪島市立大屋公民館",
        "住所": "石川県輪島市小伊勢町丸垣内22-1",
        "指定緊急避難場所との住所同一": "1",
        "その他市町村長が必要と認める事項": null,
        "受入対象者": null,
        "備考": ""
      }
    },
    {
      "type": "Feature",
      "geometry": {
        "type": "Point",
        "coordinates": [
          136.888581,
          37.383172
        ]
      },
      "properties": {
        "NO": 33090,
        "共通ID": "E1720400022111",
        "都道府県名及び市町村名": "石川県輪島市",
        "施設・場所名": "輪島市立大屋小学校（体育館）",
        "住所": "石川県輪島市小伊勢町日隅7-3",
        "指定緊急避難場所との住所同一": "1",
        "その他市町村長が必要と認める事項": null,
        "受入対象者": null,
        "備考": ""
      }
    },
    {
      "type": "Feature",
      "geometry": {
        "type": "Point",
        "coordinates": [
          136.96971,
          37.410668
        ]
      },
      "properties": {
        "NO": 33091,
        "共通ID": "E1720400023111",
        "都道府県名及び市町村名": "石川県輪島市",
        "施設・場所名": "旧輪島市立鵠巣公民館",
        "住所": "石川県輪島市深見町６５部33-1",
        "指定緊急避難場所との住所同一": "1",
        "その他市町村長が必要と認める事項": "",
        "受入対象者": "",
        "備考": ""
      }
    },
    {
      "type": "Feature",
      "geometry": {
        "type": "Point",
        "coordinates": [
          136.914134,
          37.386844
        ]
      },
      "properties": {
        "NO": 33092,
        "共通ID": "E1720400024111",
        "都道府県名及び市町村名": "石川県輪島市",
        "施設・場所名": "サン・アリーナ",
        "住所": "石川県輪島市杉平町１字12",
        "指定緊急避難場所との住所同一": "1",
        "その他市町村長が必要と認める事項": null,
        "受入対象者": null,
        "備考": ""
      }
    },
    {
      "type": "Feature",
      "geometry": {
        "type": "Point",
        "coordinates": [
          136.908381,
          37.357179
        ]
      },
      "properties": {
        "NO": 33093,
        "共通ID": "E1720400026111",
        "都道府県名及び市町村名": "石川県輪島市",
        "施設・場所名": "輪島市立河原田公民館",
        "住所": "石川県輪島市西脇町60-1",
        "指定緊急避難場所との住所同一": "1",
        "その他市町村長が必要と認める事項": null,
        "受入対象者": null,
        "備考": ""
      }
    },
    {
      "type": "Feature",
      "geometry": {
        "type": "Point",
        "coordinates": [
          136.813551,
          37.38343
        ]
      },
      "properties": {
        "NO": 33094,
        "共通ID": "E1720400027111",
        "都道府県名及び市町村名": "石川県輪島市",
        "施設・場所名": "旧輪島市立西保小学校（体育館）",
        "住所": "石川県輪島市赤崎町ニ80",
        "指定緊急避難場所との住所同一": "1",
        "その他市町村長が必要と認める事項": null,
        "受入対象者": null,
        "備考": ""
      }
    },
    {
      "type": "Feature",
      "geometry": {
        "type": "Point",
        "coordinates": [
          136.803329,
          37.37468
        ]
      },
      "properties": {
        "NO": 33095,
        "共通ID": "E1720400028111",
        "都道府県名及び市町村名": "石川県輪島市",
        "施設・場所名": "輪島市立西保公民館",
        "住所": "石川県輪島市大沢町ホサソ201-3",
        "指定緊急避難場所との住所同一": "1",
        "その他市町村長が必要と認める事項": null,
        "受入対象者": null,
        "備考": ""
      }
    },
    {
      "type": "Feature",
      "geometry": {
        "type": "Point",
        "coordinates": [
          136.934602,
          37.397267
        ]
      },
      "properties": {
        "NO": 33096,
        "共通ID": "E1720400029111",
        "都道府県名及び市町村名": "石川県輪島市",
        "施設・場所名": "輪島市立鵠巣小学校（体育館）",
        "住所": "石川県輪島市大野町菰沢2-3",
        "指定緊急避難場所との住所同一": "1",
        "その他市町村長が必要と認める事項": null,
        "受入対象者": null,
        "備考": ""
      }
    },
    {
      "type": "Feature",
      "geometry": {
        "type": "Point",
        "coordinates": [
          136.93355,
          37.397548
        ]
      },
      "properties": {
        "NO": 33097,
        "共通ID": "E1720400084111",
        "都道府県名及び市町村名": "石川県輪島市",
        "施設・場所名": "輪島市立鵠巣公民館",
        "住所": "石川県輪島市大野町菰沢35",
        "指定緊急避難場所との住所同一": "",
        "その他市町村長が必要と認める事項": "",
        "受入対象者": "",
        "備考": ""
      }
    },
    {
      "type": "Feature",
      "geometry": {
        "type": "Point",
        "coordinates": [
          137.08813,
          37.423364
        ]
      },
      "properties": {
        "NO": 33098,
        "共通ID": "E1720400032111",
        "都道府県名及び市町村名": "石川県輪島市",
        "施設・場所名": "輪島市立町野公民館",
        "住所": "石川県輪島市町野町粟蔵川原田22-1",
        "指定緊急避難場所との住所同一": "1",
        "その他市町村長が必要と認める事項": null,
        "受入対象者": null,
        "備考": ""
      }
    },
    {
      "type": "Feature",
      "geometry": {
        "type": "Point",
        "coordinates": [
          137.088385,
          37.422491
        ]
      },
      "properties": {
        "NO": 33099,
        "共通ID": "E1720400033111",
        "都道府県名及び市町村名": "石川県輪島市",
        "施設・場所名": "輪島市立東陽中学校（体育館）",
        "住所": "石川県輪島市町野町粟蔵川原田33",
        "指定緊急避難場所との住所同一": "1",
        "その他市町村長が必要と認める事項": null,
        "受入対象者": null,
        "備考": ""
      }
    },
    {
      "type": "Feature",
      "geometry": {
        "type": "Point",
        "coordinates": [
          137.0888,
          37.422593
        ]
      },
      "properties": {
        "NO": 33100,
        "共通ID": "E1720400034111",
        "都道府県名及び市町村名": "石川県輪島市",
        "施設・場所名": "輪島市立町野小学校（体育館）",
        "住所": "石川県輪島市町野町粟蔵川原田42",
        "指定緊急避難場所との住所同一": "1",
        "その他市町村長が必要と認める事項": null,
        "受入対象者": null,
        "備考": ""
      }
    },
    {
      "type": "Feature",
      "geometry": {
        "type": "Point",
        "coordinates": [
          137.073282,
          37.45458
        ]
      },
      "properties": {
        "NO": 33101,
        "共通ID": "E1720400035111",
        "都道府県名及び市町村名": "石川県輪島市",
        "施設・場所名": "輪島市ふるさと体験実習館",
        "住所": "石川県輪島市町野町曽々木サ部45",
        "指定緊急避難場所との住所同一": "",
        "その他市町村長が必要と認める事項": null,
        "受入対象者": null,
        "備考": ""
      }
    },
    {
      "type": "Feature",
      "geometry": {
        "type": "Point",
        "coordinates": [
          136.895773,
          37.386613
        ]
      },
      "properties": {
        "NO": 33102,
        "共通ID": "E1720400039111",
        "都道府県名及び市町村名": "石川県輪島市",
        "施設・場所名": "介護予防拠点施設ふれあいプラザ二勢",
        "住所": "石川県輪島市二勢町44",
        "指定緊急避難場所との住所同一": "",
        "その他市町村長が必要と認める事項": null,
        "受入対象者": null,
        "備考": ""
      }
    },
    {
      "type": "Feature",
      "geometry": {
        "type": "Point",
        "coordinates": [
          136.896899,
          37.398486
        ]
      },
      "properties": {
        "NO": 33103,
        "共通ID": "E1720400042111",
        "都道府県名及び市町村名": "石川県輪島市",
        "施設・場所名": "輪島市立鳳至公民館",
        "住所": "石川県輪島市鳳至町石浦町83-1",
        "指定緊急避難場所との住所同一": "1",
        "その他市町村長が必要と認める事項": null,
        "受入対象者": null,
        "備考": ""
      }
    },
    {
      "type": "Feature",
      "geometry": {
        "type": "Point",
        "coordinates": [
          136.894695,
          37.395858
        ]
      },
      "properties": {
        "NO": 33104,
        "共通ID": "E1720400045111",
        "都道府県名及び市町村名": "石川県輪島市",
        "施設・場所名": "輪島市立鳳至小学校（体育館）",
        "住所": "石川県輪島市鳳至町堂金田1",
        "指定緊急避難場所との住所同一": "1",
        "その他市町村長が必要と認める事項": null,
        "受入対象者": null,
        "備考": ""
      }
    },
    {
      "type": "Feature",
      "geometry": {
        "type": "Point",
        "coordinates": [
          136.891378,
          37.396529
        ]
      },
      "properties": {
        "NO": 33105,
        "共通ID": "E1720400049111",
        "都道府県名及び市町村名": "石川県輪島市",
        "施設・場所名": "夕陽ヶ丘防災拠点施設",
        "住所": "石川県輪島市堀町１５字2-2",
        "指定緊急避難場所との住所同一": "",
        "その他市町村長が必要と認める事項": null,
        "受入対象者": null,
        "備考": ""
      }
    },
    {
      "type": "Feature",
      "geometry": {
        "type": "Point",
        "coordinates": [
          136.752807,
          37.345281
        ]
      },
      "properties": {
        "NO": 33106,
        "共通ID": "E1720400051111",
        "都道府県名及び市町村名": "石川県輪島市",
        "施設・場所名": "輪島市立七浦公民館",
        "住所": "石川県輪島市門前町鵜山12-50",
        "指定緊急避難場所との住所同一": "1",
        "その他市町村長が必要と認める事項": null,
        "受入対象者": null,
        "備考": ""
      }
    },
    {
      "type": "Feature",
      "geometry": {
        "type": "Point",
        "coordinates": [
          136.797614,
          37.305769
        ]
      },
      "properties": {
        "NO": 33107,
        "共通ID": "E1720400053111",
        "都道府県名及び市町村名": "石川県輪島市",
        "施設・場所名": "輪島市立浦上公民館",
        "住所": "石川県輪島市門前町浦上8-58",
        "指定緊急避難場所との住所同一": "1",
        "その他市町村長が必要と認める事項": null,
        "受入対象者": null,
        "備考": ""
      }
    },
    {
      "type": "Feature",
      "geometry": {
        "type": "Point",
        "coordinates": [
          136.768591,
          37.286148
        ]
      },
      "properties": {
        "NO": 33108,
        "共通ID": "E1720400056111",
        "都道府県名及び市町村名": "石川県輪島市",
        "施設・場所名": "石川県立門前高等学校（体育館）",
        "住所": "石川県輪島市門前町広岡5-3",
        "指定緊急避難場所との住所同一": "1",
        "その他市町村長が必要と認める事項": null,
        "受入対象者": null,
        "備考": ""
      }
    },
    {
      "type": "Feature",
      "geometry": {
        "type": "Point",
        "coordinates": [
          136.735633,
          37.278903
        ]
      },
      "properties": {
        "NO": 33109,
        "共通ID": "E1720400057111",
        "都道府県名及び市町村名": "石川県輪島市",
        "施設・場所名": "輪島市立黒島公民館",
        "住所": "石川県輪島市門前町黒島町高池45",
        "指定緊急避難場所との住所同一": "1",
        "その他市町村長が必要と認める事項": null,
        "受入対象者": null,
        "備考": ""
      }
    },
    {
      "type": "Feature",
      "geometry": {
        "type": "Point",
        "coordinates": [
          136.766577,
          37.288308
        ]
      },
      "properties": {
        "NO": 33110,
        "共通ID": "E1720400061111",
        "都道府県名及び市町村名": "石川県輪島市",
        "施設・場所名": "輪島市立門前東小学校（体育館）",
        "住所": "石川県輪島市門前町清水1-68",
        "指定緊急避難場所との住所同一": "",
        "その他市町村長が必要と認める事項": null,
        "受入対象者": null,
        "備考": ""
      }
    },
    {
      "type": "Feature",
      "geometry": {
        "type": "Point",
        "coordinates": [
          136.764062,
          37.292155
        ]
      },
      "properties": {
        "NO": 33111,
        "共通ID": "E1720400060111",
        "都道府県名及び市町村名": "石川県輪島市",
        "施設・場所名": "輪島市立門前中学校（体育館）",
        "住所": "石川県輪島市門前町清水10-21",
        "指定緊急避難場所との住所同一": "1",
        "その他市町村長が必要と認める事項": null,
        "受入対象者": null,
        "備考": ""
      }
    },
    {
      "type": "Feature",
      "geometry": {
        "type": "Point",
        "coordinates": [
          136.758859,
          37.291039
        ]
      },
      "properties": {
        "NO": 33112,
        "共通ID": "E1720400062111",
        "都道府県名及び市町村名": "石川県輪島市",
        "施設・場所名": "輪島市門前健民体育館",
        "住所": "石川県輪島市門前町清水7-1",
        "指定緊急避難場所との住所同一": "1",
        "その他市町村長が必要と認める事項": null,
        "受入対象者": null,
        "備考": ""
      }
    },
    {
      "type": "Feature",
      "geometry": {
        "type": "Point",
        "coordinates": [
          136.767964,
          37.287384
        ]
      },
      "properties": {
        "NO": 33113,
        "共通ID": "E1720400064111",
        "都道府県名及び市町村名": "石川県輪島市",
        "施設・場所名": "輪島市役所門前総合支所（防災研修室）",
        "住所": "石川県輪島市門前町走出6-69",
        "指定緊急避難場所との住所同一": "1",
        "その他市町村長が必要と認める事項": null,
        "受入対象者": null,
        "備考": ""
      }
    },
    {
      "type": "Feature",
      "geometry": {
        "type": "Point",
        "coordinates": [
          136.767771,
          37.287798
        ]
      },
      "properties": {
        "NO": 33114,
        "共通ID": "E1720400063111",
        "都道府県名及び市町村名": "石川県輪島市",
        "施設・場所名": "輪島市門前会館（輪島市立門前公民館）",
        "住所": "石川県輪島市門前町走出6-92-2",
        "指定緊急避難場所との住所同一": "1",
        "その他市町村長が必要と認める事項": null,
        "受入対象者": null,
        "備考": ""
      }
    },
    {
      "type": "Feature",
      "geometry": {
        "type": "Point",
        "coordinates": [
          136.741294,
          37.285162
        ]
      },
      "properties": {
        "NO": 33115,
        "共通ID": "E1720400067111",
        "都道府県名及び市町村名": "石川県輪島市",
        "施設・場所名": "輪島市立門前西小学校（体育館）",
        "住所": "石川県輪島市門前町道下1-123",
        "指定緊急避難場所との住所同一": "1",
        "その他市町村長が必要と認める事項": null,
        "受入対象者": null,
        "備考": ""
      }
    },
    {
      "type": "Feature",
      "geometry": {
        "type": "Point",
        "coordinates": [
          136.745259,
          37.288403
        ]
      },
      "properties": {
        "NO": 33116,
        "共通ID": "E1720400068111",
        "都道府県名及び市町村名": "石川県輪島市",
        "施設・場所名": "輪島市立諸岡公民館",
        "住所": "石川県輪島市門前町道下7-175",
        "指定緊急避難場所との住所同一": "1",
        "その他市町村長が必要と認める事項": null,
        "受入対象者": null,
        "備考": ""
      }
    },
    {
      "type": "Feature",
      "geometry": {
        "type": "Point",
        "coordinates": [
          136.733154,
          37.255435
        ]
      },
      "properties": {
        "NO": 33117,
        "共通ID": "E1720400070111",
        "都道府県名及び市町村名": "石川県輪島市",
        "施設・場所名": "輪島市立阿岸公民館",
        "住所": "石川県輪島市門前町南ナ17",
        "指定緊急避難場所との住所同一": "1",
        "その他市町村長が必要と認める事項": null,
        "受入対象者": null,
        "備考": ""
      }
    },
    {
      "type": "Feature",
      "geometry": {
        "type": "Point",
        "coordinates": [
          136.826646,
          37.284836
        ]
      },
      "properties": {
        "NO": 33118,
        "共通ID": "E1720400071111",
        "都道府県名及び市町村名": "石川県輪島市",
        "施設・場所名": "輪島市立本郷公民館",
        "住所": "石川県輪島市門前町二又川4-4-1",
        "指定緊急避難場所との住所同一": "1",
        "その他市町村長が必要と認める事項": null,
        "受入対象者": null,
        "備考": ""
      }
    },
    {
      "type": "Feature",
      "geometry": {
        "type": "Point",
        "coordinates": [
          136.755792,
          37.346959
        ]
      },
      "properties": {
        "NO": 33119,
        "共通ID": "E1720400074111",
        "都道府県名及び市町村名": "石川県輪島市",
        "施設・場所名": "輪島市七浦基幹集落センター",
        "住所": "石川県輪島市門前町餅田9-16-2",
        "指定緊急避難場所との住所同一": "1",
        "その他市町村長が必要と認める事項": null,
        "受入対象者": null,
        "備考": ""
      }
    },
    {
      "type": "Feature",
      "geometry": {
        "type": "Point",
        "coordinates": [
          136.710229,
          37.231569
        ]
      },
      "properties": {
        "NO": 33120,
        "共通ID": "E1720400075111",
        "都道府県名及び市町村名": "石川県輪島市",
        "施設・場所名": "剱地原子力災害防護施設",
        "住所": "石川県輪島市門前町剱地ソ13",
        "指定緊急避難場所との住所同一": "",
        "その他市町村長が必要と認める事項": null,
        "受入対象者": null,
        "備考": ""
      }
    },
    {
      "type": "Feature",
      "geometry": {
        "type": "Point",
        "coordinates": [
          136.708716,
          37.231765
        ]
      },
      "properties": {
        "NO": 33121,
        "共通ID": "E1720400076111",
        "都道府県名及び市町村名": "石川県輪島市",
        "施設・場所名": "輪島市立剱地公民館",
        "住所": "石川県輪島市門前町剱地ツ60",
        "指定緊急避難場所との住所同一": "1",
        "その他市町村長が必要と認める事項": null,
        "受入対象者": null,
        "備考": ""
      }
    },
    {
      "type": "Feature",
      "geometry": {
        "type": "Point",
        "coordinates": [
          137.034216,
          37.431002
        ]
      },
      "properties": {
        "NO": 33122,
        "共通ID": "E1720400078111",
        "都道府県名及び市町村名": "石川県輪島市",
        "施設・場所名": "輪島市立南志見公民館",
        "住所": "石川県輪島市里町３２字36",
        "指定緊急避難場所との住所同一": "1",
        "その他市町村長が必要と認める事項": null,
        "受入対象者": null,
        "備考": ""
      }
    },
    {
      "type": "Feature",
      "geometry": {
        "type": "Point",
        "coordinates": [
          136.89992,
          37.403289
        ]
      },
      "properties": {
        "NO": 33123,
        "共通ID": "E1720400080111",
        "都道府県名及び市町村名": "石川県輪島市",
        "施設・場所名": "輪島市立港公民館",
        "住所": "石川県輪島市輪島崎町１部211-4",
        "指定緊急避難場所との住所同一": "1",
        "その他市町村長が必要と認める事項": null,
        "受入対象者": null,
        "備考": ""
      }
    }
  ]
}