{
  "type": "FeatureCollection",
  "name": "172120",
  "features": [
    {
      "type": "Feature",
      "geometry": {
        "type": "Point",
        "coordinates": [
          136.60394,
          36.537596
        ]
      },
      "properties": {
        "NO": 33398,
        "共通ID": "E1721200001111",
        "都道府県名及び市町村名": "石川県野々市市",
        "施設・場所名": "御園小学校体育館",
        "住所": "石川県野々市市稲荷4-128",
        "指定緊急避難場所との住所同一": "1",
        "その他市町村長が必要と認める事項": null,
        "受入対象者": null,
        "備考": ""
      }
    },
    {
      "type": "Feature",
      "geometry": {
        "type": "Point",
        "coordinates": [
          136.605331,
          36.53669
        ]
      },
      "properties": {
        "NO": 33399,
        "共通ID": "E1721200025111",
        "都道府県名及び市町村名": "石川県野々市市",
        "施設・場所名": "女性センター",
        "住所": "石川県野々市市稲荷4-155",
        "指定緊急避難場所との住所同一": "",
        "その他市町村長が必要と認める事項": "",
        "受入対象者": "",
        "備考": ""
      }
    },
    {
      "type": "Feature",
      "geometry": {
        "type": "Point",
        "coordinates": [
          136.612006,
          36.538649
        ]
      },
      "properties": {
        "NO": 33400,
        "共通ID": "E1721200002111",
        "都道府県名及び市町村名": "石川県野々市市",
        "施設・場所名": "布水中学校体育館",
        "住所": "石川県野々市市押野2-100",
        "指定緊急避難場所との住所同一": "1",
        "その他市町村長が必要と認める事項": null,
        "受入対象者": null,
        "備考": ""
      }
    },
    {
      "type": "Feature",
      "geometry": {
        "type": "Point",
        "coordinates": [
          136.612351,
          36.540592
        ]
      },
      "properties": {
        "NO": 33401,
        "共通ID": "E1721200017111",
        "都道府県名及び市町村名": "石川県野々市市",
        "施設・場所名": "スポーツセンター",
        "住所": "石川県野々市市押野2-30",
        "指定緊急避難場所との住所同一": "",
        "その他市町村長が必要と認める事項": "",
        "受入対象者": "",
        "備考": ""
      }
    },
    {
      "type": "Feature",
      "geometry": {
        "type": "Point",
        "coordinates": [
          136.611063,
          36.540853
        ]
      },
      "properties": {
        "NO": 33402,
        "共通ID": "E1721200023111",
        "都道府県名及び市町村名": "石川県野々市市",
        "施設・場所名": "第４コミュニティ消防防災センター",
        "住所": "石川県野々市市押野2-313-2",
        "指定緊急避難場所との住所同一": "",
        "その他市町村長が必要と認める事項": "",
        "受入対象者": "",
        "備考": ""
      }
    },
    {
      "type": "Feature",
      "geometry": {
        "type": "Point",
        "coordinates": [
          136.616503,
          36.540788
        ]
      },
      "properties": {
        "NO": 33403,
        "共通ID": "E1721200012112",
        "都道府県名及び市町村名": "石川県野々市市",
        "施設・場所名": "押野公民館",
        "住所": "石川県野々市市押野3-70",
        "指定緊急避難場所との住所同一": "",
        "その他市町村長が必要と認める事項": "",
        "受入対象者": "",
        "備考": ""
      }
    },
    {
      "type": "Feature",
      "geometry": {
        "type": "Point",
        "coordinates": [
          136.616533,
          36.540444
        ]
      },
      "properties": {
        "NO": 33404,
        "共通ID": "E1721200003111",
        "都道府県名及び市町村名": "石川県野々市市",
        "施設・場所名": "館野小学校体育館",
        "住所": "石川県野々市市押野3-71",
        "指定緊急避難場所との住所同一": "1",
        "その他市町村長が必要と認める事項": null,
        "受入対象者": null,
        "備考": ""
      }
    },
    {
      "type": "Feature",
      "geometry": {
        "type": "Point",
        "coordinates": [
          136.600866,
          36.526207
        ]
      },
      "properties": {
        "NO": 33405,
        "共通ID": "E1721200004111",
        "都道府県名及び市町村名": "石川県野々市市",
        "施設・場所名": "野々市明倫高校第１・第２体育館",
        "住所": "石川県野々市市下林3-309",
        "指定緊急避難場所との住所同一": "1",
        "その他市町村長が必要と認める事項": null,
        "受入対象者": null,
        "備考": ""
      }
    },
    {
      "type": "Feature",
      "geometry": {
        "type": "Point",
        "coordinates": [
          136.599627,
          36.525644
        ]
      },
      "properties": {
        "NO": 33406,
        "共通ID": "E1721200011112",
        "都道府県名及び市町村名": "石川県野々市市",
        "施設・場所名": "市民体育館",
        "住所": "石川県野々市市下林3-97",
        "指定緊急避難場所との住所同一": "",
        "その他市町村長が必要と認める事項": "",
        "受入対象者": "",
        "備考": ""
      }
    },
    {
      "type": "Feature",
      "geometry": {
        "type": "Point",
        "coordinates": [
          136.607927,
          36.524388
        ]
      },
      "properties": {
        "NO": 33407,
        "共通ID": "E1721200005111",
        "都道府県名及び市町村名": "石川県野々市市",
        "施設・場所名": "野々市中学校体育館",
        "住所": "石川県野々市市三納3-1",
        "指定緊急避難場所との住所同一": "1",
        "その他市町村長が必要と認める事項": null,
        "受入対象者": null,
        "備考": ""
      }
    },
    {
      "type": "Feature",
      "geometry": {
        "type": "Point",
        "coordinates": [
          136.616662,
          36.525305
        ]
      },
      "properties": {
        "NO": 33408,
        "共通ID": "E1721200006111",
        "都道府県名及び市町村名": "石川県野々市市",
        "施設・場所名": "菅原小学校体育館",
        "住所": "石川県野々市市菅原町20-1",
        "指定緊急避難場所との住所同一": "1",
        "その他市町村長が必要と認める事項": null,
        "受入対象者": null,
        "備考": ""
      }
    },
    {
      "type": "Feature",
      "geometry": {
        "type": "Point",
        "coordinates": [
          136.628228,
          36.527639
        ]
      },
      "properties": {
        "NO": 33409,
        "共通ID": "E1721200007111",
        "都道府県名及び市町村名": "石川県野々市市",
        "施設・場所名": "金沢工業大学第二体育館（２０号館）",
        "住所": "石川県野々市市扇が丘7-1",
        "指定緊急避難場所との住所同一": "1",
        "その他市町村長が必要と認める事項": null,
        "受入対象者": null,
        "備考": ""
      }
    },
    {
      "type": "Feature",
      "geometry": {
        "type": "Point",
        "coordinates": [
          136.605301,
          36.511917
        ]
      },
      "properties": {
        "NO": 33410,
        "共通ID": "E1721200015111",
        "都道府県名及び市町村名": "石川県野々市市",
        "施設・場所名": "富奥防災コミュニティセンター",
        "住所": "石川県野々市市中林5-3-22",
        "指定緊急避難場所との住所同一": "",
        "その他市町村長が必要と認める事項": "",
        "受入対象者": "",
        "備考": ""
      }
    },
    {
      "type": "Feature",
      "geometry": {
        "type": "Point",
        "coordinates": [
          136.604951,
          36.51118
        ]
      },
      "properties": {
        "NO": 33411,
        "共通ID": "E1721200020111",
        "都道府県名及び市町村名": "石川県野々市市",
        "施設・場所名": "第２コミュニティ消防センター",
        "住所": "石川県野々市市中林5-30-1",
        "指定緊急避難場所との住所同一": "",
        "その他市町村長が必要と認める事項": "",
        "受入対象者": "",
        "備考": ""
      }
    },
    {
      "type": "Feature",
      "geometry": {
        "type": "Point",
        "coordinates": [
          136.603999,
          36.512926
        ]
      },
      "properties": {
        "NO": 33412,
        "共通ID": "E1721200008111",
        "都道府県名及び市町村名": "石川県野々市市",
        "施設・場所名": "富陽小学校体育館",
        "住所": "石川県野々市市中林5-70",
        "指定緊急避難場所との住所同一": "1",
        "その他市町村長が必要と認める事項": null,
        "受入対象者": null,
        "備考": ""
      }
    },
    {
      "type": "Feature",
      "geometry": {
        "type": "Point",
        "coordinates": [
          136.596043,
          36.531935
        ]
      },
      "properties": {
        "NO": 33413,
        "共通ID": "E1721200016111",
        "都道府県名及び市町村名": "石川県野々市市",
        "施設・場所名": "郷公民館",
        "住所": "石川県野々市市田尻町94",
        "指定緊急避難場所との住所同一": "",
        "その他市町村長が必要と認める事項": "",
        "受入対象者": "",
        "備考": ""
      }
    },
    {
      "type": "Feature",
      "geometry": {
        "type": "Point",
        "coordinates": [
          136.59581,
          36.531628
        ]
      },
      "properties": {
        "NO": 33414,
        "共通ID": "E1721200022111",
        "都道府県名及び市町村名": "石川県野々市市",
        "施設・場所名": "第３コミュニティ消防防災センター",
        "住所": "石川県野々市市田尻町96-14",
        "指定緊急避難場所との住所同一": "",
        "その他市町村長が必要と認める事項": "",
        "受入対象者": "",
        "備考": ""
      }
    },
    {
      "type": "Feature",
      "geometry": {
        "type": "Point",
        "coordinates": [
          136.598419,
          36.542206
        ]
      },
      "properties": {
        "NO": 33415,
        "共通ID": "E1721200013111",
        "都道府県名及び市町村名": "石川県野々市市",
        "施設・場所名": "交遊舎",
        "住所": "石川県野々市市二日市1-2",
        "指定緊急避難場所との住所同一": "",
        "その他市町村長が必要と認める事項": "",
        "受入対象者": "",
        "備考": ""
      }
    },
    {
      "type": "Feature",
      "geometry": {
        "type": "Point",
        "coordinates": [
          136.623842,
          36.537888
        ]
      },
      "properties": {
        "NO": 33416,
        "共通ID": "E1721200021111",
        "都道府県名及び市町村名": "石川県野々市市",
        "施設・場所名": "防災コミュニティセンター",
        "住所": "石川県野々市市本町1-2-50",
        "指定緊急避難場所との住所同一": "",
        "その他市町村長が必要と認める事項": "",
        "受入対象者": "",
        "備考": ""
      }
    },
    {
      "type": "Feature",
      "geometry": {
        "type": "Point",
        "coordinates": [
          136.618469,
          36.532643
        ]
      },
      "properties": {
        "NO": 33417,
        "共通ID": "E1721200014111",
        "都道府県名及び市町村名": "石川県野々市市",
        "施設・場所名": "中央公民館",
        "住所": "石川県野々市市本町2-1-20",
        "指定緊急避難場所との住所同一": "",
        "その他市町村長が必要と認める事項": "",
        "受入対象者": "",
        "備考": ""
      }
    },
    {
      "type": "Feature",
      "geometry": {
        "type": "Point",
        "coordinates": [
          136.620377,
          36.531082
        ]
      },
      "properties": {
        "NO": 33418,
        "共通ID": "E1721200019111",
        "都道府県名及び市町村名": "石川県野々市市",
        "施設・場所名": "第１コミュニティ消防センター",
        "住所": "石川県野々市市本町2-17-10",
        "指定緊急避難場所との住所同一": "",
        "その他市町村長が必要と認める事項": "",
        "受入対象者": "",
        "備考": ""
      }
    },
    {
      "type": "Feature",
      "geometry": {
        "type": "Point",
        "coordinates": [
          136.610458,
          36.529915
        ]
      },
      "properties": {
        "NO": 33419,
        "共通ID": "E1721200026111",
        "都道府県名及び市町村名": "石川県野々市市",
        "施設・場所名": "教育センター",
        "住所": "石川県野々市市本町4-21-27",
        "指定緊急避難場所との住所同一": "",
        "その他市町村長が必要と認める事項": "",
        "受入対象者": "",
        "備考": ""
      }
    },
    {
      "type": "Feature",
      "geometry": {
        "type": "Point",
        "coordinates": [
          136.609749,
          36.532135
        ]
      },
      "properties": {
        "NO": 33420,
        "共通ID": "E1721200009111",
        "都道府県名及び市町村名": "石川県野々市市",
        "施設・場所名": "野々市小学校体育館",
        "住所": "石川県野々市市本町5-3-1",
        "指定緊急避難場所との住所同一": "1",
        "その他市町村長が必要と認める事項": null,
        "受入対象者": null,
        "備考": ""
      }
    },
    {
      "type": "Feature",
      "geometry": {
        "type": "Point",
        "coordinates": [
          136.608459,
          36.531845
        ]
      },
      "properties": {
        "NO": 33421,
        "共通ID": "E1721200024111",
        "都道府県名及び市町村名": "石川県野々市市",
        "施設・場所名": "文化会館フォルテ",
        "住所": "石川県野々市市本町5-4-1",
        "指定緊急避難場所との住所同一": "",
        "その他市町村長が必要と認める事項": "",
        "受入対象者": "",
        "備考": ""
      }
    },
    {
      "type": "Feature",
      "geometry": {
        "type": "Point",
        "coordinates": [
          136.597088,
          36.507346
        ]
      },
      "properties": {
        "NO": 33422,
        "共通ID": "E1721200010111",
        "都道府県名及び市町村名": "石川県野々市市",
        "施設・場所名": "石川県立大学体育館",
        "住所": "石川県野々市市末松1-308",
        "指定緊急避難場所との住所同一": "1",
        "その他市町村長が必要と認める事項": null,
        "受入対象者": null,
        "備考": ""
      }
    }
  ]
}