{
  "type": "FeatureCollection",
  "name": "172111",
  "features": [
    {
      "type": "Feature",
      "geometry": {
        "type": "Point",
        "coordinates": [
          136.593883,
          36.442133
        ]
      },
      "properties": {
        "NO": 33373,
        "共通ID": "E1721100001111",
        "都道府県名及び市町村名": "石川県能美市",
        "施設・場所名": "北陸先端科学技術大学院大学体育館",
        "住所": "石川県能美市旭台1-35",
        "指定緊急避難場所との住所同一": "1",
        "その他市町村長が必要と認める事項": "",
        "受入対象者": "",
        "備考": ""
      }
    },
    {
      "type": "Feature",
      "geometry": {
        "type": "Point",
        "coordinates": [
          136.506439,
          36.452365
        ]
      },
      "properties": {
        "NO": 33374,
        "共通ID": "E1721100004111",
        "都道府県名及び市町村名": "石川県能美市",
        "施設・場所名": "粟生小学校",
        "住所": "石川県能美市粟生町ロ45",
        "指定緊急避難場所との住所同一": "1",
        "その他市町村長が必要と認める事項": "",
        "受入対象者": "",
        "備考": ""
      }
    },
    {
      "type": "Feature",
      "geometry": {
        "type": "Point",
        "coordinates": [
          136.566176,
          36.453995
        ]
      },
      "properties": {
        "NO": 33375,
        "共通ID": "E1721100005111",
        "都道府県名及び市町村名": "石川県能美市",
        "施設・場所名": "岩内体育館",
        "住所": "石川県能美市岩内町イ164-1",
        "指定緊急避難場所との住所同一": "1",
        "その他市町村長が必要と認める事項": "",
        "受入対象者": "",
        "備考": ""
      }
    },
    {
      "type": "Feature",
      "geometry": {
        "type": "Point",
        "coordinates": [
          136.496433,
          36.44689
        ]
      },
      "properties": {
        "NO": 33376,
        "共通ID": "E1721100007111",
        "都道府県名及び市町村名": "石川県能美市",
        "施設・場所名": "石川県立寺井高校",
        "住所": "石川県能美市吉光町ト90",
        "指定緊急避難場所との住所同一": "1",
        "その他市町村長が必要と認める事項": "",
        "受入対象者": "",
        "備考": ""
      }
    },
    {
      "type": "Feature",
      "geometry": {
        "type": "Point",
        "coordinates": [
          136.58431,
          36.452972
        ]
      },
      "properties": {
        "NO": 33377,
        "共通ID": "E1721100008111",
        "都道府県名及び市町村名": "石川県能美市",
        "施設・場所名": "宮竹小学校",
        "住所": "石川県能美市宮竹町イ153",
        "指定緊急避難場所との住所同一": "1",
        "その他市町村長が必要と認める事項": "",
        "受入対象者": "",
        "備考": ""
      }
    },
    {
      "type": "Feature",
      "geometry": {
        "type": "Point",
        "coordinates": [
          136.515563,
          36.432419
        ]
      },
      "properties": {
        "NO": 33378,
        "共通ID": "E1721100011111",
        "都道府県名及び市町村名": "石川県能美市",
        "施設・場所名": "湯野児童館",
        "住所": "石川県能美市佐野町ラ70",
        "指定緊急避難場所との住所同一": "1",
        "その他市町村長が必要と認める事項": "",
        "受入対象者": "",
        "備考": ""
      }
    },
    {
      "type": "Feature",
      "geometry": {
        "type": "Point",
        "coordinates": [
          136.497064,
          36.436442
        ]
      },
      "properties": {
        "NO": 33379,
        "共通ID": "E1721100019111",
        "都道府県名及び市町村名": "石川県能美市",
        "施設・場所名": "寺井体育館",
        "住所": "石川県能美市寺井町ヨ150",
        "指定緊急避難場所との住所同一": "1",
        "その他市町村長が必要と認める事項": "",
        "受入対象者": "",
        "備考": ""
      }
    },
    {
      "type": "Feature",
      "geometry": {
        "type": "Point",
        "coordinates": [
          136.49733,
          36.436813
        ]
      },
      "properties": {
        "NO": 33380,
        "共通ID": "E1721100020111",
        "都道府県名及び市町村名": "石川県能美市",
        "施設・場所名": "寺井地区公民館",
        "住所": "石川県能美市寺井町ヨ47",
        "指定緊急避難場所との住所同一": "1",
        "その他市町村長が必要と認める事項": "",
        "受入対象者": "",
        "備考": ""
      }
    },
    {
      "type": "Feature",
      "geometry": {
        "type": "Point",
        "coordinates": [
          136.49771,
          36.435981
        ]
      },
      "properties": {
        "NO": 33381,
        "共通ID": "E1721100021111",
        "都道府県名及び市町村名": "石川県能美市",
        "施設・場所名": "寺井小学校",
        "住所": "石川県能美市寺井町ヨ60",
        "指定緊急避難場所との住所同一": "1",
        "その他市町村長が必要と認める事項": "",
        "受入対象者": "",
        "備考": ""
      }
    },
    {
      "type": "Feature",
      "geometry": {
        "type": "Point",
        "coordinates": [
          136.491346,
          36.440103
        ]
      },
      "properties": {
        "NO": 33382,
        "共通ID": "E1721100022111",
        "都道府県名及び市町村名": "石川県能美市",
        "施設・場所名": "寺井中学校",
        "住所": "石川県能美市寺井町ラ161",
        "指定緊急避難場所との住所同一": "1",
        "その他市町村長が必要と認める事項": "",
        "受入対象者": "",
        "備考": ""
      }
    },
    {
      "type": "Feature",
      "geometry": {
        "type": "Point",
        "coordinates": [
          136.526032,
          36.434781
        ]
      },
      "properties": {
        "NO": 33383,
        "共通ID": "E1721100034111",
        "都道府県名及び市町村名": "石川県能美市",
        "施設・場所名": "泉台スポーツセンター",
        "住所": "石川県能美市泉台町東11",
        "指定緊急避難場所との住所同一": "1",
        "その他市町村長が必要と認める事項": "",
        "受入対象者": "",
        "備考": ""
      }
    },
    {
      "type": "Feature",
      "geometry": {
        "type": "Point",
        "coordinates": [
          136.463616,
          36.447154
        ]
      },
      "properties": {
        "NO": 33384,
        "共通ID": "E1721100036111",
        "都道府県名及び市町村名": "石川県能美市",
        "施設・場所名": "根上総合文化会館",
        "住所": "石川県能美市大成町ヌ118",
        "指定緊急避難場所との住所同一": "1",
        "その他市町村長が必要と認める事項": "",
        "受入対象者": "",
        "備考": ""
      }
    },
    {
      "type": "Feature",
      "geometry": {
        "type": "Point",
        "coordinates": [
          136.547366,
          36.448284
        ]
      },
      "properties": {
        "NO": 33385,
        "共通ID": "E1721100039111",
        "都道府県名及び市町村名": "石川県能美市",
        "施設・場所名": "辰口中学校",
        "住所": "石川県能美市辰口町129",
        "指定緊急避難場所との住所同一": "1",
        "その他市町村長が必要と認める事項": "",
        "受入対象者": "",
        "備考": ""
      }
    },
    {
      "type": "Feature",
      "geometry": {
        "type": "Point",
        "coordinates": [
          136.542584,
          36.446828
        ]
      },
      "properties": {
        "NO": 33386,
        "共通ID": "E1721100040111",
        "都道府県名及び市町村名": "石川県能美市",
        "施設・場所名": "辰口中央小学校",
        "住所": "石川県能美市辰口町735",
        "指定緊急避難場所との住所同一": "1",
        "その他市町村長が必要と認める事項": "",
        "受入対象者": "",
        "備考": ""
      }
    },
    {
      "type": "Feature",
      "geometry": {
        "type": "Point",
        "coordinates": [
          136.548173,
          36.444276
        ]
      },
      "properties": {
        "NO": 33387,
        "共通ID": "E1721100041111",
        "都道府県名及び市町村名": "石川県能美市",
        "施設・場所名": "辰口福祉会館",
        "住所": "石川県能美市辰口町ヌ10",
        "指定緊急避難場所との住所同一": "1",
        "その他市町村長が必要と認める事項": "",
        "受入対象者": "",
        "備考": ""
      }
    },
    {
      "type": "Feature",
      "geometry": {
        "type": "Point",
        "coordinates": [
          136.547611,
          36.447815
        ]
      },
      "properties": {
        "NO": 33388,
        "共通ID": "E1721100042111",
        "都道府県名及び市町村名": "石川県能美市",
        "施設・場所名": "物見山総合体育館",
        "住所": "石川県能美市辰口町リ1",
        "指定緊急避難場所との住所同一": "1",
        "その他市町村長が必要と認める事項": "",
        "受入対象者": "",
        "備考": ""
      }
    },
    {
      "type": "Feature",
      "geometry": {
        "type": "Point",
        "coordinates": [
          136.458102,
          36.448009
        ]
      },
      "properties": {
        "NO": 33389,
        "共通ID": "E1721100043111",
        "都道府県名及び市町村名": "石川県能美市",
        "施設・場所名": "浜小学校",
        "住所": "石川県能美市中町カ14",
        "指定緊急避難場所との住所同一": "1",
        "その他市町村長が必要と認める事項": "",
        "受入対象者": "",
        "備考": ""
      }
    },
    {
      "type": "Feature",
      "geometry": {
        "type": "Point",
        "coordinates": [
          136.458365,
          36.448905
        ]
      },
      "properties": {
        "NO": 33390,
        "共通ID": "E1721100044111",
        "都道府県名及び市町村名": "石川県能美市",
        "施設・場所名": "根上中央児童館",
        "住所": "石川県能美市中町子88",
        "指定緊急避難場所との住所同一": "1",
        "その他市町村長が必要と認める事項": "",
        "受入対象者": "",
        "備考": ""
      }
    },
    {
      "type": "Feature",
      "geometry": {
        "type": "Point",
        "coordinates": [
          136.514245,
          36.434456
        ]
      },
      "properties": {
        "NO": 33391,
        "共通ID": "E1721100047111",
        "都道府県名及び市町村名": "石川県能美市",
        "施設・場所名": "湯野小学校",
        "住所": "石川県能美市湯谷町へ3076",
        "指定緊急避難場所との住所同一": "1",
        "その他市町村長が必要と認める事項": "",
        "受入対象者": "",
        "備考": ""
      }
    },
    {
      "type": "Feature",
      "geometry": {
        "type": "Point",
        "coordinates": [
          136.456978,
          36.447578
        ]
      },
      "properties": {
        "NO": 33392,
        "共通ID": "E1721100053111",
        "都道府県名及び市町村名": "石川県能美市",
        "施設・場所名": "根上勤労者体育センター",
        "住所": "石川県能美市浜町ヨ15-3",
        "指定緊急避難場所との住所同一": "1",
        "その他市町村長が必要と認める事項": "",
        "受入対象者": "",
        "備考": ""
      }
    },
    {
      "type": "Feature",
      "geometry": {
        "type": "Point",
        "coordinates": [
          136.456324,
          36.446239
        ]
      },
      "properties": {
        "NO": 33393,
        "共通ID": "E1721100054111",
        "都道府県名及び市町村名": "石川県能美市",
        "施設・場所名": "根上中学校",
        "住所": "石川県能美市浜町ワ60",
        "指定緊急避難場所との住所同一": "1",
        "その他市町村長が必要と認める事項": "",
        "受入対象者": "",
        "備考": ""
      }
    },
    {
      "type": "Feature",
      "geometry": {
        "type": "Point",
        "coordinates": [
          136.475237,
          36.447992
        ]
      },
      "properties": {
        "NO": 33394,
        "共通ID": "E1721100055111",
        "都道府県名及び市町村名": "石川県能美市",
        "施設・場所名": "福岡小学校",
        "住所": "石川県能美市福岡町ハ35",
        "指定緊急避難場所との住所同一": "1",
        "その他市町村長が必要と認める事項": "",
        "受入対象者": "",
        "備考": ""
      }
    },
    {
      "type": "Feature",
      "geometry": {
        "type": "Point",
        "coordinates": [
          136.537949,
          36.44211
        ]
      },
      "properties": {
        "NO": 33395,
        "共通ID": "E1721100074111",
        "都道府県名及び市町村名": "石川県能美市",
        "施設・場所名": "緑が丘コミュニティセンター",
        "住所": "石川県能美市緑が丘9-1",
        "指定緊急避難場所との住所同一": "1",
        "その他市町村長が必要と認める事項": "",
        "受入対象者": "",
        "備考": ""
      }
    },
    {
      "type": "Feature",
      "geometry": {
        "type": "Point",
        "coordinates": [
          136.549178,
          36.423612
        ]
      },
      "properties": {
        "NO": 33396,
        "共通ID": "E1721100066111",
        "都道府県名及び市町村名": "石川県能美市",
        "施設・場所名": "和気小学校",
        "住所": "石川県能美市和気町イ140",
        "指定緊急避難場所との住所同一": "1",
        "その他市町村長が必要と認める事項": "",
        "受入対象者": "",
        "備考": ""
      }
    },
    {
      "type": "Feature",
      "geometry": {
        "type": "Point",
        "coordinates": [
          136.630525,
          36.436746
        ]
      },
      "properties": {
        "NO": 33397,
        "共通ID": "E1721100072111",
        "都道府県名及び市町村名": "石川県能美市",
        "施設・場所名": "道の駅「しらやまさん」",
        "住所": "石川県能美市和佐谷町200",
        "指定緊急避難場所との住所同一": "1",
        "その他市町村長が必要と認める事項": "",
        "受入対象者": "",
        "備考": ""
      }
    }
  ]
}