{
  "type": "FeatureCollection",
  "name": "173240",
  "features": [
    {
      "type": "Feature",
      "geometry": {
        "type": "Point",
        "coordinates": [
          136.543524,
          36.472561
        ]
      },
      "properties": {
        "NO": 33423,
        "共通ID": "E1732400001111",
        "都道府県名及び市町村名": "石川県川北町",
        "施設・場所名": "川北中学校",
        "住所": "石川県川北町字壱ツ屋チ82",
        "指定緊急避難場所との住所同一": "1",
        "その他市町村長が必要と認める事項": "",
        "受入対象者": "",
        "備考": ""
      }
    },
    {
      "type": "Feature",
      "geometry": {
        "type": "Point",
        "coordinates": [
          136.543833,
          36.472163
        ]
      },
      "properties": {
        "NO": 33424,
        "共通ID": "E1732400016111",
        "都道府県名及び市町村名": "石川県川北町",
        "施設・場所名": "川北町武道館",
        "住所": "石川県川北町字壱ツ屋チ85",
        "指定緊急避難場所との住所同一": "1",
        "その他市町村長が必要と認める事項": "",
        "受入対象者": "",
        "備考": ""
      }
    },
    {
      "type": "Feature",
      "geometry": {
        "type": "Point",
        "coordinates": [
          136.544487,
          36.472179
        ]
      },
      "properties": {
        "NO": 33425,
        "共通ID": "E1732400002111",
        "都道府県名及び市町村名": "石川県川北町",
        "施設・場所名": "川北小学校",
        "住所": "石川県川北町字壱ツ屋ヲ25-1",
        "指定緊急避難場所との住所同一": "1",
        "その他市町村長が必要と認める事項": "",
        "受入対象者": "",
        "備考": ""
      }
    },
    {
      "type": "Feature",
      "geometry": {
        "type": "Point",
        "coordinates": [
          136.508898,
          36.473026
        ]
      },
      "properties": {
        "NO": 33426,
        "共通ID": "E1732400004111",
        "都道府県名及び市町村名": "石川県川北町",
        "施設・場所名": "橘小学校",
        "住所": "石川県川北町字橘ソ68",
        "指定緊急避難場所との住所同一": "1",
        "その他市町村長が必要と認める事項": "",
        "受入対象者": "",
        "備考": ""
      }
    },
    {
      "type": "Feature",
      "geometry": {
        "type": "Point",
        "coordinates": [
          136.513102,
          36.474753
        ]
      },
      "properties": {
        "NO": 33427,
        "共通ID": "E1732400005111",
        "都道府県名及び市町村名": "石川県川北町",
        "施設・場所名": "西部地区学習等供用施設",
        "住所": "石川県川北町字橘ロ59-1",
        "指定緊急避難場所との住所同一": "1",
        "その他市町村長が必要と認める事項": "",
        "受入対象者": "",
        "備考": ""
      }
    },
    {
      "type": "Feature",
      "geometry": {
        "type": "Point",
        "coordinates": [
          136.509603,
          36.473038
        ]
      },
      "properties": {
        "NO": 33428,
        "共通ID": "E1732400007121",
        "都道府県名及び市町村名": "石川県川北町",
        "施設・場所名": "西部地区児童館",
        "住所": "石川県川北町字橘平44",
        "指定緊急避難場所との住所同一": "1",
        "その他市町村長が必要と認める事項": "",
        "受入対象者": "要配慮者、幼児、妊婦等",
        "備考": ""
      }
    },
    {
      "type": "Feature",
      "geometry": {
        "type": "Point",
        "coordinates": [
          136.509603,
          36.473038
        ]
      },
      "properties": {
        "NO": 33429,
        "共通ID": "E1732400007111",
        "都道府県名及び市町村名": "石川県川北町",
        "施設・場所名": "西部地区児童館",
        "住所": "石川県川北町字橘平44",
        "指定緊急避難場所との住所同一": "1",
        "その他市町村長が必要と認める事項": "",
        "受入対象者": "",
        "備考": ""
      }
    },
    {
      "type": "Feature",
      "geometry": {
        "type": "Point",
        "coordinates": [
          136.587287,
          36.463542
        ]
      },
      "properties": {
        "NO": 33430,
        "共通ID": "E1732400008121",
        "都道府県名及び市町村名": "石川県川北町",
        "施設・場所名": "東部地区児童館",
        "住所": "石川県川北町字中島へ2-1",
        "指定緊急避難場所との住所同一": "1",
        "その他市町村長が必要と認める事項": "",
        "受入対象者": "要配慮者、幼児、妊婦等",
        "備考": ""
      }
    },
    {
      "type": "Feature",
      "geometry": {
        "type": "Point",
        "coordinates": [
          136.587211,
          36.463542
        ]
      },
      "properties": {
        "NO": 33431,
        "共通ID": "E1732400008111",
        "都道府県名及び市町村名": "石川県川北町",
        "施設・場所名": "東部地区児童館",
        "住所": "石川県川北町字中島へ2-1",
        "指定緊急避難場所との住所同一": "1",
        "その他市町村長が必要と認める事項": "",
        "受入対象者": "",
        "備考": ""
      }
    },
    {
      "type": "Feature",
      "geometry": {
        "type": "Point",
        "coordinates": [
          136.584819,
          36.464975
        ]
      },
      "properties": {
        "NO": 33432,
        "共通ID": "E1732400010111",
        "都道府県名及び市町村名": "石川県川北町",
        "施設・場所名": "東部地区学習等供用施設",
        "住所": "石川県川北町字中島ワ128-2",
        "指定緊急避難場所との住所同一": "1",
        "その他市町村長が必要と認める事項": "",
        "受入対象者": "",
        "備考": ""
      }
    },
    {
      "type": "Feature",
      "geometry": {
        "type": "Point",
        "coordinates": [
          136.586433,
          36.464607
        ]
      },
      "properties": {
        "NO": 33433,
        "共通ID": "E1732400012111",
        "都道府県名及び市町村名": "石川県川北町",
        "施設・場所名": "中島小学校",
        "住所": "石川県川北町字中島ワ17",
        "指定緊急避難場所との住所同一": "1",
        "その他市町村長が必要と認める事項": "",
        "受入対象者": "",
        "備考": ""
      }
    },
    {
      "type": "Feature",
      "geometry": {
        "type": "Point",
        "coordinates": [
          136.545232,
          36.473139
        ]
      },
      "properties": {
        "NO": 33434,
        "共通ID": "E1732400013111",
        "都道府県名及び市町村名": "石川県川北町",
        "施設・場所名": "川北町児童館",
        "住所": "石川県川北町字土室丙129-1",
        "指定緊急避難場所との住所同一": "1",
        "その他市町村長が必要と認める事項": "",
        "受入対象者": "",
        "備考": ""
      }
    },
    {
      "type": "Feature",
      "geometry": {
        "type": "Point",
        "coordinates": [
          136.544797,
          36.473038
        ]
      },
      "properties": {
        "NO": 33435,
        "共通ID": "E1732400013121",
        "都道府県名及び市町村名": "石川県川北町",
        "施設・場所名": "川北町児童館",
        "住所": "石川県川北町字土室丙129-1",
        "指定緊急避難場所との住所同一": "1",
        "その他市町村長が必要と認める事項": "",
        "受入対象者": "要配慮者、幼児、妊婦等",
        "備考": ""
      }
    }
  ]
}