{
  "type": "FeatureCollection",
  "name": "174611",
  "features": [
    {
      "type": "Feature",
      "geometry": {
        "type": "Point",
        "coordinates": [
          136.983302,
          37.223915
        ]
      },
      "properties": {
        "NO": 33556,
        "共通ID": "E1746100001111",
        "都道府県名及び市町村名": "石川県穴水町",
        "施設・場所名": "旭ケ丘婦人ホーム",
        "住所": "石川県穴水町字旭ケ丘に17",
        "指定緊急避難場所との住所同一": "",
        "その他市町村長が必要と認める事項": "",
        "受入対象者": "",
        "備考": ""
      }
    },
    {
      "type": "Feature",
      "geometry": {
        "type": "Point",
        "coordinates": [
          136.98137,
          37.278108
        ]
      },
      "properties": {
        "NO": 33557,
        "共通ID": "E1746100002111",
        "都道府県名及び市町村名": "石川県穴水町",
        "施設・場所名": "伊久留集会所",
        "住所": "石川県穴水町字伊久留ヨ6",
        "指定緊急避難場所との住所同一": "1",
        "その他市町村長が必要と認める事項": "",
        "受入対象者": "",
        "備考": ""
      }
    },
    {
      "type": "Feature",
      "geometry": {
        "type": "Point",
        "coordinates": [
          137.065758,
          37.224706
        ]
      },
      "properties": {
        "NO": 33558,
        "共通ID": "E1746100005111",
        "都道府県名及び市町村名": "石川県穴水町",
        "施設・場所名": "諸橋公民館",
        "住所": "石川県穴水町字宇加川イ142",
        "指定緊急避難場所との住所同一": "1",
        "その他市町村長が必要と認める事項": null,
        "受入対象者": null,
        "備考": ""
      }
    },
    {
      "type": "Feature",
      "geometry": {
        "type": "Point",
        "coordinates": [
          137.06694,
          37.225464
        ]
      },
      "properties": {
        "NO": 33559,
        "共通ID": "E1746100006111",
        "都道府県名及び市町村名": "石川県穴水町",
        "施設・場所名": "宇加川集会所",
        "住所": "石川県穴水町字宇加川ル61",
        "指定緊急避難場所との住所同一": "1",
        "その他市町村長が必要と認める事項": "",
        "受入対象者": "",
        "備考": ""
      }
    },
    {
      "type": "Feature",
      "geometry": {
        "type": "Point",
        "coordinates": [
          136.879488,
          37.230346
        ]
      },
      "properties": {
        "NO": 33560,
        "共通ID": "E1746100008111",
        "都道府県名及び市町村名": "石川県穴水町",
        "施設・場所名": "宇留地地区集会所",
        "住所": "石川県穴水町字宇留地ツ101-1",
        "指定緊急避難場所との住所同一": "1",
        "その他市町村長が必要と認める事項": "",
        "受入対象者": "",
        "備考": ""
      }
    },
    {
      "type": "Feature",
      "geometry": {
        "type": "Point",
        "coordinates": [
          137.056944,
          37.208882
        ]
      },
      "properties": {
        "NO": 33561,
        "共通ID": "E1746100011111",
        "都道府県名及び市町村名": "石川県穴水町",
        "施設・場所名": "沖波集会所",
        "住所": "石川県穴水町字沖波ホ338",
        "指定緊急避難場所との住所同一": "1",
        "その他市町村長が必要と認める事項": "",
        "受入対象者": "",
        "備考": ""
      }
    },
    {
      "type": "Feature",
      "geometry": {
        "type": "Point",
        "coordinates": [
          136.907378,
          37.220635
        ]
      },
      "properties": {
        "NO": 33562,
        "共通ID": "E1746100013111",
        "都道府県名及び市町村名": "石川県穴水町",
        "施設・場所名": "乙ケ崎集会所",
        "住所": "石川県穴水町字乙ケ崎ホ43",
        "指定緊急避難場所との住所同一": "",
        "その他市町村長が必要と認める事項": "",
        "受入対象者": "",
        "備考": ""
      }
    },
    {
      "type": "Feature",
      "geometry": {
        "type": "Point",
        "coordinates": [
          136.859939,
          37.247723
        ]
      },
      "properties": {
        "NO": 33563,
        "共通ID": "E1746100017111",
        "都道府県名及び市町村名": "石川県穴水町",
        "施設・場所名": "下唐川集会所",
        "住所": "石川県穴水町字下唐川へ18-1",
        "指定緊急避難場所との住所同一": "",
        "その他市町村長が必要と認める事項": "",
        "受入対象者": "",
        "備考": ""
      }
    },
    {
      "type": "Feature",
      "geometry": {
        "type": "Point",
        "coordinates": [
          136.954283,
          37.216277
        ]
      },
      "properties": {
        "NO": 33564,
        "共通ID": "E1746100021111",
        "都道府県名及び市町村名": "石川県穴水町",
        "施設・場所名": "岩車集会所",
        "住所": "石川県穴水町字岩車チ141",
        "指定緊急避難場所との住所同一": "1",
        "その他市町村長が必要と認める事項": "",
        "受入対象者": "",
        "備考": ""
      }
    },
    {
      "type": "Feature",
      "geometry": {
        "type": "Point",
        "coordinates": [
          137.071726,
          37.235846
        ]
      },
      "properties": {
        "NO": 33565,
        "共通ID": "E1746100026111",
        "都道府県名及び市町村名": "石川県穴水町",
        "施設・場所名": "古君地区集会所",
        "住所": "石川県穴水町字古君ハ47",
        "指定緊急避難場所との住所同一": "",
        "その他市町村長が必要と認める事項": "",
        "受入対象者": "",
        "備考": ""
      }
    },
    {
      "type": "Feature",
      "geometry": {
        "type": "Point",
        "coordinates": [
          137.024794,
          37.205827
        ]
      },
      "properties": {
        "NO": 33566,
        "共通ID": "E1746100028111",
        "都道府県名及び市町村名": "石川県穴水町",
        "施設・場所名": "甲地区生涯学習センター",
        "住所": "石川県穴水町字甲レ155",
        "指定緊急避難場所との住所同一": "1",
        "その他市町村長が必要と認める事項": null,
        "受入対象者": null,
        "備考": ""
      }
    },
    {
      "type": "Feature",
      "geometry": {
        "type": "Point",
        "coordinates": [
          136.900802,
          37.24402
        ]
      },
      "properties": {
        "NO": 33567,
        "共通ID": "E1746100032111",
        "都道府県名及び市町村名": "石川県穴水町",
        "施設・場所名": "此木地区集会所",
        "住所": "石川県穴水町字此木10-75",
        "指定緊急避難場所との住所同一": "",
        "その他市町村長が必要と認める事項": "",
        "受入対象者": "",
        "備考": ""
      }
    },
    {
      "type": "Feature",
      "geometry": {
        "type": "Point",
        "coordinates": [
          136.909035,
          37.196465
        ]
      },
      "properties": {
        "NO": 33568,
        "共通ID": "E1746100034111",
        "都道府県名及び市町村名": "石川県穴水町",
        "施設・場所名": "島崎地区集会所",
        "住所": "石川県穴水町字根木イ103",
        "指定緊急避難場所との住所同一": "1",
        "その他市町村長が必要と認める事項": "",
        "受入対象者": "",
        "備考": ""
      }
    },
    {
      "type": "Feature",
      "geometry": {
        "type": "Point",
        "coordinates": [
          137.012882,
          37.233508
        ]
      },
      "properties": {
        "NO": 33569,
        "共通ID": "E1746100037111",
        "都道府県名及び市町村名": "石川県穴水町",
        "施設・場所名": "山中集会所",
        "住所": "石川県穴水町字山中ル15",
        "指定緊急避難場所との住所同一": "1",
        "その他市町村長が必要と認める事項": "",
        "受入対象者": "",
        "備考": ""
      }
    },
    {
      "type": "Feature",
      "geometry": {
        "type": "Point",
        "coordinates": [
          136.899084,
          37.202564
        ]
      },
      "properties": {
        "NO": 33570,
        "共通ID": "E1746100039121",
        "都道府県名及び市町村名": "石川県穴水町",
        "施設・場所名": "朱鷺の苑",
        "住所": "石川県穴水町字志ケ浦15-1-3",
        "指定緊急避難場所との住所同一": "1",
        "その他市町村長が必要と認める事項": "",
        "受入対象者": "高齢者",
        "備考": ""
      }
    },
    {
      "type": "Feature",
      "geometry": {
        "type": "Point",
        "coordinates": [
          136.907564,
          37.204046
        ]
      },
      "properties": {
        "NO": 33571,
        "共通ID": "E1746100041111",
        "都道府県名及び市町村名": "石川県穴水町",
        "施設・場所名": "志ケ浦コミュニティセンター",
        "住所": "石川県穴水町字志ケ浦い36",
        "指定緊急避難場所との住所同一": "1",
        "その他市町村長が必要と認める事項": "",
        "受入対象者": "",
        "備考": ""
      }
    },
    {
      "type": "Feature",
      "geometry": {
        "type": "Point",
        "coordinates": [
          136.898898,
          37.184809
        ]
      },
      "properties": {
        "NO": 33572,
        "共通ID": "E1746100044111",
        "都道府県名及び市町村名": "石川県穴水町",
        "施設・場所名": "鹿島地区コミュニティセンター",
        "住所": "石川県穴水町字鹿島33-1",
        "指定緊急避難場所との住所同一": "",
        "その他市町村長が必要と認める事項": "",
        "受入対象者": "",
        "備考": ""
      }
    },
    {
      "type": "Feature",
      "geometry": {
        "type": "Point",
        "coordinates": [
          136.988191,
          37.202334
        ]
      },
      "properties": {
        "NO": 33573,
        "共通ID": "E1746100048111",
        "都道府県名及び市町村名": "石川県穴水町",
        "施設・場所名": "旧鹿波小学校",
        "住所": "石川県穴水町字鹿波54-95-1",
        "指定緊急避難場所との住所同一": "",
        "その他市町村長が必要と認める事項": "",
        "受入対象者": "",
        "備考": ""
      }
    },
    {
      "type": "Feature",
      "geometry": {
        "type": "Point",
        "coordinates": [
          136.985373,
          37.202329
        ]
      },
      "properties": {
        "NO": 33574,
        "共通ID": "E1746100049111",
        "都道府県名及び市町村名": "石川県穴水町",
        "施設・場所名": "鹿波集会所",
        "住所": "石川県穴水町字鹿波55-196",
        "指定緊急避難場所との住所同一": "",
        "その他市町村長が必要と認める事項": "",
        "受入対象者": "",
        "備考": ""
      }
    },
    {
      "type": "Feature",
      "geometry": {
        "type": "Point",
        "coordinates": [
          136.817533,
          37.240341
        ]
      },
      "properties": {
        "NO": 33575,
        "共通ID": "E1746100051111",
        "都道府県名及び市町村名": "石川県穴水町",
        "施設・場所名": "上中集会所",
        "住所": "石川県穴水町字上中7-60",
        "指定緊急避難場所との住所同一": "1",
        "その他市町村長が必要と認める事項": "",
        "受入対象者": "",
        "備考": ""
      }
    },
    {
      "type": "Feature",
      "geometry": {
        "type": "Point",
        "coordinates": [
          136.92522,
          37.202022
        ]
      },
      "properties": {
        "NO": 33576,
        "共通ID": "E1746100053111",
        "都道府県名及び市町村名": "石川県穴水町",
        "施設・場所名": "新崎地区集会所",
        "住所": "石川県穴水町字新崎2-144",
        "指定緊急避難場所との住所同一": "",
        "その他市町村長が必要と認める事項": "",
        "受入対象者": "",
        "備考": ""
      }
    },
    {
      "type": "Feature",
      "geometry": {
        "type": "Point",
        "coordinates": [
          136.953761,
          37.248661
        ]
      },
      "properties": {
        "NO": 33577,
        "共通ID": "E1746100054111",
        "都道府県名及び市町村名": "石川県穴水町",
        "施設・場所名": "瑞鳳集会所",
        "住所": "石川県穴水町字瑞鳳い58",
        "指定緊急避難場所との住所同一": "1",
        "その他市町村長が必要と認める事項": "",
        "受入対象者": "",
        "備考": ""
      }
    },
    {
      "type": "Feature",
      "geometry": {
        "type": "Point",
        "coordinates": [
          136.98302,
          37.292046
        ]
      },
      "properties": {
        "NO": 33578,
        "共通ID": "E1746100056111",
        "都道府県名及び市町村名": "石川県穴水町",
        "施設・場所名": "菅谷樟谷地区活性化施設",
        "住所": "石川県穴水町字菅谷い56",
        "指定緊急避難場所との住所同一": "",
        "その他市町村長が必要と認める事項": "",
        "受入対象者": "",
        "備考": ""
      }
    },
    {
      "type": "Feature",
      "geometry": {
        "type": "Point",
        "coordinates": [
          136.909989,
          37.231106
        ]
      },
      "properties": {
        "NO": 33579,
        "共通ID": "E1746100060111",
        "都道府県名及び市町村名": "石川県穴水町",
        "施設・場所名": "穴水町林業センター",
        "住所": "石川県穴水町字川島サ29",
        "指定緊急避難場所との住所同一": "1",
        "その他市町村長が必要と認める事項": null,
        "受入対象者": null,
        "備考": ""
      }
    },
    {
      "type": "Feature",
      "geometry": {
        "type": "Point",
        "coordinates": [
          136.91025,
          37.233406
        ]
      },
      "properties": {
        "NO": 33580,
        "共通ID": "E1746100063111",
        "都道府県名及び市町村名": "石川県穴水町",
        "施設・場所名": "穴水町保健センター",
        "住所": "石川県穴水町字川島タ38",
        "指定緊急避難場所との住所同一": "1",
        "その他市町村長が必要と認める事項": null,
        "受入対象者": null,
        "備考": ""
      }
    },
    {
      "type": "Feature",
      "geometry": {
        "type": "Point",
        "coordinates": [
          136.913042,
          37.226415
        ]
      },
      "properties": {
        "NO": 33581,
        "共通ID": "E1746100066111",
        "都道府県名及び市町村名": "石川県穴水町",
        "施設・場所名": "穴水町あすなろ広場",
        "住所": "石川県穴水町字川島ツ127-1",
        "指定緊急避難場所との住所同一": "",
        "その他市町村長が必要と認める事項": null,
        "受入対象者": null,
        "備考": ""
      }
    },
    {
      "type": "Feature",
      "geometry": {
        "type": "Point",
        "coordinates": [
          136.912393,
          37.230956
        ]
      },
      "properties": {
        "NO": 33582,
        "共通ID": "E1746100069111",
        "都道府県名及び市町村名": "石川県穴水町",
        "施設・場所名": "穴水町役場",
        "住所": "石川県穴水町字川島ラ174",
        "指定緊急避難場所との住所同一": "1",
        "その他市町村長が必要と認める事項": null,
        "受入対象者": null,
        "備考": ""
      }
    },
    {
      "type": "Feature",
      "geometry": {
        "type": "Point",
        "coordinates": [
          136.9159,
          37.228078
        ]
      },
      "properties": {
        "NO": 33583,
        "共通ID": "E1746100070111",
        "都道府県名及び市町村名": "石川県穴水町",
        "施設・場所名": "歴史民俗資料館",
        "住所": "石川県穴水町字川島ラ197-15",
        "指定緊急避難場所との住所同一": "",
        "その他市町村長が必要と認める事項": null,
        "受入対象者": null,
        "備考": ""
      }
    },
    {
      "type": "Feature",
      "geometry": {
        "type": "Point",
        "coordinates": [
          136.917998,
          37.222908
        ]
      },
      "properties": {
        "NO": 33584,
        "共通ID": "E1746100071111",
        "都道府県名及び市町村名": "石川県穴水町",
        "施設・場所名": "キャッスル真名井",
        "住所": "石川県穴水町字川島井61-1",
        "指定緊急避難場所との住所同一": "1",
        "その他市町村長が必要と認める事項": null,
        "受入対象者": null,
        "備考": ""
      }
    },
    {
      "type": "Feature",
      "geometry": {
        "type": "Point",
        "coordinates": [
          137.067532,
          37.219409
        ]
      },
      "properties": {
        "NO": 33585,
        "共通ID": "E1746100074111",
        "都道府県名及び市町村名": "石川県穴水町",
        "施設・場所名": "前波集会所",
        "住所": "石川県穴水町字前波ホ177-1",
        "指定緊急避難場所との住所同一": "1",
        "その他市町村長が必要と認める事項": "",
        "受入対象者": "",
        "備考": ""
      }
    },
    {
      "type": "Feature",
      "geometry": {
        "type": "Point",
        "coordinates": [
          136.89363,
          37.174551
        ]
      },
      "properties": {
        "NO": 33586,
        "共通ID": "E1746100076111",
        "都道府県名及び市町村名": "石川県穴水町",
        "施設・場所名": "曽福集会所",
        "住所": "石川県穴水町字曽福チ71",
        "指定緊急避難場所との住所同一": "",
        "その他市町村長が必要と認める事項": "",
        "受入対象者": "",
        "備考": ""
      }
    },
    {
      "type": "Feature",
      "geometry": {
        "type": "Point",
        "coordinates": [
          137.023453,
          37.19451
        ]
      },
      "properties": {
        "NO": 33587,
        "共通ID": "E1746100080111",
        "都道府県名及び市町村名": "石川県穴水町",
        "施設・場所名": "旧兜小学校",
        "住所": "石川県穴水町字曽良4-7-1",
        "指定緊急避難場所との住所同一": "",
        "その他市町村長が必要と認める事項": "",
        "受入対象者": "",
        "備考": ""
      }
    },
    {
      "type": "Feature",
      "geometry": {
        "type": "Point",
        "coordinates": [
          137.019749,
          37.191797
        ]
      },
      "properties": {
        "NO": 33588,
        "共通ID": "E1746100081111",
        "都道府県名及び市町村名": "石川県穴水町",
        "施設・場所名": "曽良集会所",
        "住所": "石川県穴水町字曽良ヌ32",
        "指定緊急避難場所との住所同一": "",
        "その他市町村長が必要と認める事項": "",
        "受入対象者": "",
        "備考": ""
      }
    },
    {
      "type": "Feature",
      "geometry": {
        "type": "Point",
        "coordinates": [
          136.905631,
          37.228381
        ]
      },
      "properties": {
        "NO": 33589,
        "共通ID": "E1746100084111",
        "都道府県名及び市町村名": "石川県穴水町",
        "施設・場所名": "さわやか交流館プルート",
        "住所": "石川県穴水町字大町ト3-3",
        "指定緊急避難場所との住所同一": "",
        "その他市町村長が必要と認める事項": null,
        "受入対象者": null,
        "備考": ""
      }
    },
    {
      "type": "Feature",
      "geometry": {
        "type": "Point",
        "coordinates": [
          136.899629,
          37.230379
        ]
      },
      "properties": {
        "NO": 33590,
        "共通ID": "E1746100085111",
        "都道府県名及び市町村名": "石川県穴水町",
        "施設・場所名": "穴水中学校",
        "住所": "石川県穴水町字大町ヌ201",
        "指定緊急避難場所との住所同一": "1",
        "その他市町村長が必要と認める事項": null,
        "受入対象者": null,
        "備考": ""
      }
    },
    {
      "type": "Feature",
      "geometry": {
        "type": "Point",
        "coordinates": [
          136.894281,
          37.226272
        ]
      },
      "properties": {
        "NO": 33591,
        "共通ID": "E1746100089111",
        "都道府県名及び市町村名": "石川県穴水町",
        "施設・場所名": "来迎寺地区集会所",
        "住所": "石川県穴水町字大町ヨ191",
        "指定緊急避難場所との住所同一": "1",
        "その他市町村長が必要と認める事項": null,
        "受入対象者": null,
        "備考": ""
      }
    },
    {
      "type": "Feature",
      "geometry": {
        "type": "Point",
        "coordinates": [
          136.908306,
          37.226992
        ]
      },
      "properties": {
        "NO": 33592,
        "共通ID": "E1746100090111",
        "都道府県名及び市町村名": "石川県穴水町",
        "施設・場所名": "穴水町放課後児童福祉施設",
        "住所": "石川県穴水町字大町ロ140-1",
        "指定緊急避難場所との住所同一": "",
        "その他市町村長が必要と認める事項": null,
        "受入対象者": null,
        "備考": ""
      }
    },
    {
      "type": "Feature",
      "geometry": {
        "type": "Point",
        "coordinates": [
          136.907502,
          37.227363
        ]
      },
      "properties": {
        "NO": 33593,
        "共通ID": "E1746100091111",
        "都道府県名及び市町村名": "石川県穴水町",
        "施設・場所名": "穴水小学校",
        "住所": "石川県穴水町字大町ロ165-1",
        "指定緊急避難場所との住所同一": "1",
        "その他市町村長が必要と認める事項": null,
        "受入対象者": null,
        "備考": ""
      }
    },
    {
      "type": "Feature",
      "geometry": {
        "type": "Point",
        "coordinates": [
          136.908116,
          37.227622
        ]
      },
      "properties": {
        "NO": 33594,
        "共通ID": "E1746100094111",
        "都道府県名及び市町村名": "石川県穴水町",
        "施設・場所名": "Ｂ＆Ｇ武道館",
        "住所": "石川県穴水町字大町ロ19",
        "指定緊急避難場所との住所同一": "1",
        "その他市町村長が必要と認める事項": null,
        "受入対象者": null,
        "備考": ""
      }
    },
    {
      "type": "Feature",
      "geometry": {
        "type": "Point",
        "coordinates": [
          136.908304,
          37.227344
        ]
      },
      "properties": {
        "NO": 33595,
        "共通ID": "E1746100094112",
        "都道府県名及び市町村名": "石川県穴水町",
        "施設・場所名": "Ｂ＆Ｇ体育館",
        "住所": "石川県穴水町字大町ロ19",
        "指定緊急避難場所との住所同一": "1",
        "その他市町村長が必要と認める事項": null,
        "受入対象者": null,
        "備考": ""
      }
    },
    {
      "type": "Feature",
      "geometry": {
        "type": "Point",
        "coordinates": [
          136.946297,
          37.232139
        ]
      },
      "properties": {
        "NO": 33596,
        "共通ID": "E1746100101111",
        "都道府県名及び市町村名": "石川県穴水町",
        "施設・場所名": "住吉農村環境改善センター",
        "住所": "石川県穴水町字中居ロ100",
        "指定緊急避難場所との住所同一": "1",
        "その他市町村長が必要と認める事項": null,
        "受入対象者": null,
        "備考": ""
      }
    },
    {
      "type": "Feature",
      "geometry": {
        "type": "Point",
        "coordinates": [
          136.946467,
          37.23233
        ]
      },
      "properties": {
        "NO": 33597,
        "共通ID": "E1746100103111",
        "都道府県名及び市町村名": "石川県穴水町",
        "施設・場所名": "能登中居鋳物館",
        "住所": "石川県穴水町字中居ロ110",
        "指定緊急避難場所との住所同一": "",
        "その他市町村長が必要と認める事項": "",
        "受入対象者": "",
        "備考": ""
      }
    },
    {
      "type": "Feature",
      "geometry": {
        "type": "Point",
        "coordinates": [
          136.944676,
          37.228679
        ]
      },
      "properties": {
        "NO": 33598,
        "共通ID": "E1746100104111",
        "都道府県名及び市町村名": "石川県穴水町",
        "施設・場所名": "中居地区活性化施設",
        "住所": "石川県穴水町字中居南1-150",
        "指定緊急避難場所との住所同一": "",
        "その他市町村長が必要と認める事項": "",
        "受入対象者": "",
        "備考": ""
      }
    },
    {
      "type": "Feature",
      "geometry": {
        "type": "Point",
        "coordinates": [
          136.922006,
          37.223063
        ]
      },
      "properties": {
        "NO": 33599,
        "共通ID": "E1746100109111",
        "都道府県名及び市町村名": "石川県穴水町",
        "施設・場所名": "のとふれあい文化センター",
        "住所": "石川県穴水町字内浦5-28-3",
        "指定緊急避難場所との住所同一": "1",
        "その他市町村長が必要と認める事項": null,
        "受入対象者": null,
        "備考": ""
      }
    },
    {
      "type": "Feature",
      "geometry": {
        "type": "Point",
        "coordinates": [
          136.940538,
          37.242509
        ]
      },
      "properties": {
        "NO": 33600,
        "共通ID": "E1746100110111",
        "都道府県名及び市町村名": "石川県穴水町",
        "施設・場所名": "梶・波志借集会所",
        "住所": "石川県穴水町字波志借ロ11",
        "指定緊急避難場所との住所同一": "1",
        "その他市町村長が必要と認める事項": null,
        "受入対象者": null,
        "備考": ""
      }
    },
    {
      "type": "Feature",
      "geometry": {
        "type": "Point",
        "coordinates": [
          136.920896,
          37.27211
        ]
      },
      "properties": {
        "NO": 33601,
        "共通ID": "E1746100130111",
        "都道府県名及び市町村名": "石川県穴水町",
        "施設・場所名": "青山彩光苑穴水ライフサポートセンター",
        "住所": "石川県穴水町字麦ケ浦15-39-12",
        "指定緊急避難場所との住所同一": "",
        "その他市町村長が必要と認める事項": "",
        "受入対象者": "",
        "備考": ""
      }
    },
    {
      "type": "Feature",
      "geometry": {
        "type": "Point",
        "coordinates": [
          136.962881,
          37.237131
        ]
      },
      "properties": {
        "NO": 33602,
        "共通ID": "E1746100113111",
        "都道府県名及び市町村名": "石川県穴水町",
        "施設・場所名": "比良地区集会所",
        "住所": "石川県穴水町字比良",
        "指定緊急避難場所との住所同一": "1",
        "その他市町村長が必要と認める事項": null,
        "受入対象者": null,
        "備考": ""
      }
    },
    {
      "type": "Feature",
      "geometry": {
        "type": "Point",
        "coordinates": [
          136.966758,
          37.234497
        ]
      },
      "properties": {
        "NO": 33603,
        "共通ID": "E1746100116111",
        "都道府県名及び市町村名": "石川県穴水町",
        "施設・場所名": "旧向洋中学校",
        "住所": "石川県穴水町字比良い50",
        "指定緊急避難場所との住所同一": "1",
        "その他市町村長が必要と認める事項": "",
        "受入対象者": "",
        "備考": ""
      }
    },
    {
      "type": "Feature",
      "geometry": {
        "type": "Point",
        "coordinates": [
          136.951437,
          37.234476
        ]
      },
      "properties": {
        "NO": 33604,
        "共通ID": "E1746100114111",
        "都道府県名及び市町村名": "石川県穴水町",
        "施設・場所名": "向洋小学校",
        "住所": "石川県穴水町字比良イ24",
        "指定緊急避難場所との住所同一": "1",
        "その他市町村長が必要と認める事項": null,
        "受入対象者": null,
        "備考": ""
      }
    },
    {
      "type": "Feature",
      "geometry": {
        "type": "Point",
        "coordinates": [
          137.058551,
          37.229503
        ]
      },
      "properties": {
        "NO": 33605,
        "共通ID": "E1746100122111",
        "都道府県名及び市町村名": "石川県穴水町",
        "施設・場所名": "明千寺集会所",
        "住所": "石川県穴水町字明千寺カ70",
        "指定緊急避難場所との住所同一": "",
        "その他市町村長が必要と認める事項": null,
        "受入対象者": null,
        "備考": ""
      }
    },
    {
      "type": "Feature",
      "geometry": {
        "type": "Point",
        "coordinates": [
          136.956263,
          37.276769
        ]
      },
      "properties": {
        "NO": 33606,
        "共通ID": "E1746100124111",
        "都道府県名及び市町村名": "石川県穴水町",
        "施設・場所名": "藤巻集会所",
        "住所": "石川県穴水町字木原",
        "指定緊急避難場所との住所同一": "",
        "その他市町村長が必要と認める事項": "",
        "受入対象者": "",
        "備考": ""
      }
    },
    {
      "type": "Feature",
      "geometry": {
        "type": "Point",
        "coordinates": [
          136.9602,
          37.28302
        ]
      },
      "properties": {
        "NO": 33607,
        "共通ID": "E1746100125111",
        "都道府県名及び市町村名": "石川県穴水町",
        "施設・場所名": "木原地区集会所",
        "住所": "石川県穴水町字木原ろ159",
        "指定緊急避難場所との住所同一": "",
        "その他市町村長が必要と認める事項": null,
        "受入対象者": null,
        "備考": ""
      }
    },
    {
      "type": "Feature",
      "geometry": {
        "type": "Point",
        "coordinates": [
          136.920329,
          37.231208
        ]
      },
      "properties": {
        "NO": 33608,
        "共通ID": "E1746100128111",
        "都道府県名及び市町村名": "石川県穴水町",
        "施設・場所名": "由比ケ丘会館",
        "住所": "石川県穴水町字由比ケ丘は2-9",
        "指定緊急避難場所との住所同一": "1",
        "その他市町村長が必要と認める事項": "",
        "受入対象者": "",
        "備考": ""
      }
    }
  ]
}