{
  "type": "FeatureCollection",
  "name": "182079",
  "features": [
    {
      "type": "Feature",
      "geometry": {
        "type": "Point",
        "coordinates": [
          136.186571,
          35.949167
        ]
      },
      "properties": {
        "NO": 34174,
        "共通ID": "E1820700002121",
        "都道府県名及び市町村名": "福井県鯖江市",
        "施設・場所名": "陽だまりさばえ",
        "住所": "福井県鯖江市旭町4-9-10",
        "指定緊急避難場所との住所同一": "",
        "その他市町村長が必要と認める事項": null,
        "受入対象者": "要配慮者",
        "備考": ""
      }
    },
    {
      "type": "Feature",
      "geometry": {
        "type": "Point",
        "coordinates": [
          136.18824,
          35.950112
        ]
      },
      "properties": {
        "NO": 34175,
        "共通ID": "E1820700002122",
        "都道府県名及び市町村名": "福井県鯖江市",
        "施設・場所名": "介護医療院　かがやき",
        "住所": "福井県鯖江市旭町4-9-10",
        "指定緊急避難場所との住所同一": "",
        "その他市町村長が必要と認める事項": null,
        "受入対象者": "要配慮者",
        "備考": ""
      }
    },
    {
      "type": "Feature",
      "geometry": {
        "type": "Point",
        "coordinates": [
          136.24303,
          35.953506
        ]
      },
      "properties": {
        "NO": 34176,
        "共通ID": "E1820700003111",
        "都道府県名及び市町村名": "福井県鯖江市",
        "施設・場所名": "北中山小学校",
        "住所": "福井県鯖江市磯部町25-11",
        "指定緊急避難場所との住所同一": "",
        "その他市町村長が必要と認める事項": null,
        "受入対象者": null,
        "備考": ""
      }
    },
    {
      "type": "Feature",
      "geometry": {
        "type": "Point",
        "coordinates": [
          136.200713,
          35.942068
        ]
      },
      "properties": {
        "NO": 34177,
        "共通ID": "E1820700004111",
        "都道府県名及び市町村名": "福井県鯖江市",
        "施設・場所名": "新横江公民館",
        "住所": "福井県鯖江市横越町1-43-2",
        "指定緊急避難場所との住所同一": "",
        "その他市町村長が必要と認める事項": null,
        "受入対象者": null,
        "備考": ""
      }
    },
    {
      "type": "Feature",
      "geometry": {
        "type": "Point",
        "coordinates": [
          136.152201,
          35.946028
        ]
      },
      "properties": {
        "NO": 34178,
        "共通ID": "E1820700005111",
        "都道府県名及び市町村名": "福井県鯖江市",
        "施設・場所名": "豊公民館",
        "住所": "福井県鯖江市下野田町26-8-1",
        "指定緊急避難場所との住所同一": "",
        "その他市町村長が必要と認める事項": null,
        "受入対象者": null,
        "備考": ""
      }
    },
    {
      "type": "Feature",
      "geometry": {
        "type": "Point",
        "coordinates": [
          136.151372,
          35.94368
        ]
      },
      "properties": {
        "NO": 34179,
        "共通ID": "E1820700006111",
        "都道府県名及び市町村名": "福井県鯖江市",
        "施設・場所名": "豊小学校",
        "住所": "福井県鯖江市下野田町39-29",
        "指定緊急避難場所との住所同一": "",
        "その他市町村長が必要と認める事項": null,
        "受入対象者": null,
        "備考": ""
      }
    },
    {
      "type": "Feature",
      "geometry": {
        "type": "Point",
        "coordinates": [
          136.274064,
          35.951025
        ]
      },
      "properties": {
        "NO": 34180,
        "共通ID": "E1820700007111",
        "都道府県名及び市町村名": "福井県鯖江市",
        "施設・場所名": "河和田公民館",
        "住所": "福井県鯖江市河和田町19-6-1",
        "指定緊急避難場所との住所同一": "",
        "その他市町村長が必要と認める事項": null,
        "受入対象者": null,
        "備考": ""
      }
    },
    {
      "type": "Feature",
      "geometry": {
        "type": "Point",
        "coordinates": [
          136.168356,
          35.986745
        ]
      },
      "properties": {
        "NO": 34181,
        "共通ID": "E1820700008121",
        "都道府県名及び市町村名": "福井県鯖江市",
        "施設・場所名": "エレガント・セニ－ル・ガーデン",
        "住所": "福井県鯖江市吉江町31-7-1",
        "指定緊急避難場所との住所同一": "",
        "その他市町村長が必要と認める事項": null,
        "受入対象者": "要配慮者",
        "備考": ""
      }
    },
    {
      "type": "Feature",
      "geometry": {
        "type": "Point",
        "coordinates": [
          136.181088,
          35.973158
        ]
      },
      "properties": {
        "NO": 34182,
        "共通ID": "E1820700011121",
        "都道府県名及び市町村名": "福井県鯖江市",
        "施設・場所名": "神明ケアセンター",
        "住所": "福井県鯖江市幸町1-2-2",
        "指定緊急避難場所との住所同一": "",
        "その他市町村長が必要と認める事項": null,
        "受入対象者": "要配慮者",
        "備考": ""
      }
    },
    {
      "type": "Feature",
      "geometry": {
        "type": "Point",
        "coordinates": [
          136.183004,
          35.945398
        ]
      },
      "properties": {
        "NO": 34183,
        "共通ID": "E1820700012111",
        "都道府県名及び市町村名": "福井県鯖江市",
        "施設・場所名": "鯖江公民館",
        "住所": "福井県鯖江市桜町1-1-16",
        "指定緊急避難場所との住所同一": "",
        "その他市町村長が必要と認める事項": null,
        "受入対象者": null,
        "備考": ""
      }
    },
    {
      "type": "Feature",
      "geometry": {
        "type": "Point",
        "coordinates": [
          136.179939,
          35.969352
        ]
      },
      "properties": {
        "NO": 34184,
        "共通ID": "E1820700017111",
        "都道府県名及び市町村名": "福井県鯖江市",
        "施設・場所名": "中央中学校",
        "住所": "福井県鯖江市三六町1-1-50",
        "指定緊急避難場所との住所同一": "",
        "その他市町村長が必要と認める事項": null,
        "受入対象者": null,
        "備考": ""
      }
    },
    {
      "type": "Feature",
      "geometry": {
        "type": "Point",
        "coordinates": [
          136.178779,
          35.970542
        ]
      },
      "properties": {
        "NO": 34185,
        "共通ID": "E1820700018111",
        "都道府県名及び市町村名": "福井県鯖江市",
        "施設・場所名": "神明公民館",
        "住所": "福井県鯖江市三六町1-4-12",
        "指定緊急避難場所との住所同一": "",
        "その他市町村長が必要と認める事項": null,
        "受入対象者": null,
        "備考": ""
      }
    },
    {
      "type": "Feature",
      "geometry": {
        "type": "Point",
        "coordinates": [
          136.17475,
          35.952214
        ]
      },
      "properties": {
        "NO": 34186,
        "共通ID": "E1820700026111",
        "都道府県名及び市町村名": "福井県鯖江市",
        "施設・場所名": "鯖江中学校",
        "住所": "福井県鯖江市小黒町2-12-1",
        "指定緊急避難場所との住所同一": "",
        "その他市町村長が必要と認める事項": null,
        "受入対象者": null,
        "備考": ""
      }
    },
    {
      "type": "Feature",
      "geometry": {
        "type": "Point",
        "coordinates": [
          136.173727,
          35.955743
        ]
      },
      "properties": {
        "NO": 34187,
        "共通ID": "E1820700027121",
        "都道府県名及び市町村名": "福井県鯖江市",
        "施設・場所名": "鯖江きらめきハウス",
        "住所": "福井県鯖江市小黒町3-10-21",
        "指定緊急避難場所との住所同一": "",
        "その他市町村長が必要と認める事項": null,
        "受入対象者": "要配慮者",
        "備考": ""
      }
    },
    {
      "type": "Feature",
      "geometry": {
        "type": "Point",
        "coordinates": [
          136.173617,
          35.955736
        ]
      },
      "properties": {
        "NO": 34188,
        "共通ID": "E1820700027122",
        "都道府県名及び市町村名": "福井県鯖江市",
        "施設・場所名": "鯖江きらめきグループホーム",
        "住所": "福井県鯖江市小黒町3-10-21",
        "指定緊急避難場所との住所同一": "",
        "その他市町村長が必要と認める事項": null,
        "受入対象者": "要配慮者",
        "備考": ""
      }
    },
    {
      "type": "Feature",
      "geometry": {
        "type": "Point",
        "coordinates": [
          136.198755,
          35.93998
        ]
      },
      "properties": {
        "NO": 34189,
        "共通ID": "E1820700031111",
        "都道府県名及び市町村名": "福井県鯖江市",
        "施設・場所名": "鯖江東小学校",
        "住所": "福井県鯖江市新横江2-6-37",
        "指定緊急避難場所との住所同一": "1",
        "その他市町村長が必要と認める事項": null,
        "受入対象者": null,
        "備考": ""
      }
    },
    {
      "type": "Feature",
      "geometry": {
        "type": "Point",
        "coordinates": [
          136.187863,
          35.979476
        ]
      },
      "properties": {
        "NO": 34190,
        "共通ID": "E1820700034111",
        "都道府県名及び市町村名": "福井県鯖江市",
        "施設・場所名": "鳥羽小学校",
        "住所": "福井県鯖江市神明町4-1-38",
        "指定緊急避難場所との住所同一": "",
        "その他市町村長が必要と認める事項": null,
        "受入対象者": null,
        "備考": ""
      }
    },
    {
      "type": "Feature",
      "geometry": {
        "type": "Point",
        "coordinates": [
          136.18438,
          35.97017
        ]
      },
      "properties": {
        "NO": 34191,
        "共通ID": "E1820700041111",
        "都道府県名及び市町村名": "福井県鯖江市",
        "施設・場所名": "神明小学校",
        "住所": "福井県鯖江市水落町4-13-23",
        "指定緊急避難場所との住所同一": "",
        "その他市町村長が必要と認める事項": null,
        "受入対象者": null,
        "備考": ""
      }
    },
    {
      "type": "Feature",
      "geometry": {
        "type": "Point",
        "coordinates": [
          136.169495,
          35.983594
        ]
      },
      "properties": {
        "NO": 34192,
        "共通ID": "E1820700042111",
        "都道府県名及び市町村名": "福井県鯖江市",
        "施設・場所名": "立待小学校",
        "住所": "福井県鯖江市杉本町1-5",
        "指定緊急避難場所との住所同一": "",
        "その他市町村長が必要と認める事項": null,
        "受入対象者": null,
        "備考": ""
      }
    },
    {
      "type": "Feature",
      "geometry": {
        "type": "Point",
        "coordinates": [
          136.173925,
          35.983217
        ]
      },
      "properties": {
        "NO": 34193,
        "共通ID": "E1820700046111",
        "都道府県名及び市町村名": "福井県鯖江市",
        "施設・場所名": "立待公民館",
        "住所": "福井県鯖江市杉本町702-2",
        "指定緊急避難場所との住所同一": "",
        "その他市町村長が必要と認める事項": null,
        "受入対象者": null,
        "備考": ""
      }
    },
    {
      "type": "Feature",
      "geometry": {
        "type": "Point",
        "coordinates": [
          136.278859,
          35.953129
        ]
      },
      "properties": {
        "NO": 34194,
        "共通ID": "E1820700050111",
        "都道府県名及び市町村名": "福井県鯖江市",
        "施設・場所名": "河和田小学校",
        "住所": "福井県鯖江市西袋町67-8",
        "指定緊急避難場所との住所同一": "",
        "その他市町村長が必要と認める事項": null,
        "受入対象者": null,
        "備考": ""
      }
    },
    {
      "type": "Feature",
      "geometry": {
        "type": "Point",
        "coordinates": [
          136.138477,
          35.959372
        ]
      },
      "properties": {
        "NO": 34195,
        "共通ID": "E1820700052121",
        "都道府県名及び市町村名": "福井県鯖江市",
        "施設・場所名": "介護事業所　ありんこ",
        "住所": "福井県鯖江市西大井町12-38-2",
        "指定緊急避難場所との住所同一": "",
        "その他市町村長が必要と認める事項": null,
        "受入対象者": "要配慮者",
        "備考": ""
      }
    },
    {
      "type": "Feature",
      "geometry": {
        "type": "Point",
        "coordinates": [
          136.157268,
          35.961888
        ]
      },
      "properties": {
        "NO": 34196,
        "共通ID": "E1820700055111",
        "都道府県名及び市町村名": "福井県鯖江市",
        "施設・場所名": "吉川小学校",
        "住所": "福井県鯖江市大倉町22-1",
        "指定緊急避難場所との住所同一": "",
        "その他市町村長が必要と認める事項": null,
        "受入対象者": null,
        "備考": ""
      }
    },
    {
      "type": "Feature",
      "geometry": {
        "type": "Point",
        "coordinates": [
          136.157197,
          35.963028
        ]
      },
      "properties": {
        "NO": 34197,
        "共通ID": "E1820700056111",
        "都道府県名及び市町村名": "福井県鯖江市",
        "施設・場所名": "吉川公民館",
        "住所": "福井県鯖江市大倉町5-14-1",
        "指定緊急避難場所との住所同一": "",
        "その他市町村長が必要と認める事項": null,
        "受入対象者": null,
        "備考": ""
      }
    },
    {
      "type": "Feature",
      "geometry": {
        "type": "Point",
        "coordinates": [
          136.231606,
          35.974001
        ]
      },
      "properties": {
        "NO": 34198,
        "共通ID": "E1820700058111",
        "都道府県名及び市町村名": "福井県鯖江市",
        "施設・場所名": "片上小学校",
        "住所": "福井県鯖江市大野町16-6",
        "指定緊急避難場所との住所同一": "1",
        "その他市町村長が必要と認める事項": null,
        "受入対象者": null,
        "備考": ""
      }
    },
    {
      "type": "Feature",
      "geometry": {
        "type": "Point",
        "coordinates": [
          136.228538,
          35.977982
        ]
      },
      "properties": {
        "NO": 34199,
        "共通ID": "E1820700059121",
        "都道府県名及び市町村名": "福井県鯖江市",
        "施設・場所名": "ことぶき荘",
        "住所": "福井県鯖江市大野町3-1",
        "指定緊急避難場所との住所同一": "",
        "その他市町村長が必要と認める事項": null,
        "受入対象者": "要配慮者",
        "備考": ""
      }
    },
    {
      "type": "Feature",
      "geometry": {
        "type": "Point",
        "coordinates": [
          136.230833,
          35.973694
        ]
      },
      "properties": {
        "NO": 34200,
        "共通ID": "E1820700060111",
        "都道府県名及び市町村名": "福井県鯖江市",
        "施設・場所名": "片上公民館",
        "住所": "福井県鯖江市大野町6-8-1",
        "指定緊急避難場所との住所同一": "",
        "その他市町村長が必要と認める事項": null,
        "受入対象者": null,
        "備考": ""
      }
    },
    {
      "type": "Feature",
      "geometry": {
        "type": "Point",
        "coordinates": [
          136.209071,
          35.95626
        ]
      },
      "properties": {
        "NO": 34201,
        "共通ID": "E1820700061111",
        "都道府県名及び市町村名": "福井県鯖江市",
        "施設・場所名": "中河公民館",
        "住所": "福井県鯖江市中野町203-8",
        "指定緊急避難場所との住所同一": "",
        "その他市町村長が必要と認める事項": null,
        "受入対象者": null,
        "備考": ""
      }
    },
    {
      "type": "Feature",
      "geometry": {
        "type": "Point",
        "coordinates": [
          136.206231,
          35.948015
        ]
      },
      "properties": {
        "NO": 34202,
        "共通ID": "E1820700063121",
        "都道府県名及び市町村名": "福井県鯖江市",
        "施設・場所名": "鯖江ケアセンター　みどり荘",
        "住所": "福井県鯖江市中野町33-20-1",
        "指定緊急避難場所との住所同一": "",
        "その他市町村長が必要と認める事項": null,
        "受入対象者": "要配慮者",
        "備考": ""
      }
    },
    {
      "type": "Feature",
      "geometry": {
        "type": "Point",
        "coordinates": [
          136.208496,
          35.953979
        ]
      },
      "properties": {
        "NO": 34203,
        "共通ID": "E1820700066111",
        "都道府県名及び市町村名": "福井県鯖江市",
        "施設・場所名": "中河小学校",
        "住所": "福井県鯖江市中野町73-16",
        "指定緊急避難場所との住所同一": "",
        "その他市町村長が必要と認める事項": null,
        "受入対象者": null,
        "備考": ""
      }
    },
    {
      "type": "Feature",
      "geometry": {
        "type": "Point",
        "coordinates": [
          136.185112,
          35.954627
        ]
      },
      "properties": {
        "NO": 34204,
        "共通ID": "E1820700070111",
        "都道府県名及び市町村名": "福井県鯖江市",
        "施設・場所名": "進徳小学校",
        "住所": "福井県鯖江市長泉寺町2-5-1",
        "指定緊急避難場所との住所同一": "",
        "その他市町村長が必要と認める事項": null,
        "受入対象者": null,
        "備考": ""
      }
    },
    {
      "type": "Feature",
      "geometry": {
        "type": "Point",
        "coordinates": [
          136.185661,
          35.984634
        ]
      },
      "properties": {
        "NO": 34205,
        "共通ID": "E1820700071121",
        "都道府県名及び市町村名": "福井県鯖江市",
        "施設・場所名": "もんざえもん",
        "住所": "福井県鯖江市鳥羽3-1-29-1",
        "指定緊急避難場所との住所同一": "",
        "その他市町村長が必要と認める事項": null,
        "受入対象者": "要配慮者",
        "備考": ""
      }
    },
    {
      "type": "Feature",
      "geometry": {
        "type": "Point",
        "coordinates": [
          136.186416,
          35.942298
        ]
      },
      "properties": {
        "NO": 34206,
        "共通ID": "E1820700075111",
        "都道府県名及び市町村名": "福井県鯖江市",
        "施設・場所名": "惜陰小学校",
        "住所": "福井県鯖江市日の出町6-37",
        "指定緊急避難場所との住所同一": "1",
        "その他市町村長が必要と認める事項": null,
        "受入対象者": null,
        "備考": ""
      }
    },
    {
      "type": "Feature",
      "geometry": {
        "type": "Point",
        "coordinates": [
          136.26044,
          35.947608
        ]
      },
      "properties": {
        "NO": 34207,
        "共通ID": "E1820700078121",
        "都道府県名及び市町村名": "福井県鯖江市",
        "施設・場所名": "おしどり荘",
        "住所": "福井県鯖江市別司町41-30",
        "指定緊急避難場所との住所同一": "",
        "その他市町村長が必要と認める事項": null,
        "受入対象者": "要配慮者",
        "備考": ""
      }
    },
    {
      "type": "Feature",
      "geometry": {
        "type": "Point",
        "coordinates": [
          136.184845,
          35.946003
        ]
      },
      "properties": {
        "NO": 34208,
        "共通ID": "E1820700081121",
        "都道府県名及び市町村名": "福井県鯖江市",
        "施設・場所名": "グレースフルわかたけ",
        "住所": "福井県鯖江市本町2-2-17",
        "指定緊急避難場所との住所同一": "",
        "その他市町村長が必要と認める事項": null,
        "受入対象者": "要配慮者",
        "備考": ""
      }
    },
    {
      "type": "Feature",
      "geometry": {
        "type": "Point",
        "coordinates": [
          136.230003,
          35.95109
        ]
      },
      "properties": {
        "NO": 34209,
        "共通ID": "E1820700087111",
        "都道府県名及び市町村名": "福井県鯖江市",
        "施設・場所名": "東陽中学校",
        "住所": "福井県鯖江市落井町32-7",
        "指定緊急避難場所との住所同一": "",
        "その他市町村長が必要と認める事項": null,
        "受入対象者": null,
        "備考": ""
      }
    },
    {
      "type": "Feature",
      "geometry": {
        "type": "Point",
        "coordinates": [
          136.237782,
          35.951806
        ]
      },
      "properties": {
        "NO": 34210,
        "共通ID": "E1820700088111",
        "都道府県名及び市町村名": "福井県鯖江市",
        "施設・場所名": "北中山公民館",
        "住所": "福井県鯖江市落井町41-33-1",
        "指定緊急避難場所との住所同一": "",
        "その他市町村長が必要と認める事項": null,
        "受入対象者": null,
        "備考": ""
      }
    },
    {
      "type": "Feature",
      "geometry": {
        "type": "Point",
        "coordinates": [
          136.138624,
          35.947429
        ]
      },
      "properties": {
        "NO": 34211,
        "共通ID": "E1820700089121",
        "都道府県名及び市町村名": "福井県鯖江市",
        "施設・場所名": "ライフトレーニングセンター",
        "住所": "福井県鯖江市和田町9-1-1",
        "指定緊急避難場所との住所同一": "",
        "その他市町村長が必要と認める事項": null,
        "受入対象者": "要配慮者",
        "備考": ""
      }
    },
    {
      "type": "Feature",
      "geometry": {
        "type": "Point",
        "coordinates": [
          136.138206,
          35.947612
        ]
      },
      "properties": {
        "NO": 34212,
        "共通ID": "E1820700089122",
        "都道府県名及び市町村名": "福井県鯖江市",
        "施設・場所名": "ライトワークセンター",
        "住所": "福井県鯖江市和田町9-1-1",
        "指定緊急避難場所との住所同一": "",
        "その他市町村長が必要と認める事項": null,
        "受入対象者": "要配慮者",
        "備考": ""
      }
    }
  ]
}