{
  "type": "FeatureCollection",
  "name": "184837",
  "features": [
    {
      "type": "Feature",
      "geometry": {
        "type": "Point",
        "coordinates": [
          135.57184,
          35.451174
        ]
      },
      "properties": {
        "NO": 34437,
        "共通ID": "E1848300003111",
        "都道府県名及び市町村名": "福井県おおい町",
        "施設・場所名": "佐分利小学校",
        "住所": "福井県おおい町鹿野21-22-1",
        "指定緊急避難場所との住所同一": "1",
        "その他市町村長が必要と認める事項": null,
        "受入対象者": null,
        "備考": ""
      }
    },
    {
      "type": "Feature",
      "geometry": {
        "type": "Point",
        "coordinates": [
          135.565565,
          35.453054
        ]
      },
      "properties": {
        "NO": 34438,
        "共通ID": "E1848300004111",
        "都道府県名及び市町村名": "福井県おおい町",
        "施設・場所名": "ふるさと交流センター",
        "住所": "福井県おおい町鹿野42-27",
        "指定緊急避難場所との住所同一": "1",
        "その他市町村長が必要と認める事項": null,
        "受入対象者": null,
        "備考": ""
      }
    },
    {
      "type": "Feature",
      "geometry": {
        "type": "Point",
        "coordinates": [
          135.611934,
          35.483593
        ]
      },
      "properties": {
        "NO": 34439,
        "共通ID": "E1848300009111",
        "都道府県名及び市町村名": "福井県おおい町",
        "施設・場所名": "総合町民体育館",
        "住所": "福井県おおい町成和2-1-1",
        "指定緊急避難場所との住所同一": "1",
        "その他市町村長が必要と認める事項": null,
        "受入対象者": null,
        "備考": ""
      }
    },
    {
      "type": "Feature",
      "geometry": {
        "type": "Point",
        "coordinates": [
          135.646048,
          35.527788
        ]
      },
      "properties": {
        "NO": 34440,
        "共通ID": "E1848300011111",
        "都道府県名及び市町村名": "福井県おおい町",
        "施設・場所名": "大島小学校",
        "住所": "福井県おおい町大島60-6",
        "指定緊急避難場所との住所同一": "1",
        "その他市町村長が必要と認める事項": null,
        "受入対象者": null,
        "備考": ""
      }
    },
    {
      "type": "Feature",
      "geometry": {
        "type": "Point",
        "coordinates": [
          135.64264,
          35.52456
        ]
      },
      "properties": {
        "NO": 34441,
        "共通ID": "E1848300013111",
        "都道府県名及び市町村名": "福井県おおい町",
        "施設・場所名": "はまかぜ交流センター（しーまいる）",
        "住所": "福井県おおい町大島90-27",
        "指定緊急避難場所との住所同一": "1",
        "その他市町村長が必要と認める事項": null,
        "受入対象者": null,
        "備考": ""
      }
    },
    {
      "type": "Feature",
      "geometry": {
        "type": "Point",
        "coordinates": [
          135.61726,
          35.48133
        ]
      },
      "properties": {
        "NO": 34442,
        "共通ID": "E1848300015111",
        "都道府県名及び市町村名": "福井県おおい町",
        "施設・場所名": "総合町民福祉センター",
        "住所": "福井県おおい町本郷136-1-1",
        "指定緊急避難場所との住所同一": "1",
        "その他市町村長が必要と認める事項": null,
        "受入対象者": null,
        "備考": ""
      }
    },
    {
      "type": "Feature",
      "geometry": {
        "type": "Point",
        "coordinates": [
          135.622621,
          35.472389
        ]
      },
      "properties": {
        "NO": 34443,
        "共通ID": "E1848300016111",
        "都道府県名及び市町村名": "福井県おおい町",
        "施設・場所名": "本郷小学校",
        "住所": "福井県おおい町本郷80-7",
        "指定緊急避難場所との住所同一": "1",
        "その他市町村長が必要と認める事項": null,
        "受入対象者": null,
        "備考": ""
      }
    },
    {
      "type": "Feature",
      "geometry": {
        "type": "Point",
        "coordinates": [
          135.623472,
          35.473366
        ]
      },
      "properties": {
        "NO": 34444,
        "共通ID": "E1848300017121",
        "都道府県名及び市町村名": "福井県おおい町",
        "施設・場所名": "いきいき長寿村（あみーシャン大飯）",
        "住所": "福井県おおい町本郷82-14",
        "指定緊急避難場所との住所同一": "1",
        "その他市町村長が必要と認める事項": null,
        "受入対象者": "要配慮者",
        "備考": ""
      }
    },
    {
      "type": "Feature",
      "geometry": {
        "type": "Point",
        "coordinates": [
          135.59988,
          35.456743
        ]
      },
      "properties": {
        "NO": 34445,
        "共通ID": "E1848300019111",
        "都道府県名及び市町村名": "福井県おおい町",
        "施設・場所名": "やまびこ会館",
        "住所": "福井県おおい町万願寺27-81",
        "指定緊急避難場所との住所同一": "1",
        "その他市町村長が必要と認める事項": null,
        "受入対象者": null,
        "備考": ""
      }
    },
    {
      "type": "Feature",
      "geometry": {
        "type": "Point",
        "coordinates": [
          135.644089,
          35.407528
        ]
      },
      "properties": {
        "NO": 34446,
        "共通ID": "E1848300022111",
        "都道府県名及び市町村名": "福井県おおい町",
        "施設・場所名": "ふれあいぬくもりセンター",
        "住所": "福井県おおい町名田庄下78-2",
        "指定緊急避難場所との住所同一": "",
        "その他市町村長が必要と認める事項": null,
        "受入対象者": null,
        "備考": ""
      }
    },
    {
      "type": "Feature",
      "geometry": {
        "type": "Point",
        "coordinates": [
          135.68178,
          35.399643
        ]
      },
      "properties": {
        "NO": 34447,
        "共通ID": "E1848300023111",
        "都道府県名及び市町村名": "福井県おおい町",
        "施設・場所名": "里山文化交流センター（ぶらっと）",
        "住所": "福井県おおい町名田庄久坂3-21-1",
        "指定緊急避難場所との住所同一": "1",
        "その他市町村長が必要と認める事項": null,
        "受入対象者": null,
        "備考": ""
      }
    },
    {
      "type": "Feature",
      "geometry": {
        "type": "Point",
        "coordinates": [
          135.683946,
          35.405795
        ]
      },
      "properties": {
        "NO": 34448,
        "共通ID": "E1848300024111",
        "都道府県名及び市町村名": "福井県おおい町",
        "施設・場所名": "さきやま会館",
        "住所": "福井県おおい町名田庄三重47-48",
        "指定緊急避難場所との住所同一": "1",
        "その他市町村長が必要と認める事項": null,
        "受入対象者": null,
        "備考": ""
      }
    },
    {
      "type": "Feature",
      "geometry": {
        "type": "Point",
        "coordinates": [
          135.665971,
          35.403008
        ]
      },
      "properties": {
        "NO": 34449,
        "共通ID": "E1848300025111",
        "都道府県名及び市町村名": "福井県おおい町",
        "施設・場所名": "名田庄中学校",
        "住所": "福井県おおい町名田庄小倉2-9",
        "指定緊急避難場所との住所同一": "1",
        "その他市町村長が必要と認める事項": null,
        "受入対象者": null,
        "備考": ""
      }
    },
    {
      "type": "Feature",
      "geometry": {
        "type": "Point",
        "coordinates": [
          135.667001,
          35.40318
        ]
      },
      "properties": {
        "NO": 34450,
        "共通ID": "E1848300026111",
        "都道府県名及び市町村名": "福井県おおい町",
        "施設・場所名": "名田庄体育館",
        "住所": "福井県おおい町名田庄小倉5-24",
        "指定緊急避難場所との住所同一": "1",
        "その他市町村長が必要と認める事項": null,
        "受入対象者": null,
        "備考": ""
      }
    },
    {
      "type": "Feature",
      "geometry": {
        "type": "Point",
        "coordinates": [
          135.667307,
          35.402737
        ]
      },
      "properties": {
        "NO": 34451,
        "共通ID": "E1848300027111",
        "都道府県名及び市町村名": "福井県おおい町",
        "施設・場所名": "名田庄小学校",
        "住所": "福井県おおい町名田庄小倉6-1",
        "指定緊急避難場所との住所同一": "1",
        "その他市町村長が必要と認める事項": null,
        "受入対象者": null,
        "備考": ""
      }
    },
    {
      "type": "Feature",
      "geometry": {
        "type": "Point",
        "coordinates": [
          135.700469,
          35.39966
        ]
      },
      "properties": {
        "NO": 34452,
        "共通ID": "E1848300028111",
        "都道府県名及び市町村名": "福井県おおい町",
        "施設・場所名": "久田の里交流センター",
        "住所": "福井県おおい町名田庄虫鹿野3-5-1",
        "指定緊急避難場所との住所同一": "1",
        "その他市町村長が必要と認める事項": null,
        "受入対象者": null,
        "備考": ""
      }
    },
    {
      "type": "Feature",
      "geometry": {
        "type": "Point",
        "coordinates": [
          135.587428,
          35.394676
        ]
      },
      "properties": {
        "NO": 34453,
        "共通ID": "E1848300029111",
        "都道府県名及び市町村名": "福井県おおい町",
        "施設・場所名": "流星館コンベンションホール",
        "住所": "福井県おおい町名田庄納田終120-8",
        "指定緊急避難場所との住所同一": "1",
        "その他市町村長が必要と認める事項": null,
        "受入対象者": null,
        "備考": ""
      }
    },
    {
      "type": "Feature",
      "geometry": {
        "type": "Point",
        "coordinates": [
          135.608323,
          35.461981
        ]
      },
      "properties": {
        "NO": 34454,
        "共通ID": "E1848300030111",
        "都道府県名及び市町村名": "福井県おおい町",
        "施設・場所名": "大飯中学校",
        "住所": "福井県おおい町野尻57-1",
        "指定緊急避難場所との住所同一": "1",
        "その他市町村長が必要と認める事項": null,
        "受入対象者": null,
        "備考": ""
      }
    }
  ]
}