{
  "type": "FeatureCollection",
  "name": "192074",
  "features": [
    {
      "type": "Feature",
      "geometry": {
        "type": "Point",
        "coordinates": [
          138.440163,
          35.667174
        ]
      },
      "properties": {
        "NO": 34668,
        "共通ID": "E1920700001111",
        "都道府県名及び市町村名": "山梨県韮崎市",
        "施設・場所名": "みだい体育センター",
        "住所": "山梨県韮崎市旭町上條南割3314-15",
        "指定緊急避難場所との住所同一": "1",
        "その他市町村長が必要と認める事項": null,
        "受入対象者": null,
        "備考": ""
      }
    },
    {
      "type": "Feature",
      "geometry": {
        "type": "Point",
        "coordinates": [
          138.437671,
          35.688375
        ]
      },
      "properties": {
        "NO": 34669,
        "共通ID": "E1920700002111",
        "都道府県名及び市町村名": "山梨県韮崎市",
        "施設・場所名": "旭屋内運動場",
        "住所": "山梨県韮崎市旭町上條北割3879-1",
        "指定緊急避難場所との住所同一": "1",
        "その他市町村長が必要と認める事項": null,
        "受入対象者": null,
        "備考": ""
      }
    },
    {
      "type": "Feature",
      "geometry": {
        "type": "Point",
        "coordinates": [
          138.437636,
          35.688826
        ]
      },
      "properties": {
        "NO": 34670,
        "共通ID": "E1920700002112",
        "都道府県名及び市町村名": "山梨県韮崎市",
        "施設・場所名": "旭公民館",
        "住所": "山梨県韮崎市旭町上條北割3879-1",
        "指定緊急避難場所との住所同一": "1",
        "その他市町村長が必要と認める事項": null,
        "受入対象者": null,
        "備考": ""
      }
    },
    {
      "type": "Feature",
      "geometry": {
        "type": "Point",
        "coordinates": [
          138.398421,
          35.75985
        ]
      },
      "properties": {
        "NO": 34671,
        "共通ID": "E1920700003111",
        "都道府県名及び市町村名": "山梨県韮崎市",
        "施設・場所名": "円野公民館",
        "住所": "山梨県韮崎市円野町下円井1199-3",
        "指定緊急避難場所との住所同一": "1",
        "その他市町村長が必要と認める事項": null,
        "受入対象者": null,
        "備考": ""
      }
    },
    {
      "type": "Feature",
      "geometry": {
        "type": "Point",
        "coordinates": [
          138.39766,
          35.760117
        ]
      },
      "properties": {
        "NO": 34672,
        "共通ID": "E1920700004111",
        "都道府県名及び市町村名": "山梨県韮崎市",
        "施設・場所名": "円野屋内運動場",
        "住所": "山梨県韮崎市円野町下円井1239",
        "指定緊急避難場所との住所同一": "1",
        "その他市町村長が必要と認める事項": null,
        "受入対象者": null,
        "備考": ""
      }
    },
    {
      "type": "Feature",
      "geometry": {
        "type": "Point",
        "coordinates": [
          138.424677,
          35.730243
        ]
      },
      "properties": {
        "NO": 34673,
        "共通ID": "E1920700005111",
        "都道府県名及び市町村名": "山梨県韮崎市",
        "施設・場所名": "祖母石公民館",
        "住所": "山梨県韮崎市下祖母石370",
        "指定緊急避難場所との住所同一": "1",
        "その他市町村長が必要と認める事項": null,
        "受入対象者": null,
        "備考": ""
      }
    },
    {
      "type": "Feature",
      "geometry": {
        "type": "Point",
        "coordinates": [
          138.418063,
          35.755448
        ]
      },
      "properties": {
        "NO": 34674,
        "共通ID": "E1920700007111",
        "都道府県名及び市町村名": "山梨県韮崎市",
        "施設・場所名": "穴山公民館",
        "住所": "山梨県韮崎市穴山町4487-1",
        "指定緊急避難場所との住所同一": "1",
        "その他市町村長が必要と認める事項": null,
        "受入対象者": null,
        "備考": ""
      }
    },
    {
      "type": "Feature",
      "geometry": {
        "type": "Point",
        "coordinates": [
          138.450395,
          35.714969
        ]
      },
      "properties": {
        "NO": 34675,
        "共通ID": "E1920700008111",
        "都道府県名及び市町村名": "山梨県韮崎市",
        "施設・場所名": "韮崎高等学校",
        "住所": "山梨県韮崎市若宮3-2-1",
        "指定緊急避難場所との住所同一": "1",
        "その他市町村長が必要と認める事項": null,
        "受入対象者": null,
        "備考": ""
      }
    },
    {
      "type": "Feature",
      "geometry": {
        "type": "Point",
        "coordinates": [
          138.439059,
          35.70939
        ]
      },
      "properties": {
        "NO": 34676,
        "共通ID": "E1920700009111",
        "都道府県名及び市町村名": "山梨県韮崎市",
        "施設・場所名": "韮崎西中学校",
        "住所": "山梨県韮崎市神山町鍋山1-1",
        "指定緊急避難場所との住所同一": "1",
        "その他市町村長が必要と認める事項": null,
        "受入対象者": null,
        "備考": ""
      }
    },
    {
      "type": "Feature",
      "geometry": {
        "type": "Point",
        "coordinates": [
          138.424754,
          35.705327
        ]
      },
      "properties": {
        "NO": 34677,
        "共通ID": "E1920700010111",
        "都道府県名及び市町村名": "山梨県韮崎市",
        "施設・場所名": "神山屋内運動場",
        "住所": "山梨県韮崎市神山町北宮地1019",
        "指定緊急避難場所との住所同一": "1",
        "その他市町村長が必要と認める事項": null,
        "受入対象者": null,
        "備考": ""
      }
    },
    {
      "type": "Feature",
      "geometry": {
        "type": "Point",
        "coordinates": [
          138.426094,
          35.705764
        ]
      },
      "properties": {
        "NO": 34678,
        "共通ID": "E1920700011111",
        "都道府県名及び市町村名": "山梨県韮崎市",
        "施設・場所名": "神山公民館",
        "住所": "山梨県韮崎市神山町北宮地945-3",
        "指定緊急避難場所との住所同一": "1",
        "その他市町村長が必要と認める事項": null,
        "受入対象者": null,
        "備考": ""
      }
    },
    {
      "type": "Feature",
      "geometry": {
        "type": "Point",
        "coordinates": [
          138.417417,
          35.728764
        ]
      },
      "properties": {
        "NO": 34679,
        "共通ID": "E1920700012111",
        "都道府県名及び市町村名": "山梨県韮崎市",
        "施設・場所名": "北西児童センター",
        "住所": "山梨県韮崎市清哲町青木1078-1",
        "指定緊急避難場所との住所同一": "1",
        "その他市町村長が必要と認める事項": null,
        "受入対象者": null,
        "備考": ""
      }
    },
    {
      "type": "Feature",
      "geometry": {
        "type": "Point",
        "coordinates": [
          138.417715,
          35.728338
        ]
      },
      "properties": {
        "NO": 34680,
        "共通ID": "E1920700013111",
        "都道府県名及び市町村名": "山梨県韮崎市",
        "施設・場所名": "韮崎北西小学校",
        "住所": "山梨県韮崎市清哲町青木193-1",
        "指定緊急避難場所との住所同一": "1",
        "その他市町村長が必要と認める事項": null,
        "受入対象者": null,
        "備考": ""
      }
    },
    {
      "type": "Feature",
      "geometry": {
        "type": "Point",
        "coordinates": [
          138.416133,
          35.722907
        ]
      },
      "properties": {
        "NO": 34681,
        "共通ID": "E1920700014111",
        "都道府県名及び市町村名": "山梨県韮崎市",
        "施設・場所名": "清哲公民館",
        "住所": "山梨県韮崎市清哲町青木2309-1",
        "指定緊急避難場所との住所同一": "1",
        "その他市町村長が必要と認める事項": null,
        "受入対象者": null,
        "備考": ""
      }
    },
    {
      "type": "Feature",
      "geometry": {
        "type": "Point",
        "coordinates": [
          138.450635,
          35.694594
        ]
      },
      "properties": {
        "NO": 34682,
        "共通ID": "E1920700015121",
        "都道府県名及び市町村名": "山梨県韮崎市",
        "施設・場所名": "大草デイサービスセンター（こぶし荘）",
        "住所": "山梨県韮崎市大草町若尾1680",
        "指定緊急避難場所との住所同一": "",
        "その他市町村長が必要と認める事項": null,
        "受入対象者": "要配慮者",
        "備考": ""
      }
    },
    {
      "type": "Feature",
      "geometry": {
        "type": "Point",
        "coordinates": [
          138.450243,
          35.694554
        ]
      },
      "properties": {
        "NO": 34683,
        "共通ID": "E1920700015122",
        "都道府県名及び市町村名": "山梨県韮崎市",
        "施設・場所名": "老人福祉センター",
        "住所": "山梨県韮崎市大草町若尾1680",
        "指定緊急避難場所との住所同一": "",
        "その他市町村長が必要と認める事項": null,
        "受入対象者": "要配慮者",
        "備考": ""
      }
    },
    {
      "type": "Feature",
      "geometry": {
        "type": "Point",
        "coordinates": [
          138.451259,
          35.685503
        ]
      },
      "properties": {
        "NO": 34684,
        "共通ID": "E1920700016111",
        "都道府県名及び市町村名": "山梨県韮崎市",
        "施設・場所名": "甘利児童センター",
        "住所": "山梨県韮崎市大草町上條東割788",
        "指定緊急避難場所との住所同一": "1",
        "その他市町村長が必要と認める事項": null,
        "受入対象者": null,
        "備考": ""
      }
    },
    {
      "type": "Feature",
      "geometry": {
        "type": "Point",
        "coordinates": [
          138.451235,
          35.685705
        ]
      },
      "properties": {
        "NO": 34685,
        "共通ID": "E1920700016112",
        "都道府県名及び市町村名": "山梨県韮崎市",
        "施設・場所名": "大草公民館",
        "住所": "山梨県韮崎市大草町上條東割788",
        "指定緊急避難場所との住所同一": "1",
        "その他市町村長が必要と認める事項": null,
        "受入対象者": null,
        "備考": ""
      }
    },
    {
      "type": "Feature",
      "geometry": {
        "type": "Point",
        "coordinates": [
          138.451581,
          35.68737
        ]
      },
      "properties": {
        "NO": 34686,
        "共通ID": "E1920700017111",
        "都道府県名及び市町村名": "山梨県韮崎市",
        "施設・場所名": "甘利小学校",
        "住所": "山梨県韮崎市大草町上條東割821-1",
        "指定緊急避難場所との住所同一": "1",
        "その他市町村長が必要と認める事項": null,
        "受入対象者": null,
        "備考": ""
      }
    },
    {
      "type": "Feature",
      "geometry": {
        "type": "Point",
        "coordinates": [
          138.437932,
          35.748012
        ]
      },
      "properties": {
        "NO": 34687,
        "共通ID": "E1920700018111",
        "都道府県名及び市町村名": "山梨県韮崎市",
        "施設・場所名": "健康ふれあいセンター",
        "住所": "山梨県韮崎市中田町中條1800-1",
        "指定緊急避難場所との住所同一": "1",
        "その他市町村長が必要と認める事項": null,
        "受入対象者": null,
        "備考": ""
      }
    },
    {
      "type": "Feature",
      "geometry": {
        "type": "Point",
        "coordinates": [
          138.436743,
          35.74372
        ]
      },
      "properties": {
        "NO": 34688,
        "共通ID": "E1920700019111",
        "都道府県名及び市町村名": "山梨県韮崎市",
        "施設・場所名": "中田屋内運動場",
        "住所": "山梨県韮崎市中田町中條490-1",
        "指定緊急避難場所との住所同一": "1",
        "その他市町村長が必要と認める事項": null,
        "受入対象者": null,
        "備考": ""
      }
    },
    {
      "type": "Feature",
      "geometry": {
        "type": "Point",
        "coordinates": [
          138.436796,
          35.743714
        ]
      },
      "properties": {
        "NO": 34689,
        "共通ID": "E1920700019112",
        "都道府県名及び市町村名": "山梨県韮崎市",
        "施設・場所名": "中田公民館",
        "住所": "山梨県韮崎市中田町中條490-1",
        "指定緊急避難場所との住所同一": "1",
        "その他市町村長が必要と認める事項": null,
        "受入対象者": null,
        "備考": ""
      }
    },
    {
      "type": "Feature",
      "geometry": {
        "type": "Point",
        "coordinates": [
          138.442102,
          35.732449
        ]
      },
      "properties": {
        "NO": 34690,
        "共通ID": "E1920700020111",
        "都道府県名及び市町村名": "山梨県韮崎市",
        "施設・場所名": "韮崎北東小学校",
        "住所": "山梨県韮崎市藤井町駒井1912",
        "指定緊急避難場所との住所同一": "1",
        "その他市町村長が必要と認める事項": null,
        "受入対象者": null,
        "備考": ""
      }
    },
    {
      "type": "Feature",
      "geometry": {
        "type": "Point",
        "coordinates": [
          138.444068,
          35.733981
        ]
      },
      "properties": {
        "NO": 34691,
        "共通ID": "E1920700021111",
        "都道府県名及び市町村名": "山梨県韮崎市",
        "施設・場所名": "北東児童センター",
        "住所": "山梨県韮崎市藤井町駒井2248-1",
        "指定緊急避難場所との住所同一": "1",
        "その他市町村長が必要と認める事項": null,
        "受入対象者": null,
        "備考": ""
      }
    },
    {
      "type": "Feature",
      "geometry": {
        "type": "Point",
        "coordinates": [
          138.443811,
          35.728896
        ]
      },
      "properties": {
        "NO": 34692,
        "共通ID": "E1920700022111",
        "都道府県名及び市町村名": "山梨県韮崎市",
        "施設・場所名": "藤井公民館",
        "住所": "山梨県韮崎市藤井町坂井119-1",
        "指定緊急避難場所との住所同一": "1",
        "その他市町村長が必要と認める事項": null,
        "受入対象者": null,
        "備考": ""
      }
    },
    {
      "type": "Feature",
      "geometry": {
        "type": "Point",
        "coordinates": [
          138.44387,
          35.72838
        ]
      },
      "properties": {
        "NO": 34693,
        "共通ID": "E1920700023111",
        "都道府県名及び市町村名": "山梨県韮崎市",
        "施設・場所名": "東京エレクトロン韮崎文化ホール",
        "住所": "山梨県韮崎市藤井町坂井205",
        "指定緊急避難場所との住所同一": "1",
        "その他市町村長が必要と認める事項": null,
        "受入対象者": null,
        "備考": ""
      }
    },
    {
      "type": "Feature",
      "geometry": {
        "type": "Point",
        "coordinates": [
          138.451041,
          35.718198
        ]
      },
      "properties": {
        "NO": 34694,
        "共通ID": "E1920700024111",
        "都道府県名及び市町村名": "山梨県韮崎市",
        "施設・場所名": "韮崎東中学校",
        "住所": "山梨県韮崎市藤井町南下條371",
        "指定緊急避難場所との住所同一": "1",
        "その他市町村長が必要と認める事項": null,
        "受入対象者": null,
        "備考": ""
      }
    },
    {
      "type": "Feature",
      "geometry": {
        "type": "Point",
        "coordinates": [
          138.440155,
          35.721117
        ]
      },
      "properties": {
        "NO": 34695,
        "共通ID": "E1920700033111",
        "都道府県名及び市町村名": "山梨県韮崎市",
        "施設・場所名": "韮崎中央体育館",
        "住所": "山梨県韮崎市藤井町南下條897",
        "指定緊急避難場所との住所同一": "1",
        "その他市町村長が必要と認める事項": "",
        "受入対象者": "",
        "備考": ""
      }
    },
    {
      "type": "Feature",
      "geometry": {
        "type": "Point",
        "coordinates": [
          138.440196,
          35.721082
        ]
      },
      "properties": {
        "NO": 34696,
        "共通ID": "E1920700033122",
        "都道府県名及び市町村名": "山梨県韮崎市",
        "施設・場所名": "韮崎中央体育館",
        "住所": "山梨県韮崎市藤井町南下條897",
        "指定緊急避難場所との住所同一": "1",
        "その他市町村長が必要と認める事項": "",
        "受入対象者": "要配慮者",
        "備考": ""
      }
    },
    {
      "type": "Feature",
      "geometry": {
        "type": "Point",
        "coordinates": [
          138.470293,
          35.728653
        ]
      },
      "properties": {
        "NO": 34697,
        "共通ID": "E1920700025111",
        "都道府県名及び市町村名": "山梨県韮崎市",
        "施設・場所名": "勤労青年センター",
        "住所": "山梨県韮崎市穂坂町宮久保5136-2",
        "指定緊急避難場所との住所同一": "1",
        "その他市町村長が必要と認める事項": null,
        "受入対象者": null,
        "備考": ""
      }
    },
    {
      "type": "Feature",
      "geometry": {
        "type": "Point",
        "coordinates": [
          138.483546,
          35.736376
        ]
      },
      "properties": {
        "NO": 34698,
        "共通ID": "E1920700026111",
        "都道府県名及び市町村名": "山梨県韮崎市",
        "施設・場所名": "穂坂小学校",
        "住所": "山梨県韮崎市穂坂町宮久保6121",
        "指定緊急避難場所との住所同一": "1",
        "その他市町村長が必要と認める事項": null,
        "受入対象者": null,
        "備考": ""
      }
    },
    {
      "type": "Feature",
      "geometry": {
        "type": "Point",
        "coordinates": [
          138.481453,
          35.734377
        ]
      },
      "properties": {
        "NO": 34699,
        "共通ID": "E1920700027111",
        "都道府県名及び市町村名": "山梨県韮崎市",
        "施設・場所名": "穂坂公民館（コミュニティセンター）",
        "住所": "山梨県韮崎市穂坂町宮久保6196-1",
        "指定緊急避難場所との住所同一": "1",
        "その他市町村長が必要と認める事項": null,
        "受入対象者": null,
        "備考": ""
      }
    },
    {
      "type": "Feature",
      "geometry": {
        "type": "Point",
        "coordinates": [
          138.452729,
          35.70773
        ]
      },
      "properties": {
        "NO": 34700,
        "共通ID": "E1920700028111",
        "都道府県名及び市町村名": "山梨県韮崎市",
        "施設・場所名": "韮崎児童センター",
        "住所": "山梨県韮崎市本町2-1-7",
        "指定緊急避難場所との住所同一": "1",
        "その他市町村長が必要と認める事項": null,
        "受入対象者": null,
        "備考": ""
      }
    },
    {
      "type": "Feature",
      "geometry": {
        "type": "Point",
        "coordinates": [
          138.453329,
          35.706715
        ]
      },
      "properties": {
        "NO": 34701,
        "共通ID": "E1920700029111",
        "都道府県名及び市町村名": "山梨県韮崎市",
        "施設・場所名": "韮崎小学校",
        "住所": "山梨県韮崎市本町2-2-41",
        "指定緊急避難場所との住所同一": "1",
        "その他市町村長が必要と認める事項": null,
        "受入対象者": null,
        "備考": ""
      }
    },
    {
      "type": "Feature",
      "geometry": {
        "type": "Point",
        "coordinates": [
          138.465501,
          35.678863
        ]
      },
      "properties": {
        "NO": 34702,
        "共通ID": "E1920700030111",
        "都道府県名及び市町村名": "山梨県韮崎市",
        "施設・場所名": "竜岡体育館",
        "住所": "山梨県韮崎市龍岡町下條南割1007",
        "指定緊急避難場所との住所同一": "1",
        "その他市町村長が必要と認める事項": null,
        "受入対象者": null,
        "備考": ""
      }
    },
    {
      "type": "Feature",
      "geometry": {
        "type": "Point",
        "coordinates": [
          138.466065,
          35.678791
        ]
      },
      "properties": {
        "NO": 34703,
        "共通ID": "E1920700030112",
        "都道府県名及び市町村名": "山梨県韮崎市",
        "施設・場所名": "竜岡公民館",
        "住所": "山梨県韮崎市龍岡町下條南割1007",
        "指定緊急避難場所との住所同一": "1",
        "その他市町村長が必要と認める事項": null,
        "受入対象者": null,
        "備考": ""
      }
    },
    {
      "type": "Feature",
      "geometry": {
        "type": "Point",
        "coordinates": [
          138.478622,
          35.675053
        ]
      },
      "properties": {
        "NO": 34704,
        "共通ID": "E1920700031111",
        "都道府県名及び市町村名": "山梨県韮崎市",
        "施設・場所名": "エコパークたつおかコミュニティセンター",
        "住所": "山梨県韮崎市龍岡町下條南割1895",
        "指定緊急避難場所との住所同一": "1",
        "その他市町村長が必要と認める事項": null,
        "受入対象者": null,
        "備考": ""
      }
    },
    {
      "type": "Feature",
      "geometry": {
        "type": "Point",
        "coordinates": [
          138.450096,
          35.700349
        ]
      },
      "properties": {
        "NO": 34705,
        "共通ID": "E1920700032111",
        "都道府県名及び市町村名": "山梨県韮崎市",
        "施設・場所名": "韮崎工業高等学校",
        "住所": "山梨県韮崎市龍岡町若尾新田50-1",
        "指定緊急避難場所との住所同一": "1",
        "その他市町村長が必要と認める事項": null,
        "受入対象者": null,
        "備考": ""
      }
    }
  ]
}