{
  "type": "FeatureCollection",
  "name": "192091",
  "features": [
    {
      "type": "Feature",
      "geometry": {
        "type": "Point",
        "coordinates": [
          138.444974,
          35.905651
        ]
      },
      "properties": {
        "NO": 34766,
        "共通ID": "E1920900001111",
        "都道府県名及び市町村名": "山梨県北杜市",
        "施設・場所名": "（旧）高根清里小学校体育館",
        "住所": "山梨県北杜市高根町清里3545-2083",
        "指定緊急避難場所との住所同一": "1",
        "その他市町村長が必要と認める事項": null,
        "受入対象者": null,
        "備考": ""
      }
    },
    {
      "type": "Feature",
      "geometry": {
        "type": "Point",
        "coordinates": [
          138.405138,
          35.823306
        ]
      },
      "properties": {
        "NO": 34767,
        "共通ID": "E1920900002111",
        "都道府県名及び市町村名": "山梨県北杜市",
        "施設・場所名": "高根西小学校",
        "住所": "山梨県北杜市高根町村山西割1696",
        "指定緊急避難場所との住所同一": "1",
        "その他市町村長が必要と認める事項": null,
        "受入対象者": null,
        "備考": ""
      }
    },
    {
      "type": "Feature",
      "geometry": {
        "type": "Point",
        "coordinates": [
          138.411436,
          35.833882
        ]
      },
      "properties": {
        "NO": 34768,
        "共通ID": "E1920900003111",
        "都道府県名及び市町村名": "山梨県北杜市",
        "施設・場所名": "高根中学校",
        "住所": "山梨県北杜市高根町村山東割98",
        "指定緊急避難場所との住所同一": "1",
        "その他市町村長が必要と認める事項": null,
        "受入対象者": null,
        "備考": ""
      }
    },
    {
      "type": "Feature",
      "geometry": {
        "type": "Point",
        "coordinates": [
          138.425929,
          35.842393
        ]
      },
      "properties": {
        "NO": 34769,
        "共通ID": "E1920900004111",
        "都道府県名及び市町村名": "山梨県北杜市",
        "施設・場所名": "北杜市高根ゲートボール場",
        "住所": "山梨県北杜市高根町村山北割100",
        "指定緊急避難場所との住所同一": "1",
        "その他市町村長が必要と認める事項": null,
        "受入対象者": null,
        "備考": ""
      }
    },
    {
      "type": "Feature",
      "geometry": {
        "type": "Point",
        "coordinates": [
          138.421644,
          35.835837
        ]
      },
      "properties": {
        "NO": 34770,
        "共通ID": "E1920900005111",
        "都道府県名及び市町村名": "山梨県北杜市",
        "施設・場所名": "高根東小学校",
        "住所": "山梨県北杜市高根町村山北割1035",
        "指定緊急避難場所との住所同一": "1",
        "その他市町村長が必要と認める事項": null,
        "受入対象者": null,
        "備考": ""
      }
    },
    {
      "type": "Feature",
      "geometry": {
        "type": "Point",
        "coordinates": [
          138.428131,
          35.843344
        ]
      },
      "properties": {
        "NO": 34771,
        "共通ID": "E1920900006111",
        "都道府県名及び市町村名": "山梨県北杜市",
        "施設・場所名": "北杜市高根体育館",
        "住所": "山梨県北杜市高根町村山北割111",
        "指定緊急避難場所との住所同一": "1",
        "その他市町村長が必要と認める事項": null,
        "受入対象者": null,
        "備考": ""
      }
    },
    {
      "type": "Feature",
      "geometry": {
        "type": "Point",
        "coordinates": [
          138.423434,
          35.868231
        ]
      },
      "properties": {
        "NO": 34772,
        "共通ID": "E1920900007111",
        "都道府県名及び市町村名": "山梨県北杜市",
        "施設・場所名": "（旧）高根北小学校体育館",
        "住所": "山梨県北杜市高根町長澤2141",
        "指定緊急避難場所との住所同一": "1",
        "その他市町村長が必要と認める事項": null,
        "受入対象者": null,
        "備考": ""
      }
    },
    {
      "type": "Feature",
      "geometry": {
        "type": "Point",
        "coordinates": [
          138.430985,
          35.832178
        ]
      },
      "properties": {
        "NO": 34773,
        "共通ID": "E1920900008121",
        "都道府県名及び市町村名": "山梨県北杜市",
        "施設・場所名": "北杜市保健センター",
        "住所": "山梨県北杜市高根町箕輪697",
        "指定緊急避難場所との住所同一": "",
        "その他市町村長が必要と認める事項": null,
        "受入対象者": "要配慮者",
        "備考": ""
      }
    },
    {
      "type": "Feature",
      "geometry": {
        "type": "Point",
        "coordinates": [
          138.431135,
          35.832599
        ]
      },
      "properties": {
        "NO": 34774,
        "共通ID": "E1920900009121",
        "都道府県名及び市町村名": "山梨県北杜市",
        "施設・場所名": "高根町デイサービスセンター",
        "住所": "山梨県北杜市高根町箕輪新町50",
        "指定緊急避難場所との住所同一": "",
        "その他市町村長が必要と認める事項": null,
        "受入対象者": "要配慮者",
        "備考": ""
      }
    },
    {
      "type": "Feature",
      "geometry": {
        "type": "Point",
        "coordinates": [
          138.308643,
          35.863717
        ]
      },
      "properties": {
        "NO": 34775,
        "共通ID": "E1920900010111",
        "都道府県名及び市町村名": "山梨県北杜市",
        "施設・場所名": "北杜市小淵沢総合スポーツセンター体育館",
        "住所": "山梨県北杜市小淵沢町2161",
        "指定緊急避難場所との住所同一": "1",
        "その他市町村長が必要と認める事項": null,
        "受入対象者": null,
        "備考": ""
      }
    },
    {
      "type": "Feature",
      "geometry": {
        "type": "Point",
        "coordinates": [
          138.302852,
          35.862489
        ]
      },
      "properties": {
        "NO": 34776,
        "共通ID": "E1920900011121",
        "都道府県名及び市町村名": "山梨県北杜市",
        "施設・場所名": "小淵沢町デイサービスセンター",
        "住所": "山梨県北杜市小淵沢町6266",
        "指定緊急避難場所との住所同一": "",
        "その他市町村長が必要と認める事項": null,
        "受入対象者": "要配慮者",
        "備考": ""
      }
    },
    {
      "type": "Feature",
      "geometry": {
        "type": "Point",
        "coordinates": [
          138.321544,
          35.866855
        ]
      },
      "properties": {
        "NO": 34777,
        "共通ID": "E1920900012111",
        "都道府県名及び市町村名": "山梨県北杜市",
        "施設・場所名": "小淵沢中学校",
        "住所": "山梨県北杜市小淵沢町732",
        "指定緊急避難場所との住所同一": "1",
        "その他市町村長が必要と認める事項": null,
        "受入対象者": null,
        "備考": ""
      }
    },
    {
      "type": "Feature",
      "geometry": {
        "type": "Point",
        "coordinates": [
          138.317119,
          35.856897
        ]
      },
      "properties": {
        "NO": 34778,
        "共通ID": "E1920900013111",
        "都道府県名及び市町村名": "山梨県北杜市",
        "施設・場所名": "小淵沢小学校",
        "住所": "山梨県北杜市小淵沢町7741",
        "指定緊急避難場所との住所同一": "1",
        "その他市町村長が必要と認める事項": null,
        "受入対象者": null,
        "備考": ""
      }
    },
    {
      "type": "Feature",
      "geometry": {
        "type": "Point",
        "coordinates": [
          138.329335,
          35.847957
        ]
      },
      "properties": {
        "NO": 34779,
        "共通ID": "E1920900014111",
        "都道府県名及び市町村名": "山梨県北杜市",
        "施設・場所名": "北杜市小淵沢東スポーツセンター体育館",
        "住所": "山梨県北杜市小淵沢町上笹尾1240",
        "指定緊急避難場所との住所同一": "1",
        "その他市町村長が必要と認める事項": null,
        "受入対象者": null,
        "備考": ""
      }
    },
    {
      "type": "Feature",
      "geometry": {
        "type": "Point",
        "coordinates": [
          138.425353,
          35.794376
        ]
      },
      "properties": {
        "NO": 34780,
        "共通ID": "E1920900015111",
        "都道府県名及び市町村名": "山梨県北杜市",
        "施設・場所名": "須玉小学校",
        "住所": "山梨県北杜市須玉町若神子200-2",
        "指定緊急避難場所との住所同一": "1",
        "その他市町村長が必要と認める事項": null,
        "受入対象者": null,
        "備考": ""
      }
    },
    {
      "type": "Feature",
      "geometry": {
        "type": "Point",
        "coordinates": [
          138.432376,
          35.797806
        ]
      },
      "properties": {
        "NO": 34781,
        "共通ID": "E1920900016111",
        "都道府県名及び市町村名": "山梨県北杜市",
        "施設・場所名": "須玉中学校",
        "住所": "山梨県北杜市須玉町小倉200",
        "指定緊急避難場所との住所同一": "1",
        "その他市町村長が必要と認める事項": null,
        "受入対象者": null,
        "備考": ""
      }
    },
    {
      "type": "Feature",
      "geometry": {
        "type": "Point",
        "coordinates": [
          138.424589,
          35.780714
        ]
      },
      "properties": {
        "NO": 34782,
        "共通ID": "E1920900017111",
        "都道府県名及び市町村名": "山梨県北杜市",
        "施設・場所名": "北杜市須玉総合体育館",
        "住所": "山梨県北杜市須玉町大蔵734",
        "指定緊急避難場所との住所同一": "1",
        "その他市町村長が必要と認める事項": null,
        "受入対象者": null,
        "備考": ""
      }
    },
    {
      "type": "Feature",
      "geometry": {
        "type": "Point",
        "coordinates": [
          138.428248,
          35.779318
        ]
      },
      "properties": {
        "NO": 34783,
        "共通ID": "E1920900018121",
        "都道府県名及び市町村名": "山梨県北杜市",
        "施設・場所名": "須玉町デイサービスセンター",
        "住所": "山梨県北杜市須玉町藤田799-1",
        "指定緊急避難場所との住所同一": "",
        "その他市町村長が必要と認める事項": null,
        "受入対象者": "要配慮者",
        "備考": ""
      }
    },
    {
      "type": "Feature",
      "geometry": {
        "type": "Point",
        "coordinates": [
          138.502017,
          35.855281
        ]
      },
      "properties": {
        "NO": 34784,
        "共通ID": "E1920900019111",
        "都道府県名及び市町村名": "山梨県北杜市",
        "施設・場所名": "（旧）増富小学校体育館",
        "住所": "山梨県北杜市須玉町比志3611-6",
        "指定緊急避難場所との住所同一": "1",
        "その他市町村長が必要と認める事項": null,
        "受入対象者": null,
        "備考": ""
      }
    },
    {
      "type": "Feature",
      "geometry": {
        "type": "Point",
        "coordinates": [
          138.379405,
          35.860427
        ]
      },
      "properties": {
        "NO": 34785,
        "共通ID": "E1920900020121",
        "都道府県名及び市町村名": "山梨県北杜市",
        "施設・場所名": "大泉町デイサービスセンター",
        "住所": "山梨県北杜市大泉町谷戸1880",
        "指定緊急避難場所との住所同一": "",
        "その他市町村長が必要と認める事項": null,
        "受入対象者": "要配慮者",
        "備考": ""
      }
    },
    {
      "type": "Feature",
      "geometry": {
        "type": "Point",
        "coordinates": [
          138.378801,
          35.858184
        ]
      },
      "properties": {
        "NO": 34786,
        "共通ID": "E1920900021111",
        "都道府県名及び市町村名": "山梨県北杜市",
        "施設・場所名": "大泉体育館",
        "住所": "山梨県北杜市大泉町谷戸1915",
        "指定緊急避難場所との住所同一": "1",
        "その他市町村長が必要と認める事項": null,
        "受入対象者": null,
        "備考": ""
      }
    },
    {
      "type": "Feature",
      "geometry": {
        "type": "Point",
        "coordinates": [
          138.38102,
          35.860075
        ]
      },
      "properties": {
        "NO": 34787,
        "共通ID": "E1920900022111",
        "都道府県名及び市町村名": "山梨県北杜市",
        "施設・場所名": "泉中学校",
        "住所": "山梨県北杜市大泉町谷戸2087",
        "指定緊急避難場所との住所同一": "1",
        "その他市町村長が必要と認める事項": null,
        "受入対象者": null,
        "備考": ""
      }
    },
    {
      "type": "Feature",
      "geometry": {
        "type": "Point",
        "coordinates": [
          138.388473,
          35.860212
        ]
      },
      "properties": {
        "NO": 34788,
        "共通ID": "E1920900023111",
        "都道府県名及び市町村名": "山梨県北杜市",
        "施設・場所名": "泉小学校",
        "住所": "山梨県北杜市大泉町谷戸2870",
        "指定緊急避難場所との住所同一": "1",
        "その他市町村長が必要と認める事項": null,
        "受入対象者": null,
        "備考": ""
      }
    },
    {
      "type": "Feature",
      "geometry": {
        "type": "Point",
        "coordinates": [
          138.368613,
          35.842948
        ]
      },
      "properties": {
        "NO": 34789,
        "共通ID": "E1920900025112",
        "都道府県名及び市町村名": "山梨県北杜市",
        "施設・場所名": "北杜市長坂総合スポーツ公園屋内ゲートボール場",
        "住所": "山梨県北杜市長坂町大八田6811-187",
        "指定緊急避難場所との住所同一": "1",
        "その他市町村長が必要と認める事項": null,
        "受入対象者": null,
        "備考": ""
      }
    },
    {
      "type": "Feature",
      "geometry": {
        "type": "Point",
        "coordinates": [
          138.370124,
          35.841285
        ]
      },
      "properties": {
        "NO": 34790,
        "共通ID": "E1920900025113",
        "都道府県名及び市町村名": "山梨県北杜市",
        "施設・場所名": "北杜市長坂総合スポーツ公園体育館",
        "住所": "山梨県北杜市長坂町大八田6811-187",
        "指定緊急避難場所との住所同一": "1",
        "その他市町村長が必要と認める事項": null,
        "受入対象者": null,
        "備考": ""
      }
    },
    {
      "type": "Feature",
      "geometry": {
        "type": "Point",
        "coordinates": [
          138.370091,
          35.841699
        ]
      },
      "properties": {
        "NO": 34791,
        "共通ID": "E1920900025111",
        "都道府県名及び市町村名": "山梨県北杜市",
        "施設・場所名": "北杜市長坂総合スポーツ公園柔剣道場",
        "住所": "山梨県北杜市長坂町大八田6811-187",
        "指定緊急避難場所との住所同一": "1",
        "その他市町村長が必要と認める事項": null,
        "受入対象者": null,
        "備考": ""
      }
    },
    {
      "type": "Feature",
      "geometry": {
        "type": "Point",
        "coordinates": [
          138.354871,
          35.821653
        ]
      },
      "properties": {
        "NO": 34792,
        "共通ID": "E1920900026111",
        "都道府県名及び市町村名": "山梨県北杜市",
        "施設・場所名": "北杜市郷土資料館（多目的ホール）",
        "住所": "山梨県北杜市長坂町中丸1996-2",
        "指定緊急避難場所との住所同一": "1",
        "その他市町村長が必要と認める事項": null,
        "受入対象者": null,
        "備考": ""
      }
    },
    {
      "type": "Feature",
      "geometry": {
        "type": "Point",
        "coordinates": [
          138.379638,
          35.806762
        ]
      },
      "properties": {
        "NO": 34793,
        "共通ID": "E1920900027111",
        "都道府県名及び市町村名": "山梨県北杜市",
        "施設・場所名": "（旧）日野春小学校体育館",
        "住所": "山梨県北杜市長坂町長坂下条1237-3",
        "指定緊急避難場所との住所同一": "1",
        "その他市町村長が必要と認める事項": null,
        "受入対象者": null,
        "備考": ""
      }
    },
    {
      "type": "Feature",
      "geometry": {
        "type": "Point",
        "coordinates": [
          138.373577,
          35.824861
        ]
      },
      "properties": {
        "NO": 34794,
        "共通ID": "E1920900028111",
        "都道府県名及び市町村名": "山梨県北杜市",
        "施設・場所名": "長坂小学校",
        "住所": "山梨県北杜市長坂町長坂上条1603-1",
        "指定緊急避難場所との住所同一": "1",
        "その他市町村長が必要と認める事項": null,
        "受入対象者": null,
        "備考": ""
      }
    },
    {
      "type": "Feature",
      "geometry": {
        "type": "Point",
        "coordinates": [
          138.375188,
          35.824405
        ]
      },
      "properties": {
        "NO": 34795,
        "共通ID": "E1920900029111",
        "都道府県名及び市町村名": "山梨県北杜市",
        "施設・場所名": "長坂中学校",
        "住所": "山梨県北杜市長坂町長坂上条1608",
        "指定緊急避難場所との住所同一": "1",
        "その他市町村長が必要と認める事項": null,
        "受入対象者": null,
        "備考": ""
      }
    },
    {
      "type": "Feature",
      "geometry": {
        "type": "Point",
        "coordinates": [
          138.377996,
          35.825261
        ]
      },
      "properties": {
        "NO": 34796,
        "共通ID": "E1920900030111",
        "都道府県名及び市町村名": "山梨県北杜市",
        "施設・場所名": "甲陵中学校・高等学校",
        "住所": "山梨県北杜市長坂町長坂上条2003",
        "指定緊急避難場所との住所同一": "1",
        "その他市町村長が必要と認める事項": null,
        "受入対象者": null,
        "備考": ""
      }
    },
    {
      "type": "Feature",
      "geometry": {
        "type": "Point",
        "coordinates": [
          138.374603,
          35.825114
        ]
      },
      "properties": {
        "NO": 34797,
        "共通ID": "E1920900031121",
        "都道府県名及び市町村名": "山梨県北杜市",
        "施設・場所名": "北杜市障害者総合支援センター",
        "住所": "山梨県北杜市長坂町長坂上条2233",
        "指定緊急避難場所との住所同一": "",
        "その他市町村長が必要と認める事項": null,
        "受入対象者": "要配慮者",
        "備考": ""
      }
    },
    {
      "type": "Feature",
      "geometry": {
        "type": "Point",
        "coordinates": [
          138.359443,
          35.865384
        ]
      },
      "properties": {
        "NO": 34798,
        "共通ID": "E1920900032111",
        "都道府県名及び市町村名": "山梨県北杜市",
        "施設・場所名": "（旧）小泉小学校体育館",
        "住所": "山梨県北杜市長坂町白井沢4078",
        "指定緊急避難場所との住所同一": "1",
        "その他市町村長が必要と認める事項": null,
        "受入対象者": null,
        "備考": ""
      }
    },
    {
      "type": "Feature",
      "geometry": {
        "type": "Point",
        "coordinates": [
          138.31046,
          35.826674
        ]
      },
      "properties": {
        "NO": 34799,
        "共通ID": "E1920900033111",
        "都道府県名及び市町村名": "山梨県北杜市",
        "施設・場所名": "北杜市白州体育館",
        "住所": "山梨県北杜市白州町鳥原2913-208",
        "指定緊急避難場所との住所同一": "1",
        "その他市町村長が必要と認める事項": null,
        "受入対象者": null,
        "備考": ""
      }
    },
    {
      "type": "Feature",
      "geometry": {
        "type": "Point",
        "coordinates": [
          138.323282,
          35.806604
        ]
      },
      "properties": {
        "NO": 34800,
        "共通ID": "E1920900034111",
        "都道府県名及び市町村名": "山梨県北杜市",
        "施設・場所名": "白州中学校",
        "住所": "山梨県北杜市白州町白須1920",
        "指定緊急避難場所との住所同一": "1",
        "その他市町村長が必要と認める事項": null,
        "受入対象者": null,
        "備考": ""
      }
    },
    {
      "type": "Feature",
      "geometry": {
        "type": "Point",
        "coordinates": [
          138.334882,
          35.810965
        ]
      },
      "properties": {
        "NO": 34801,
        "共通ID": "E1920900035111",
        "都道府県名及び市町村名": "山梨県北杜市",
        "施設・場所名": "白州小学校",
        "住所": "山梨県北杜市白州町白須225",
        "指定緊急避難場所との住所同一": "1",
        "その他市町村長が必要と認める事項": null,
        "受入対象者": null,
        "備考": ""
      }
    },
    {
      "type": "Feature",
      "geometry": {
        "type": "Point",
        "coordinates": [
          138.373606,
          35.7856
        ]
      },
      "properties": {
        "NO": 34802,
        "共通ID": "E1920900036111",
        "都道府県名及び市町村名": "山梨県北杜市",
        "施設・場所名": "北杜市武川体育館",
        "住所": "山梨県北杜市武川町三吹2218",
        "指定緊急避難場所との住所同一": "1",
        "その他市町村長が必要と認める事項": null,
        "受入対象者": null,
        "備考": ""
      }
    },
    {
      "type": "Feature",
      "geometry": {
        "type": "Point",
        "coordinates": [
          138.373478,
          35.784589
        ]
      },
      "properties": {
        "NO": 34803,
        "共通ID": "E1920900037111",
        "都道府県名及び市町村名": "山梨県北杜市",
        "施設・場所名": "武川中学校",
        "住所": "山梨県北杜市武川町山高1457",
        "指定緊急避難場所との住所同一": "1",
        "その他市町村長が必要と認める事項": null,
        "受入対象者": null,
        "備考": ""
      }
    },
    {
      "type": "Feature",
      "geometry": {
        "type": "Point",
        "coordinates": [
          138.375153,
          35.784025
        ]
      },
      "properties": {
        "NO": 34804,
        "共通ID": "E1920900038111",
        "都道府県名及び市町村名": "山梨県北杜市",
        "施設・場所名": "北杜市甲斐駒センターせせらぎ",
        "住所": "山梨県北杜市武川町牧原1243",
        "指定緊急避難場所との住所同一": "1",
        "その他市町村長が必要と認める事項": null,
        "受入対象者": null,
        "備考": ""
      }
    },
    {
      "type": "Feature",
      "geometry": {
        "type": "Point",
        "coordinates": [
          138.378724,
          35.78372
        ]
      },
      "properties": {
        "NO": 34805,
        "共通ID": "E1920900039121",
        "都道府県名及び市町村名": "山梨県北杜市",
        "施設・場所名": "武川町デイサービスセンター",
        "住所": "山梨県北杜市武川町牧原1322",
        "指定緊急避難場所との住所同一": "",
        "その他市町村長が必要と認める事項": null,
        "受入対象者": "要配慮者",
        "備考": ""
      }
    },
    {
      "type": "Feature",
      "geometry": {
        "type": "Point",
        "coordinates": [
          138.381843,
          35.783708
        ]
      },
      "properties": {
        "NO": 34806,
        "共通ID": "E1920900040111",
        "都道府県名及び市町村名": "山梨県北杜市",
        "施設・場所名": "武川小学校",
        "住所": "山梨県北杜市武川町牧原944",
        "指定緊急避難場所との住所同一": "1",
        "その他市町村長が必要と認める事項": null,
        "受入対象者": null,
        "備考": ""
      }
    },
    {
      "type": "Feature",
      "geometry": {
        "type": "Point",
        "coordinates": [
          138.442388,
          35.769446
        ]
      },
      "properties": {
        "NO": 34807,
        "共通ID": "E1920900041111",
        "都道府県名及び市町村名": "山梨県北杜市",
        "施設・場所名": "北杜市明野多目的屋内運動場",
        "住所": "山梨県北杜市明野町上手8304",
        "指定緊急避難場所との住所同一": "1",
        "その他市町村長が必要と認める事項": null,
        "受入対象者": null,
        "備考": ""
      }
    },
    {
      "type": "Feature",
      "geometry": {
        "type": "Point",
        "coordinates": [
          138.443458,
          35.770284
        ]
      },
      "properties": {
        "NO": 34808,
        "共通ID": "E1920900042111",
        "都道府県名及び市町村名": "山梨県北杜市",
        "施設・場所名": "明野中学校",
        "住所": "山梨県北杜市明野町上手8342",
        "指定緊急避難場所との住所同一": "1",
        "その他市町村長が必要と認める事項": null,
        "受入対象者": null,
        "備考": ""
      }
    },
    {
      "type": "Feature",
      "geometry": {
        "type": "Point",
        "coordinates": [
          138.444946,
          35.771339
        ]
      },
      "properties": {
        "NO": 34809,
        "共通ID": "E1920900043111",
        "都道府県名及び市町村名": "山梨県北杜市",
        "施設・場所名": "明野小学校",
        "住所": "山梨県北杜市明野町上手8418",
        "指定緊急避難場所との住所同一": "1",
        "その他市町村長が必要と認める事項": null,
        "受入対象者": null,
        "備考": ""
      }
    },
    {
      "type": "Feature",
      "geometry": {
        "type": "Point",
        "coordinates": [
          138.439419,
          35.785904
        ]
      },
      "properties": {
        "NO": 34810,
        "共通ID": "E1920900044121",
        "都道府県名及び市町村名": "山梨県北杜市",
        "施設・場所名": "明野ゆうゆうふれあい館",
        "住所": "山梨県北杜市明野町浅尾新田1499-1",
        "指定緊急避難場所との住所同一": "",
        "その他市町村長が必要と認める事項": null,
        "受入対象者": "要配慮者",
        "備考": ""
      }
    }
  ]
}