{
  "type": "FeatureCollection",
  "name": "192066",
  "features": [
    {
      "type": "Feature",
      "geometry": {
        "type": "Point",
        "coordinates": [
          138.982899,
          35.611817
        ]
      },
      "properties": {
        "NO": 34637,
        "共通ID": "E1920600001111",
        "都道府県名及び市町村名": "山梨県大月市",
        "施設・場所名": "猿橋小学校",
        "住所": "山梨県大月市猿橋町伊良原48",
        "指定緊急避難場所との住所同一": "1",
        "その他市町村長が必要と認める事項": "",
        "受入対象者": "",
        "備考": ""
      }
    },
    {
      "type": "Feature",
      "geometry": {
        "type": "Point",
        "coordinates": [
          138.980482,
          35.616963
        ]
      },
      "properties": {
        "NO": 34638,
        "共通ID": "E1920600002111",
        "都道府県名及び市町村名": "山梨県大月市",
        "施設・場所名": "猿橋中学校",
        "住所": "山梨県大月市猿橋町猿橋567",
        "指定緊急避難場所との住所同一": "1",
        "その他市町村長が必要と認める事項": "",
        "受入対象者": "",
        "備考": ""
      }
    },
    {
      "type": "Feature",
      "geometry": {
        "type": "Point",
        "coordinates": [
          138.970641,
          35.610362
        ]
      },
      "properties": {
        "NO": 34639,
        "共通ID": "E1920600003111",
        "都道府県名及び市町村名": "山梨県大月市",
        "施設・場所名": "猿橋公民館桂台分館",
        "住所": "山梨県大月市猿橋町桂台1-19-1",
        "指定緊急避難場所との住所同一": "1",
        "その他市町村長が必要と認める事項": "",
        "受入対象者": "",
        "備考": ""
      }
    },
    {
      "type": "Feature",
      "geometry": {
        "type": "Point",
        "coordinates": [
          138.966958,
          35.592757
        ]
      },
      "properties": {
        "NO": 34640,
        "共通ID": "E1920600004111",
        "都道府県名及び市町村名": "山梨県大月市",
        "施設・場所名": "猿橋公民館小沢分館",
        "住所": "山梨県大月市猿橋町小沢1452",
        "指定緊急避難場所との住所同一": "1",
        "その他市町村長が必要と認める事項": "",
        "受入対象者": "",
        "備考": ""
      }
    },
    {
      "type": "Feature",
      "geometry": {
        "type": "Point",
        "coordinates": [
          138.967628,
          35.614555
        ]
      },
      "properties": {
        "NO": 34641,
        "共通ID": "E1920600005111",
        "都道府県名及び市町村名": "山梨県大月市",
        "施設・場所名": "猿橋公民館殿上分館",
        "住所": "山梨県大月市猿橋町殿上4-1",
        "指定緊急避難場所との住所同一": "1",
        "その他市町村長が必要と認める事項": "",
        "受入対象者": "",
        "備考": ""
      }
    },
    {
      "type": "Feature",
      "geometry": {
        "type": "Point",
        "coordinates": [
          138.994063,
          35.604487
        ]
      },
      "properties": {
        "NO": 34642,
        "共通ID": "E1920600006111",
        "都道府県名及び市町村名": "山梨県大月市",
        "施設・場所名": "猿橋公民館藤崎分館",
        "住所": "山梨県大月市猿橋町藤崎1522-1",
        "指定緊急避難場所との住所同一": "1",
        "その他市町村長が必要と認める事項": "",
        "受入対象者": "",
        "備考": ""
      }
    },
    {
      "type": "Feature",
      "geometry": {
        "type": "Point",
        "coordinates": [
          138.946494,
          35.612844
        ]
      },
      "properties": {
        "NO": 34643,
        "共通ID": "E1920600007111",
        "都道府県名及び市町村名": "山梨県大月市",
        "施設・場所名": "大月短大",
        "住所": "山梨県大月市御太刀1-16-2",
        "指定緊急避難場所との住所同一": "1",
        "その他市町村長が必要と認める事項": "",
        "受入対象者": "",
        "備考": ""
      }
    },
    {
      "type": "Feature",
      "geometry": {
        "type": "Point",
        "coordinates": [
          138.949214,
          35.615818
        ]
      },
      "properties": {
        "NO": 34644,
        "共通ID": "E1920600008111",
        "都道府県名及び市町村名": "山梨県大月市",
        "施設・場所名": "大月市民会館",
        "住所": "山梨県大月市御太刀2-11-22",
        "指定緊急避難場所との住所同一": "1",
        "その他市町村長が必要と認める事項": "",
        "受入対象者": "",
        "備考": ""
      }
    },
    {
      "type": "Feature",
      "geometry": {
        "type": "Point",
        "coordinates": [
          138.831073,
          35.605224
        ]
      },
      "properties": {
        "NO": 34645,
        "共通ID": "E1920600009111",
        "都道府県名及び市町村名": "山梨県大月市",
        "施設・場所名": "旧笹子小学校",
        "住所": "山梨県大月市笹子町吉久保196",
        "指定緊急避難場所との住所同一": "1",
        "その他市町村長が必要と認める事項": "",
        "受入対象者": "",
        "備考": ""
      }
    },
    {
      "type": "Feature",
      "geometry": {
        "type": "Point",
        "coordinates": [
          138.827583,
          35.603752
        ]
      },
      "properties": {
        "NO": 34646,
        "共通ID": "E1920600010111",
        "都道府県名及び市町村名": "山梨県大月市",
        "施設・場所名": "笹子公民館（西部ふれあいセンター）",
        "住所": "山梨県大月市笹子町黒野田1359-7",
        "指定緊急避難場所との住所同一": "1",
        "その他市町村長が必要と認める事項": "",
        "受入対象者": "",
        "備考": ""
      }
    },
    {
      "type": "Feature",
      "geometry": {
        "type": "Point",
        "coordinates": [
          138.975565,
          35.624502
        ]
      },
      "properties": {
        "NO": 34647,
        "共通ID": "E1920600011111",
        "都道府県名及び市町村名": "山梨県大月市",
        "施設・場所名": "七保公民館下和田分館",
        "住所": "山梨県大月市七保町下和田1021",
        "指定緊急避難場所との住所同一": "1",
        "その他市町村長が必要と認める事項": "",
        "受入対象者": "",
        "備考": ""
      }
    },
    {
      "type": "Feature",
      "geometry": {
        "type": "Point",
        "coordinates": [
          138.9555,
          35.631808
        ]
      },
      "properties": {
        "NO": 34648,
        "共通ID": "E1920600012111",
        "都道府県名及び市町村名": "山梨県大月市",
        "施設・場所名": "七保小学校",
        "住所": "山梨県大月市七保町葛野2345",
        "指定緊急避難場所との住所同一": "1",
        "その他市町村長が必要と認める事項": "",
        "受入対象者": "",
        "備考": ""
      }
    },
    {
      "type": "Feature",
      "geometry": {
        "type": "Point",
        "coordinates": [
          138.967548,
          35.664021
        ]
      },
      "properties": {
        "NO": 34649,
        "共通ID": "E1920600013111",
        "都道府県名及び市町村名": "山梨県大月市",
        "施設・場所名": "旧瀬戸小学校",
        "住所": "山梨県大月市七保町瀬戸1000",
        "指定緊急避難場所との住所同一": "1",
        "その他市町村長が必要と認める事項": "",
        "受入対象者": "",
        "備考": ""
      }
    },
    {
      "type": "Feature",
      "geometry": {
        "type": "Point",
        "coordinates": [
          138.960666,
          35.691317
        ]
      },
      "properties": {
        "NO": 34650,
        "共通ID": "E1920600014111",
        "都道府県名及び市町村名": "山梨県大月市",
        "施設・場所名": "旧上和田小学校",
        "住所": "山梨県大月市七保町瀬戸1909-1",
        "指定緊急避難場所との住所同一": "1",
        "その他市町村長が必要と認める事項": "",
        "受入対象者": "",
        "備考": ""
      }
    },
    {
      "type": "Feature",
      "geometry": {
        "type": "Point",
        "coordinates": [
          138.989177,
          35.654103
        ]
      },
      "properties": {
        "NO": 34651,
        "共通ID": "E1920600015111",
        "都道府県名及び市町村名": "山梨県大月市",
        "施設・場所名": "七保公民館浅川分館",
        "住所": "山梨県大月市七保町浅川1027",
        "指定緊急避難場所との住所同一": "1",
        "その他市町村長が必要と認める事項": "",
        "受入対象者": "",
        "備考": ""
      }
    },
    {
      "type": "Feature",
      "geometry": {
        "type": "Point",
        "coordinates": [
          138.950293,
          35.660616
        ]
      },
      "properties": {
        "NO": 34652,
        "共通ID": "E1920600016111",
        "都道府県名及び市町村名": "山梨県大月市",
        "施設・場所名": "旧奈良子保育所",
        "住所": "山梨県大月市七保町奈良子9-3",
        "指定緊急避難場所との住所同一": "1",
        "その他市町村長が必要と認める事項": "",
        "受入対象者": "",
        "備考": ""
      }
    },
    {
      "type": "Feature",
      "geometry": {
        "type": "Point",
        "coordinates": [
          138.884335,
          35.59891
        ]
      },
      "properties": {
        "NO": 34653,
        "共通ID": "E1920600017111",
        "都道府県名及び市町村名": "山梨県大月市",
        "施設・場所名": "初狩小学校",
        "住所": "山梨県大月市初狩町下初狩1144",
        "指定緊急避難場所との住所同一": "1",
        "その他市町村長が必要と認める事項": "",
        "受入対象者": "",
        "備考": ""
      }
    },
    {
      "type": "Feature",
      "geometry": {
        "type": "Point",
        "coordinates": [
          138.878461,
          35.596718
        ]
      },
      "properties": {
        "NO": 34654,
        "共通ID": "E1920600018111",
        "都道府県名及び市町村名": "山梨県大月市",
        "施設・場所名": "旧初狩小学校",
        "住所": "山梨県大月市初狩町中初狩21",
        "指定緊急避難場所との住所同一": "1",
        "その他市町村長が必要と認める事項": "",
        "受入対象者": "",
        "備考": ""
      }
    },
    {
      "type": "Feature",
      "geometry": {
        "type": "Point",
        "coordinates": [
          138.936118,
          35.611159
        ]
      },
      "properties": {
        "NO": 34655,
        "共通ID": "E1920600019111",
        "都道府県名及び市町村名": "山梨県大月市",
        "施設・場所名": "大月東中学校",
        "住所": "山梨県大月市大月2-15-11",
        "指定緊急避難場所との住所同一": "1",
        "その他市町村長が必要と認める事項": "",
        "受入対象者": "",
        "備考": ""
      }
    },
    {
      "type": "Feature",
      "geometry": {
        "type": "Point",
        "coordinates": [
          138.9407,
          35.610344
        ]
      },
      "properties": {
        "NO": 34656,
        "共通ID": "E1920600020111",
        "都道府県名及び市町村名": "山梨県大月市",
        "施設・場所名": "大月東小学校",
        "住所": "山梨県大月市大月2-7-43",
        "指定緊急避難場所との住所同一": "1",
        "その他市町村長が必要と認める事項": "",
        "受入対象者": "",
        "備考": ""
      }
    },
    {
      "type": "Feature",
      "geometry": {
        "type": "Point",
        "coordinates": [
          138.927198,
          35.604547
        ]
      },
      "properties": {
        "NO": 34657,
        "共通ID": "E1920600021111",
        "都道府県名及び市町村名": "山梨県大月市",
        "施設・場所名": "総合福祉センター",
        "住所": "山梨県大月市大月町花咲10",
        "指定緊急避難場所との住所同一": "1",
        "その他市町村長が必要と認める事項": "",
        "受入対象者": "",
        "備考": ""
      }
    },
    {
      "type": "Feature",
      "geometry": {
        "type": "Point",
        "coordinates": [
          138.927198,
          35.604547
        ]
      },
      "properties": {
        "NO": 34658,
        "共通ID": "E1920600021121",
        "都道府県名及び市町村名": "山梨県大月市",
        "施設・場所名": "大月市総合福祉センター",
        "住所": "山梨県大月市大月町花咲10",
        "指定緊急避難場所との住所同一": "1",
        "その他市町村長が必要と認める事項": "",
        "受入対象者": "要配慮者",
        "備考": ""
      }
    },
    {
      "type": "Feature",
      "geometry": {
        "type": "Point",
        "coordinates": [
          138.906046,
          35.609306
        ]
      },
      "properties": {
        "NO": 34659,
        "共通ID": "E1920600022111",
        "都道府県名及び市町村名": "山梨県大月市",
        "施設・場所名": "旧大月西小学校",
        "住所": "山梨県大月市大月町真木2288",
        "指定緊急避難場所との住所同一": "1",
        "その他市町村長が必要と認める事項": "",
        "受入対象者": "",
        "備考": ""
      }
    },
    {
      "type": "Feature",
      "geometry": {
        "type": "Point",
        "coordinates": [
          138.893256,
          35.631576
        ]
      },
      "properties": {
        "NO": 34660,
        "共通ID": "E1920600023111",
        "都道府県名及び市町村名": "山梨県大月市",
        "施設・場所名": "間明野集会所",
        "住所": "山梨県大月市大月町真木6469",
        "指定緊急避難場所との住所同一": "1",
        "その他市町村長が必要と認める事項": "",
        "受入対象者": "",
        "備考": ""
      }
    },
    {
      "type": "Feature",
      "geometry": {
        "type": "Point",
        "coordinates": [
          138.956659,
          35.615816
        ]
      },
      "properties": {
        "NO": 34661,
        "共通ID": "E1920600024111",
        "都道府県名及び市町村名": "山梨県大月市",
        "施設・場所名": "旧強瀬小学校",
        "住所": "山梨県大月市賑岡町強瀬747",
        "指定緊急避難場所との住所同一": "1",
        "その他市町村長が必要と認める事項": "",
        "受入対象者": "",
        "備考": ""
      }
    },
    {
      "type": "Feature",
      "geometry": {
        "type": "Point",
        "coordinates": [
          138.947976,
          35.628258
        ]
      },
      "properties": {
        "NO": 34662,
        "共通ID": "E1920600026111",
        "都道府県名及び市町村名": "山梨県大月市",
        "施設・場所名": "賑岡公民館",
        "住所": "山梨県大月市賑岡町畑倉1284",
        "指定緊急避難場所との住所同一": "",
        "その他市町村長が必要と認める事項": "",
        "受入対象者": "",
        "備考": ""
      }
    },
    {
      "type": "Feature",
      "geometry": {
        "type": "Point",
        "coordinates": [
          138.98309,
          35.624112
        ]
      },
      "properties": {
        "NO": 34663,
        "共通ID": "E1920600028121",
        "都道府県名及び市町村名": "山梨県大月市",
        "施設・場所名": "デイサービスセンター「やまゆり」",
        "住所": "山梨県大月市富浜町宮谷1518-1",
        "指定緊急避難場所との住所同一": "",
        "その他市町村長が必要と認める事項": "",
        "受入対象者": "要配慮者",
        "備考": ""
      }
    },
    {
      "type": "Feature",
      "geometry": {
        "type": "Point",
        "coordinates": [
          138.990208,
          35.622721
        ]
      },
      "properties": {
        "NO": 34664,
        "共通ID": "E1920600029111",
        "都道府県名及び市町村名": "山梨県大月市",
        "施設・場所名": "旧宮谷小学校",
        "住所": "山梨県大月市富浜町宮谷915",
        "指定緊急避難場所との住所同一": "1",
        "その他市町村長が必要と認める事項": "",
        "受入対象者": "",
        "備考": ""
      }
    },
    {
      "type": "Feature",
      "geometry": {
        "type": "Point",
        "coordinates": [
          139.005159,
          35.610098
        ]
      },
      "properties": {
        "NO": 34665,
        "共通ID": "E1920600030111",
        "都道府県名及び市町村名": "山梨県大月市",
        "施設・場所名": "鳥沢小学校",
        "住所": "山梨県大月市富浜町鳥沢1979",
        "指定緊急避難場所との住所同一": "1",
        "その他市町村長が必要と認める事項": "",
        "受入対象者": "",
        "備考": ""
      }
    },
    {
      "type": "Feature",
      "geometry": {
        "type": "Point",
        "coordinates": [
          138.999321,
          35.605357
        ]
      },
      "properties": {
        "NO": 34666,
        "共通ID": "E1920600031111",
        "都道府県名及び市町村名": "山梨県大月市",
        "施設・場所名": "富浜中学校",
        "住所": "山梨県大月市富浜町鳥沢562",
        "指定緊急避難場所との住所同一": "1",
        "その他市町村長が必要と認める事項": "",
        "受入対象者": "",
        "備考": ""
      }
    },
    {
      "type": "Feature",
      "geometry": {
        "type": "Point",
        "coordinates": [
          139.042828,
          35.600306
        ]
      },
      "properties": {
        "NO": 34667,
        "共通ID": "E1920600032111",
        "都道府県名及び市町村名": "山梨県大月市",
        "施設・場所名": "（学法）自然学園高等学校（旧梁川小学校）",
        "住所": "山梨県大月市梁川町綱の上1225",
        "指定緊急避難場所との住所同一": "1",
        "その他市町村長が必要と認める事項": "",
        "受入対象者": "",
        "備考": ""
      }
    }
  ]
}