{
  "type": "FeatureCollection",
  "name": "192139",
  "features": [
    {
      "type": "Feature",
      "geometry": {
        "type": "Point",
        "coordinates": [
          138.82745,
          35.805633
        ]
      },
      "properties": {
        "NO": 34885,
        "共通ID": "E1921300001111",
        "都道府県名及び市町村名": "山梨県甲州市",
        "施設・場所名": "甲州市消防団神金分団第８部詰所",
        "住所": "山梨県甲州市塩山一之瀬高橋216",
        "指定緊急避難場所との住所同一": "",
        "その他市町村長が必要と認める事項": null,
        "受入対象者": null,
        "備考": ""
      }
    },
    {
      "type": "Feature",
      "geometry": {
        "type": "Point",
        "coordinates": [
          138.729594,
          35.701944
        ]
      },
      "properties": {
        "NO": 34886,
        "共通ID": "E1921300002111",
        "都道府県名及び市町村名": "山梨県甲州市",
        "施設・場所名": "塩山南児童センター",
        "住所": "山梨県甲州市塩山下於曽1021-3",
        "指定緊急避難場所との住所同一": "",
        "その他市町村長が必要と認める事項": null,
        "受入対象者": null,
        "備考": ""
      }
    },
    {
      "type": "Feature",
      "geometry": {
        "type": "Point",
        "coordinates": [
          138.729221,
          35.701538
        ]
      },
      "properties": {
        "NO": 34887,
        "共通ID": "E1921300003111",
        "都道府県名及び市町村名": "山梨県甲州市",
        "施設・場所名": "塩山中学校体育館",
        "住所": "山梨県甲州市塩山下於曽1039-1",
        "指定緊急避難場所との住所同一": "",
        "その他市町村長が必要と認める事項": null,
        "受入対象者": null,
        "備考": ""
      }
    },
    {
      "type": "Feature",
      "geometry": {
        "type": "Point",
        "coordinates": [
          138.733556,
          35.692156
        ]
      },
      "properties": {
        "NO": 34888,
        "共通ID": "E1921300004111",
        "都道府県名及び市町村名": "山梨県甲州市",
        "施設・場所名": "奥野田保育所",
        "住所": "山梨県甲州市塩山熊野597",
        "指定緊急避難場所との住所同一": "",
        "その他市町村長が必要と認める事項": null,
        "受入対象者": null,
        "備考": ""
      }
    },
    {
      "type": "Feature",
      "geometry": {
        "type": "Point",
        "coordinates": [
          138.73064,
          35.690913
        ]
      },
      "properties": {
        "NO": 34889,
        "共通ID": "E1921300005111",
        "都道府県名及び市町村名": "山梨県甲州市",
        "施設・場所名": "奥野田小学校体育館",
        "住所": "山梨県甲州市塩山熊野906",
        "指定緊急避難場所との住所同一": "",
        "その他市町村長が必要と認める事項": null,
        "受入対象者": null,
        "備考": ""
      }
    },
    {
      "type": "Feature",
      "geometry": {
        "type": "Point",
        "coordinates": [
          138.730359,
          35.690957
        ]
      },
      "properties": {
        "NO": 34890,
        "共通ID": "E1921300006111",
        "都道府県名及び市町村名": "山梨県甲州市",
        "施設・場所名": "奥野田公民館",
        "住所": "山梨県甲州市塩山熊野964-1",
        "指定緊急避難場所との住所同一": "",
        "その他市町村長が必要と認める事項": null,
        "受入対象者": null,
        "備考": ""
      }
    },
    {
      "type": "Feature",
      "geometry": {
        "type": "Point",
        "coordinates": [
          138.727608,
          35.719792
        ]
      },
      "properties": {
        "NO": 34891,
        "共通ID": "E1921300007111",
        "都道府県名及び市町村名": "山梨県甲州市",
        "施設・場所名": "県立塩山高等学校体育館",
        "住所": "山梨県甲州市塩山三日市場440-1",
        "指定緊急避難場所との住所同一": "",
        "その他市町村長が必要と認める事項": null,
        "受入対象者": null,
        "備考": ""
      }
    },
    {
      "type": "Feature",
      "geometry": {
        "type": "Point",
        "coordinates": [
          138.719096,
          35.72977
        ]
      },
      "properties": {
        "NO": 34892,
        "共通ID": "E1921300008111",
        "都道府県名及び市町村名": "山梨県甲州市",
        "施設・場所名": "松里中学校体育館",
        "住所": "山梨県甲州市塩山小屋敷1",
        "指定緊急避難場所との住所同一": "",
        "その他市町村長が必要と認める事項": null,
        "受入対象者": null,
        "備考": ""
      }
    },
    {
      "type": "Feature",
      "geometry": {
        "type": "Point",
        "coordinates": [
          138.716534,
          35.726505
        ]
      },
      "properties": {
        "NO": 34893,
        "共通ID": "E1921300009111",
        "都道府県名及び市町村名": "山梨県甲州市",
        "施設・場所名": "松里公民館",
        "住所": "山梨県甲州市塩山小屋敷1353",
        "指定緊急避難場所との住所同一": "",
        "その他市町村長が必要と認める事項": null,
        "受入対象者": null,
        "備考": ""
      }
    },
    {
      "type": "Feature",
      "geometry": {
        "type": "Point",
        "coordinates": [
          138.716314,
          35.725741
        ]
      },
      "properties": {
        "NO": 34894,
        "共通ID": "E1921300010111",
        "都道府県名及び市町村名": "山梨県甲州市",
        "施設・場所名": "松里小学校体育館",
        "住所": "山梨県甲州市塩山小屋敷1378",
        "指定緊急避難場所との住所同一": "",
        "その他市町村長が必要と認める事項": null,
        "受入対象者": null,
        "備考": ""
      }
    },
    {
      "type": "Feature",
      "geometry": {
        "type": "Point",
        "coordinates": [
          138.717,
          35.724329
        ]
      },
      "properties": {
        "NO": 34895,
        "共通ID": "E1921300011111",
        "都道府県名及び市町村名": "山梨県甲州市",
        "施設・場所名": "松里保育所",
        "住所": "山梨県甲州市塩山小屋敷1403",
        "指定緊急避難場所との住所同一": "",
        "その他市町村長が必要と認める事項": null,
        "受入対象者": null,
        "備考": ""
      }
    },
    {
      "type": "Feature",
      "geometry": {
        "type": "Point",
        "coordinates": [
          138.751051,
          35.723163
        ]
      },
      "properties": {
        "NO": 34896,
        "共通ID": "E1921300012111",
        "都道府県名及び市町村名": "山梨県甲州市",
        "施設・場所名": "塩山上粟生野体育館",
        "住所": "山梨県甲州市塩山上粟生野133",
        "指定緊急避難場所との住所同一": "",
        "その他市町村長が必要と認める事項": "",
        "受入対象者": "",
        "備考": ""
      }
    },
    {
      "type": "Feature",
      "geometry": {
        "type": "Point",
        "coordinates": [
          138.753892,
          35.719687
        ]
      },
      "properties": {
        "NO": 34897,
        "共通ID": "E1921300013111",
        "都道府県名及び市町村名": "山梨県甲州市",
        "施設・場所名": "大藤小学校体育館",
        "住所": "山梨県甲州市塩山上粟生野492-1",
        "指定緊急避難場所との住所同一": "",
        "その他市町村長が必要と認める事項": null,
        "受入対象者": null,
        "備考": ""
      }
    },
    {
      "type": "Feature",
      "geometry": {
        "type": "Point",
        "coordinates": [
          138.712574,
          35.714959
        ]
      },
      "properties": {
        "NO": 34898,
        "共通ID": "E1921300014111",
        "都道府県名及び市町村名": "山梨県甲州市",
        "施設・場所名": "井尻公民館",
        "住所": "山梨県甲州市塩山上井尻1675",
        "指定緊急避難場所との住所同一": "",
        "その他市町村長が必要と認める事項": null,
        "受入対象者": null,
        "備考": ""
      }
    },
    {
      "type": "Feature",
      "geometry": {
        "type": "Point",
        "coordinates": [
          138.712459,
          35.714518
        ]
      },
      "properties": {
        "NO": 34899,
        "共通ID": "E1921300015111",
        "都道府県名及び市町村名": "山梨県甲州市",
        "施設・場所名": "井尻小学校体育館",
        "住所": "山梨県甲州市塩山上井尻675",
        "指定緊急避難場所との住所同一": "",
        "その他市町村長が必要と認める事項": null,
        "受入対象者": null,
        "備考": ""
      }
    },
    {
      "type": "Feature",
      "geometry": {
        "type": "Point",
        "coordinates": [
          138.720633,
          35.702744
        ]
      },
      "properties": {
        "NO": 34900,
        "共通ID": "E1921300016111",
        "都道府県名及び市町村名": "山梨県甲州市",
        "施設・場所名": "市民文化会館",
        "住所": "山梨県甲州市塩山上塩後240",
        "指定緊急避難場所との住所同一": "",
        "その他市町村長が必要と認める事項": null,
        "受入対象者": null,
        "備考": ""
      }
    },
    {
      "type": "Feature",
      "geometry": {
        "type": "Point",
        "coordinates": [
          138.719661,
          35.702183
        ]
      },
      "properties": {
        "NO": 34901,
        "共通ID": "E1921300017111",
        "都道府県名及び市町村名": "山梨県甲州市",
        "施設・場所名": "塩山西公民館",
        "住所": "山梨県甲州市塩山上塩後339-1",
        "指定緊急避難場所との住所同一": "",
        "その他市町村長が必要と認める事項": null,
        "受入対象者": null,
        "備考": ""
      }
    },
    {
      "type": "Feature",
      "geometry": {
        "type": "Point",
        "coordinates": [
          138.72875,
          35.703268
        ]
      },
      "properties": {
        "NO": 34902,
        "共通ID": "E1921300018111",
        "都道府県名及び市町村名": "山梨県甲州市",
        "施設・場所名": "塩山南小学校体育館",
        "住所": "山梨県甲州市塩山上於曽1017",
        "指定緊急避難場所との住所同一": "",
        "その他市町村長が必要と認める事項": null,
        "受入対象者": null,
        "備考": ""
      }
    },
    {
      "type": "Feature",
      "geometry": {
        "type": "Point",
        "coordinates": [
          138.736843,
          35.703977
        ]
      },
      "properties": {
        "NO": 34903,
        "共通ID": "E1921300020111",
        "都道府県名及び市町村名": "山梨県甲州市",
        "施設・場所名": "塩山東公民館",
        "住所": "山梨県甲州市塩山上於曽1919-11",
        "指定緊急避難場所との住所同一": "",
        "その他市町村長が必要と認める事項": null,
        "受入対象者": null,
        "備考": ""
      }
    },
    {
      "type": "Feature",
      "geometry": {
        "type": "Point",
        "coordinates": [
          138.727064,
          35.703166
        ]
      },
      "properties": {
        "NO": 34904,
        "共通ID": "E1921300021121",
        "都道府県名及び市町村名": "山梨県甲州市",
        "施設・場所名": "塩山保健福祉センター",
        "住所": "山梨県甲州市塩山上於曽977-5",
        "指定緊急避難場所との住所同一": "",
        "その他市町村長が必要と認める事項": null,
        "受入対象者": "要配慮者",
        "備考": ""
      }
    },
    {
      "type": "Feature",
      "geometry": {
        "type": "Point",
        "coordinates": [
          138.797166,
          35.734491
        ]
      },
      "properties": {
        "NO": 34905,
        "共通ID": "E1921300022111",
        "都道府県名及び市町村名": "山梨県甲州市",
        "施設・場所名": "市交流保養センター",
        "住所": "山梨県甲州市塩山上小田原730-1",
        "指定緊急避難場所との住所同一": "",
        "その他市町村長が必要と認める事項": null,
        "受入対象者": null,
        "備考": ""
      }
    },
    {
      "type": "Feature",
      "geometry": {
        "type": "Point",
        "coordinates": [
          138.77212,
          35.726341
        ]
      },
      "properties": {
        "NO": 34906,
        "共通ID": "E1921300023111",
        "都道府県名及び市町村名": "山梨県甲州市",
        "施設・場所名": "神金小学校体育館",
        "住所": "山梨県甲州市塩山上萩原1518-4",
        "指定緊急避難場所との住所同一": "",
        "その他市町村長が必要と認める事項": null,
        "受入対象者": null,
        "備考": ""
      }
    },
    {
      "type": "Feature",
      "geometry": {
        "type": "Point",
        "coordinates": [
          138.768622,
          35.725709
        ]
      },
      "properties": {
        "NO": 34907,
        "共通ID": "E1921300024111",
        "都道府県名及び市町村名": "山梨県甲州市",
        "施設・場所名": "神金公民館",
        "住所": "山梨県甲州市塩山上萩原9",
        "指定緊急避難場所との住所同一": "",
        "その他市町村長が必要と認める事項": null,
        "受入対象者": null,
        "備考": ""
      }
    },
    {
      "type": "Feature",
      "geometry": {
        "type": "Point",
        "coordinates": [
          138.731281,
          35.712056
        ]
      },
      "properties": {
        "NO": 34908,
        "共通ID": "E1921300025111",
        "都道府県名及び市町村名": "山梨県甲州市",
        "施設・場所名": "塩山北児童センター",
        "住所": "山梨県甲州市塩山千野3409-4",
        "指定緊急避難場所との住所同一": "",
        "その他市町村長が必要と認める事項": null,
        "受入対象者": null,
        "備考": ""
      }
    },
    {
      "type": "Feature",
      "geometry": {
        "type": "Point",
        "coordinates": [
          138.730792,
          35.711053
        ]
      },
      "properties": {
        "NO": 34909,
        "共通ID": "E1921300026111",
        "都道府県名及び市町村名": "山梨県甲州市",
        "施設・場所名": "塩山北小学校体育館",
        "住所": "山梨県甲州市塩山千野3421",
        "指定緊急避難場所との住所同一": "",
        "その他市町村長が必要と認める事項": null,
        "受入対象者": null,
        "備考": ""
      }
    },
    {
      "type": "Feature",
      "geometry": {
        "type": "Point",
        "coordinates": [
          138.735088,
          35.711082
        ]
      },
      "properties": {
        "NO": 34910,
        "共通ID": "E1921300054111",
        "都道府県名及び市町村名": "山梨県甲州市",
        "施設・場所名": "県立産業技術短期大学校体育館",
        "住所": "山梨県甲州市塩山千野3563",
        "指定緊急避難場所との住所同一": "",
        "その他市町村長が必要と認める事項": "",
        "受入対象者": "",
        "備考": ""
      }
    },
    {
      "type": "Feature",
      "geometry": {
        "type": "Point",
        "coordinates": [
          138.735007,
          35.7157
        ]
      },
      "properties": {
        "NO": 34911,
        "共通ID": "E1921300027111",
        "都道府県名及び市町村名": "山梨県甲州市",
        "施設・場所名": "塩山北公民館",
        "住所": "山梨県甲州市塩山千野650",
        "指定緊急避難場所との住所同一": "",
        "その他市町村長が必要と認める事項": null,
        "受入対象者": null,
        "備考": ""
      }
    },
    {
      "type": "Feature",
      "geometry": {
        "type": "Point",
        "coordinates": [
          138.744988,
          35.732936
        ]
      },
      "properties": {
        "NO": 34912,
        "共通ID": "E1921300028111",
        "都道府県名及び市町村名": "山梨県甲州市",
        "施設・場所名": "玉宮小学校体育館",
        "住所": "山梨県甲州市塩山竹森3015",
        "指定緊急避難場所との住所同一": "",
        "その他市町村長が必要と認める事項": null,
        "受入対象者": null,
        "備考": ""
      }
    },
    {
      "type": "Feature",
      "geometry": {
        "type": "Point",
        "coordinates": [
          138.744641,
          35.734493
        ]
      },
      "properties": {
        "NO": 34913,
        "共通ID": "E1921300029111",
        "都道府県名及び市町村名": "山梨県甲州市",
        "施設・場所名": "玉宮公民館",
        "住所": "山梨県甲州市塩山竹森3381",
        "指定緊急避難場所との住所同一": "",
        "その他市町村長が必要と認める事項": null,
        "受入対象者": null,
        "備考": ""
      }
    },
    {
      "type": "Feature",
      "geometry": {
        "type": "Point",
        "coordinates": [
          138.754176,
          35.719113
        ]
      },
      "properties": {
        "NO": 34914,
        "共通ID": "E1921300030111",
        "都道府県名及び市町村名": "山梨県甲州市",
        "施設・場所名": "大藤公民館",
        "住所": "山梨県甲州市塩山中萩原658-6",
        "指定緊急避難場所との住所同一": "",
        "その他市町村長が必要と認める事項": null,
        "受入対象者": null,
        "備考": ""
      }
    },
    {
      "type": "Feature",
      "geometry": {
        "type": "Point",
        "coordinates": [
          138.72246,
          35.657289
        ]
      },
      "properties": {
        "NO": 34915,
        "共通ID": "E1921300031111",
        "都道府県名及び市町村名": "山梨県甲州市",
        "施設・場所名": "祝小学校体育館",
        "住所": "山梨県甲州市勝沼町下岩崎960",
        "指定緊急避難場所との住所同一": "",
        "その他市町村長が必要と認める事項": null,
        "受入対象者": null,
        "備考": ""
      }
    },
    {
      "type": "Feature",
      "geometry": {
        "type": "Point",
        "coordinates": [
          138.718398,
          35.676095
        ]
      },
      "properties": {
        "NO": 34916,
        "共通ID": "E1921300032111",
        "都道府県名及び市町村名": "山梨県甲州市",
        "施設・場所名": "東雲小学校体育館",
        "住所": "山梨県甲州市勝沼町休息1560-1",
        "指定緊急避難場所との住所同一": "",
        "その他市町村長が必要と認める事項": null,
        "受入対象者": null,
        "備考": ""
      }
    },
    {
      "type": "Feature",
      "geometry": {
        "type": "Point",
        "coordinates": [
          138.720534,
          35.677365
        ]
      },
      "properties": {
        "NO": 34917,
        "共通ID": "E1921300033121",
        "都道府県名及び市町村名": "山梨県甲州市",
        "施設・場所名": "勝沼健康福祉センター",
        "住所": "山梨県甲州市勝沼町休息1867-2",
        "指定緊急避難場所との住所同一": "",
        "その他市町村長が必要と認める事項": null,
        "受入対象者": "要配慮者",
        "備考": ""
      }
    },
    {
      "type": "Feature",
      "geometry": {
        "type": "Point",
        "coordinates": [
          138.720593,
          35.677265
        ]
      },
      "properties": {
        "NO": 34918,
        "共通ID": "E1921300033111",
        "都道府県名及び市町村名": "山梨県甲州市",
        "施設・場所名": "勝沼健康福祉センター",
        "住所": "山梨県甲州市勝沼町休息1867-2",
        "指定緊急避難場所との住所同一": "",
        "その他市町村長が必要と認める事項": null,
        "受入対象者": null,
        "備考": ""
      }
    },
    {
      "type": "Feature",
      "geometry": {
        "type": "Point",
        "coordinates": [
          138.72628,
          35.665456
        ]
      },
      "properties": {
        "NO": 34919,
        "共通ID": "E1921300034111",
        "都道府県名及び市町村名": "山梨県甲州市",
        "施設・場所名": "勝沼体育館",
        "住所": "山梨県甲州市勝沼町勝沼1281-2",
        "指定緊急避難場所との住所同一": "",
        "その他市町村長が必要と認める事項": null,
        "受入対象者": null,
        "備考": ""
      }
    },
    {
      "type": "Feature",
      "geometry": {
        "type": "Point",
        "coordinates": [
          138.728461,
          35.663118
        ]
      },
      "properties": {
        "NO": 34920,
        "共通ID": "E1921300035111",
        "都道府県名及び市町村名": "山梨県甲州市",
        "施設・場所名": "勝沼小学校体育館",
        "住所": "山梨県甲州市勝沼町勝沼3099",
        "指定緊急避難場所との住所同一": "",
        "その他市町村長が必要と認める事項": null,
        "受入対象者": null,
        "備考": ""
      }
    },
    {
      "type": "Feature",
      "geometry": {
        "type": "Point",
        "coordinates": [
          138.724866,
          35.665338
        ]
      },
      "properties": {
        "NO": 34921,
        "共通ID": "E1921300036111",
        "都道府県名及び市町村名": "山梨県甲州市",
        "施設・場所名": "勝沼中学校体育館",
        "住所": "山梨県甲州市勝沼町勝沼761-1",
        "指定緊急避難場所との住所同一": "",
        "その他市町村長が必要と認める事項": null,
        "受入対象者": null,
        "備考": ""
      }
    },
    {
      "type": "Feature",
      "geometry": {
        "type": "Point",
        "coordinates": [
          138.745448,
          35.677349
        ]
      },
      "properties": {
        "NO": 34922,
        "共通ID": "E1921300037111",
        "都道府県名及び市町村名": "山梨県甲州市",
        "施設・場所名": "菱山小学校体育館",
        "住所": "山梨県甲州市勝沼町菱山1066",
        "指定緊急避難場所との住所同一": "",
        "その他市町村長が必要と認める事項": null,
        "受入対象者": null,
        "備考": ""
      }
    },
    {
      "type": "Feature",
      "geometry": {
        "type": "Point",
        "coordinates": [
          138.780634,
          35.640405
        ]
      },
      "properties": {
        "NO": 34923,
        "共通ID": "E1921300038111",
        "都道府県名及び市町村名": "山梨県甲州市",
        "施設・場所名": "大和初鹿野体育館",
        "住所": "山梨県甲州市大和村初鹿野1643",
        "指定緊急避難場所との住所同一": "",
        "その他市町村長が必要と認める事項": "",
        "受入対象者": "",
        "備考": ""
      }
    },
    {
      "type": "Feature",
      "geometry": {
        "type": "Point",
        "coordinates": [
          138.777596,
          35.640009
        ]
      },
      "properties": {
        "NO": 34924,
        "共通ID": "E1921300039111",
        "都道府県名及び市町村名": "山梨県甲州市",
        "施設・場所名": "大和小学校体育館",
        "住所": "山梨県甲州市大和村初鹿野1679-5",
        "指定緊急避難場所との住所同一": "",
        "その他市町村長が必要と認める事項": null,
        "受入対象者": null,
        "備考": ""
      }
    },
    {
      "type": "Feature",
      "geometry": {
        "type": "Point",
        "coordinates": [
          138.773294,
          35.639115
        ]
      },
      "properties": {
        "NO": 34925,
        "共通ID": "E1921300040111",
        "都道府県名及び市町村名": "山梨県甲州市",
        "施設・場所名": "やまとの杜アリーナ―",
        "住所": "山梨県甲州市大和村日影1080",
        "指定緊急避難場所との住所同一": "",
        "その他市町村長が必要と認める事項": null,
        "受入対象者": null,
        "備考": ""
      }
    },
    {
      "type": "Feature",
      "geometry": {
        "type": "Point",
        "coordinates": [
          138.810136,
          35.660754
        ]
      },
      "properties": {
        "NO": 34926,
        "共通ID": "E1921300041111",
        "都道府県名及び市町村名": "山梨県甲州市",
        "施設・場所名": "旧大和小学校天目分校",
        "住所": "山梨県甲州市大和村木賊119",
        "指定緊急避難場所との住所同一": "",
        "その他市町村長が必要と認める事項": null,
        "受入対象者": null,
        "備考": ""
      }
    },
    {
      "type": "Feature",
      "geometry": {
        "type": "Point",
        "coordinates": [
          138.78465,
          35.64138
        ]
      },
      "properties": {
        "NO": 34927,
        "共通ID": "E1921300042111",
        "都道府県名及び市町村名": "山梨県甲州市",
        "施設・場所名": "古部集落センター",
        "住所": "山梨県甲州市大和町初鹿野1547-1",
        "指定緊急避難場所との住所同一": "",
        "その他市町村長が必要と認める事項": null,
        "受入対象者": null,
        "備考": ""
      }
    },
    {
      "type": "Feature",
      "geometry": {
        "type": "Point",
        "coordinates": [
          138.791688,
          35.639472
        ]
      },
      "properties": {
        "NO": 34928,
        "共通ID": "E1921300043111",
        "都道府県名及び市町村名": "山梨県甲州市",
        "施設・場所名": "丸林集落センター",
        "住所": "山梨県甲州市大和町初鹿野2001-1",
        "指定緊急避難場所との住所同一": "",
        "その他市町村長が必要と認める事項": null,
        "受入対象者": null,
        "備考": ""
      }
    },
    {
      "type": "Feature",
      "geometry": {
        "type": "Point",
        "coordinates": [
          138.792821,
          35.640542
        ]
      },
      "properties": {
        "NO": 34929,
        "共通ID": "E1921300044111",
        "都道府県名及び市町村名": "山梨県甲州市",
        "施設・場所名": "水野田公会堂",
        "住所": "山梨県甲州市大和町初鹿野484-2",
        "指定緊急避難場所との住所同一": "",
        "その他市町村長が必要と認める事項": null,
        "受入対象者": null,
        "備考": ""
      }
    },
    {
      "type": "Feature",
      "geometry": {
        "type": "Point",
        "coordinates": [
          138.767849,
          35.643439
        ]
      },
      "properties": {
        "NO": 34930,
        "共通ID": "E1921300045111",
        "都道府県名及び市町村名": "山梨県甲州市",
        "施設・場所名": "鶴瀬集落センター",
        "住所": "山梨県甲州市大和町鶴瀬504-2",
        "指定緊急避難場所との住所同一": "",
        "その他市町村長が必要と認める事項": null,
        "受入対象者": null,
        "備考": ""
      }
    },
    {
      "type": "Feature",
      "geometry": {
        "type": "Point",
        "coordinates": [
          138.803479,
          35.640956
        ]
      },
      "properties": {
        "NO": 34931,
        "共通ID": "E1921300046111",
        "都道府県名及び市町村名": "山梨県甲州市",
        "施設・場所名": "景徳院",
        "住所": "山梨県甲州市大和町田野389",
        "指定緊急避難場所との住所同一": "",
        "その他市町村長が必要と認める事項": null,
        "受入対象者": null,
        "備考": ""
      }
    },
    {
      "type": "Feature",
      "geometry": {
        "type": "Point",
        "coordinates": [
          138.800246,
          35.640439
        ]
      },
      "properties": {
        "NO": 34932,
        "共通ID": "E1921300047111",
        "都道府県名及び市町村名": "山梨県甲州市",
        "施設・場所名": "田野集会所",
        "住所": "山梨県甲州市大和町田野469-1",
        "指定緊急避難場所との住所同一": "",
        "その他市町村長が必要と認める事項": null,
        "受入対象者": null,
        "備考": ""
      }
    },
    {
      "type": "Feature",
      "geometry": {
        "type": "Point",
        "coordinates": [
          138.809506,
          35.64611
        ]
      },
      "properties": {
        "NO": 34933,
        "共通ID": "E1921300048121",
        "都道府県名及び市町村名": "山梨県甲州市",
        "施設・場所名": "大和福祉センター",
        "住所": "山梨県甲州市大和町田野77",
        "指定緊急避難場所との住所同一": "",
        "その他市町村長が必要と認める事項": null,
        "受入対象者": "要配慮者",
        "備考": ""
      }
    }
  ]
}