{
  "type": "FeatureCollection",
  "name": "192121",
  "features": [
    {
      "type": "Feature",
      "geometry": {
        "type": "Point",
        "coordinates": [
          139.078947,
          35.615604
        ]
      },
      "properties": {
        "NO": 34871,
        "共通ID": "E1921200001111",
        "都道府県名及び市町村名": "山梨県上野原市",
        "施設・場所名": "上野原西小学校体育館",
        "住所": "山梨県上野原市コモアしおつ2-13-1",
        "指定緊急避難場所との住所同一": "1",
        "その他市町村長が必要と認める事項": "",
        "受入対象者": "",
        "備考": ""
      }
    },
    {
      "type": "Feature",
      "geometry": {
        "type": "Point",
        "coordinates": [
          139.0894,
          35.618334
        ]
      },
      "properties": {
        "NO": 34872,
        "共通ID": "E1921200002111",
        "都道府県名及び市町村名": "山梨県上野原市",
        "施設・場所名": "上野原西中学校体育館",
        "住所": "山梨県上野原市四方津215",
        "指定緊急避難場所との住所同一": "1",
        "その他市町村長が必要と認める事項": "",
        "受入対象者": "",
        "備考": ""
      }
    },
    {
      "type": "Feature",
      "geometry": {
        "type": "Point",
        "coordinates": [
          139.034149,
          35.574751
        ]
      },
      "properties": {
        "NO": 34873,
        "共通ID": "E1921200003111",
        "都道府県名及び市町村名": "山梨県上野原市",
        "施設・場所名": "旧浜沢小学校体育館",
        "住所": "山梨県上野原市秋山11862",
        "指定緊急避難場所との住所同一": "",
        "その他市町村長が必要と認める事項": "",
        "受入対象者": "",
        "備考": ""
      }
    },
    {
      "type": "Feature",
      "geometry": {
        "type": "Point",
        "coordinates": [
          139.113716,
          35.58172
        ]
      },
      "properties": {
        "NO": 34874,
        "共通ID": "E1921200005111",
        "都道府県名及び市町村名": "山梨県上野原市",
        "施設・場所名": "旧桜井小学校体育館",
        "住所": "山梨県上野原市秋山3325",
        "指定緊急避難場所との住所同一": "1",
        "その他市町村長が必要と認める事項": "",
        "受入対象者": "",
        "備考": ""
      }
    },
    {
      "type": "Feature",
      "geometry": {
        "type": "Point",
        "coordinates": [
          139.084898,
          35.568903
        ]
      },
      "properties": {
        "NO": 34875,
        "共通ID": "E1921200006111",
        "都道府県名及び市町村名": "山梨県上野原市",
        "施設・場所名": "秋山中学校体育館",
        "住所": "山梨県上野原市秋山6770",
        "指定緊急避難場所との住所同一": "",
        "その他市町村長が必要と認める事項": "",
        "受入対象者": "",
        "備考": ""
      }
    },
    {
      "type": "Feature",
      "geometry": {
        "type": "Point",
        "coordinates": [
          139.071157,
          35.570321
        ]
      },
      "properties": {
        "NO": 34876,
        "共通ID": "E1921200007111",
        "都道府県名及び市町村名": "山梨県上野原市",
        "施設・場所名": "秋山小学校体育館",
        "住所": "山梨県上野原市秋山8674",
        "指定緊急避難場所との住所同一": "1",
        "その他市町村長が必要と認める事項": "",
        "受入対象者": "",
        "備考": ""
      }
    },
    {
      "type": "Feature",
      "geometry": {
        "type": "Point",
        "coordinates": [
          139.115973,
          35.629665
        ]
      },
      "properties": {
        "NO": 34877,
        "共通ID": "E1921200027121",
        "都道府県名及び市町村名": "山梨県上野原市",
        "施設・場所名": "上野原市総合福祉センターふじみ",
        "住所": "山梨県上野原市上野原3163",
        "指定緊急避難場所との住所同一": "",
        "その他市町村長が必要と認める事項": "",
        "受入対象者": "要配慮者",
        "備考": ""
      }
    },
    {
      "type": "Feature",
      "geometry": {
        "type": "Point",
        "coordinates": [
          139.019689,
          35.703524
        ]
      },
      "properties": {
        "NO": 34878,
        "共通ID": "E1921200013111",
        "都道府県名及び市町村名": "山梨県上野原市",
        "施設・場所名": "旧西原小学校体育館",
        "住所": "山梨県上野原市西原6996",
        "指定緊急避難場所との住所同一": "",
        "その他市町村長が必要と認める事項": "",
        "受入対象者": "",
        "備考": ""
      }
    },
    {
      "type": "Feature",
      "geometry": {
        "type": "Point",
        "coordinates": [
          139.118674,
          35.615014
        ]
      },
      "properties": {
        "NO": 34879,
        "共通ID": "E1921200017111",
        "都道府県名及び市町村名": "山梨県上野原市",
        "施設・場所名": "島田小学校体育館",
        "住所": "山梨県上野原市鶴島2024",
        "指定緊急避難場所との住所同一": "1",
        "その他市町村長が必要と認める事項": "",
        "受入対象者": "",
        "備考": ""
      }
    },
    {
      "type": "Feature",
      "geometry": {
        "type": "Point",
        "coordinates": [
          139.103435,
          35.619984
        ]
      },
      "properties": {
        "NO": 34880,
        "共通ID": "E1921200019111",
        "都道府県名及び市町村名": "山梨県上野原市",
        "施設・場所名": "旧沢松小学校体育館",
        "住所": "山梨県上野原市八ッ沢12",
        "指定緊急避難場所との住所同一": "1",
        "その他市町村長が必要と認める事項": "",
        "受入対象者": "",
        "備考": ""
      }
    },
    {
      "type": "Feature",
      "geometry": {
        "type": "Point",
        "coordinates": [
          139.100847,
          35.623416
        ]
      },
      "properties": {
        "NO": 34881,
        "共通ID": "E1921200020111",
        "都道府県名及び市町村名": "山梨県上野原市",
        "施設・場所名": "上野原高等学校体育館",
        "住所": "山梨県上野原市八ッ沢555",
        "指定緊急避難場所との住所同一": "",
        "その他市町村長が必要と認める事項": "",
        "受入対象者": "",
        "備考": ""
      }
    },
    {
      "type": "Feature",
      "geometry": {
        "type": "Point",
        "coordinates": [
          139.060873,
          35.63206
        ]
      },
      "properties": {
        "NO": 34882,
        "共通ID": "E1921200022111",
        "都道府県名及び市町村名": "山梨県上野原市",
        "施設・場所名": "旧平和中学校校舎・体育館",
        "住所": "山梨県上野原市野田尻808",
        "指定緊急避難場所との住所同一": "1",
        "その他市町村長が必要と認める事項": "",
        "受入対象者": "",
        "備考": ""
      }
    },
    {
      "type": "Feature",
      "geometry": {
        "type": "Point",
        "coordinates": [
          139.057978,
          35.658956
        ]
      },
      "properties": {
        "NO": 34883,
        "共通ID": "E1921200023111",
        "都道府県名及び市町村名": "山梨県上野原市",
        "施設・場所名": "旧甲東小学校和見分校",
        "住所": "山梨県上野原市和見955",
        "指定緊急避難場所との住所同一": "1",
        "その他市町村長が必要と認める事項": "",
        "受入対象者": "",
        "備考": ""
      }
    },
    {
      "type": "Feature",
      "geometry": {
        "type": "Point",
        "coordinates": [
          139.088253,
          35.674271
        ]
      },
      "properties": {
        "NO": 34884,
        "共通ID": "E1921200026111",
        "都道府県名及び市町村名": "山梨県上野原市",
        "施設・場所名": "旧棡原小学校体育館",
        "住所": "山梨県上野原市棡原7234",
        "指定緊急避難場所との住所同一": "",
        "その他市町村長が必要と認める事項": "",
        "受入対象者": "",
        "備考": ""
      }
    }
  ]
}