{
  "type": "FeatureCollection",
  "name": "203041",
  "features": [
    {
      "type": "Feature",
      "geometry": {
        "type": "Point",
        "coordinates": [
          138.559388,
          35.926995
        ]
      },
      "properties": {
        "NO": 37159,
        "共通ID": "E2030400046111",
        "都道府県名及び市町村名": "長野県川上村",
        "施設・場所名": "高登谷高原管理事務所",
        "住所": "長野県川上村原585-9",
        "指定緊急避難場所との住所同一": "",
        "その他市町村長が必要と認める事項": "",
        "受入対象者": "",
        "備考": ""
      }
    },
    {
      "type": "Feature",
      "geometry": {
        "type": "Point",
        "coordinates": [
          138.668954,
          35.962426
        ]
      },
      "properties": {
        "NO": 37160,
        "共通ID": "E2030400028111",
        "都道府県名及び市町村名": "長野県川上村",
        "施設・場所名": "梓山公民館",
        "住所": "長野県川上村大字梓山114",
        "指定緊急避難場所との住所同一": "1",
        "その他市町村長が必要と認める事項": null,
        "受入対象者": null,
        "備考": ""
      }
    },
    {
      "type": "Feature",
      "geometry": {
        "type": "Point",
        "coordinates": [
          138.668521,
          35.961653
        ]
      },
      "properties": {
        "NO": 37161,
        "共通ID": "E2030400005111",
        "都道府県名及び市町村名": "長野県川上村",
        "施設・場所名": "白木屋旅館",
        "住所": "長野県川上村大字梓山220",
        "指定緊急避難場所との住所同一": "",
        "その他市町村長が必要と認める事項": null,
        "受入対象者": null,
        "備考": ""
      }
    },
    {
      "type": "Feature",
      "geometry": {
        "type": "Point",
        "coordinates": [
          138.619492,
          35.970863
        ]
      },
      "properties": {
        "NO": 37162,
        "共通ID": "E2030400035111",
        "都道府県名及び市町村名": "長野県川上村",
        "施設・場所名": "居倉公民館",
        "住所": "長野県川上村大字居倉518",
        "指定緊急避難場所との住所同一": "",
        "その他市町村長が必要と認める事項": null,
        "受入対象者": null,
        "備考": ""
      }
    },
    {
      "type": "Feature",
      "geometry": {
        "type": "Point",
        "coordinates": [
          138.556384,
          35.970909
        ]
      },
      "properties": {
        "NO": 37163,
        "共通ID": "E2030400016111",
        "都道府県名及び市町村名": "長野県川上村",
        "施設・場所名": "川上第一小学校",
        "住所": "長野県川上村大字原1142",
        "指定緊急避難場所との住所同一": "",
        "その他市町村長が必要と認める事項": null,
        "受入対象者": null,
        "備考": ""
      }
    },
    {
      "type": "Feature",
      "geometry": {
        "type": "Point",
        "coordinates": [
          138.556812,
          35.970534
        ]
      },
      "properties": {
        "NO": 37164,
        "共通ID": "E2030400015111",
        "都道府県名及び市町村名": "長野県川上村",
        "施設・場所名": "川上村多目的研修センター",
        "住所": "長野県川上村大字原1146-1",
        "指定緊急避難場所との住所同一": "",
        "その他市町村長が必要と認める事項": null,
        "受入対象者": null,
        "備考": ""
      }
    },
    {
      "type": "Feature",
      "geometry": {
        "type": "Point",
        "coordinates": [
          138.54706,
          35.968653
        ]
      },
      "properties": {
        "NO": 37165,
        "共通ID": "E2030400009122",
        "都道府県名及び市町村名": "長野県川上村",
        "施設・場所名": "ヘルシーパークかわかみ中央棟",
        "住所": "長野県川上村大字原312",
        "指定緊急避難場所との住所同一": "",
        "その他市町村長が必要と認める事項": null,
        "受入対象者": "要配慮者",
        "備考": ""
      }
    },
    {
      "type": "Feature",
      "geometry": {
        "type": "Point",
        "coordinates": [
          138.547552,
          35.968595
        ]
      },
      "properties": {
        "NO": 37166,
        "共通ID": "E2030400009121",
        "都道府県名及び市町村名": "長野県川上村",
        "施設・場所名": "デイサービスセンター",
        "住所": "長野県川上村大字原312",
        "指定緊急避難場所との住所同一": "",
        "その他市町村長が必要と認める事項": null,
        "受入対象者": "要配慮者",
        "備考": ""
      }
    },
    {
      "type": "Feature",
      "geometry": {
        "type": "Point",
        "coordinates": [
          138.548562,
          35.970515
        ]
      },
      "properties": {
        "NO": 37167,
        "共通ID": "E2030400036111",
        "都道府県名及び市町村名": "長野県川上村",
        "施設・場所名": "川上中学校",
        "住所": "長野県川上村大字原33",
        "指定緊急避難場所との住所同一": "1",
        "その他市町村長が必要と認める事項": null,
        "受入対象者": null,
        "備考": ""
      }
    },
    {
      "type": "Feature",
      "geometry": {
        "type": "Point",
        "coordinates": [
          138.569015,
          35.926691
        ]
      },
      "properties": {
        "NO": 37168,
        "共通ID": "E2030400038111",
        "都道府県名及び市町村名": "長野県川上村",
        "施設・場所名": "三鷹市川上郷自然の村",
        "住所": "長野県川上村大字原591-362",
        "指定緊急避難場所との住所同一": "1",
        "その他市町村長が必要と認める事項": "",
        "受入対象者": "",
        "備考": ""
      }
    },
    {
      "type": "Feature",
      "geometry": {
        "type": "Point",
        "coordinates": [
          138.540576,
          35.970016
        ]
      },
      "properties": {
        "NO": 37169,
        "共通ID": "E2030400018111",
        "都道府県名及び市町村名": "長野県川上村",
        "施設・場所名": "御所平公民館",
        "住所": "長野県川上村大字御所平1380",
        "指定緊急避難場所との住所同一": "",
        "その他市町村長が必要と認める事項": null,
        "受入対象者": null,
        "備考": ""
      }
    },
    {
      "type": "Feature",
      "geometry": {
        "type": "Point",
        "coordinates": [
          138.545253,
          35.97342
        ]
      },
      "properties": {
        "NO": 37170,
        "共通ID": "E2030400020111",
        "都道府県名及び市町村名": "長野県川上村",
        "施設・場所名": "龍昌寺壇信徒会館",
        "住所": "長野県川上村大字御所平460",
        "指定緊急避難場所との住所同一": "",
        "その他市町村長が必要と認める事項": null,
        "受入対象者": null,
        "備考": ""
      }
    },
    {
      "type": "Feature",
      "geometry": {
        "type": "Point",
        "coordinates": [
          138.527785,
          35.976856
        ]
      },
      "properties": {
        "NO": 37171,
        "共通ID": "E2030400043111",
        "都道府県名及び市町村名": "長野県川上村",
        "施設・場所名": "長野八ヶ岳農協川上支所",
        "住所": "長野県川上村大字御所平930",
        "指定緊急避難場所との住所同一": "",
        "その他市町村長が必要と認める事項": null,
        "受入対象者": null,
        "備考": ""
      }
    },
    {
      "type": "Feature",
      "geometry": {
        "type": "Point",
        "coordinates": [
          138.662123,
          35.961495
        ]
      },
      "properties": {
        "NO": 37172,
        "共通ID": "E2030400007111",
        "都道府県名及び市町村名": "長野県川上村",
        "施設・場所名": "川上そ菜販売農協",
        "住所": "長野県川上村大字秋山12-58",
        "指定緊急避難場所との住所同一": "1",
        "その他市町村長が必要と認める事項": null,
        "受入対象者": null,
        "備考": ""
      }
    },
    {
      "type": "Feature",
      "geometry": {
        "type": "Point",
        "coordinates": [
          138.650703,
          35.964455
        ]
      },
      "properties": {
        "NO": 37173,
        "共通ID": "E2030400032111",
        "都道府県名及び市町村名": "長野県川上村",
        "施設・場所名": "川上第二小学校",
        "住所": "長野県川上村大字秋山552",
        "指定緊急避難場所との住所同一": "",
        "その他市町村長が必要と認める事項": null,
        "受入対象者": null,
        "備考": ""
      }
    },
    {
      "type": "Feature",
      "geometry": {
        "type": "Point",
        "coordinates": [
          138.649381,
          35.962483
        ]
      },
      "properties": {
        "NO": 37174,
        "共通ID": "E2030400008111",
        "都道府県名及び市町村名": "長野県川上村",
        "施設・場所名": "秋山基幹集落センター",
        "住所": "長野県川上村大字秋山781",
        "指定緊急避難場所との住所同一": "1",
        "その他市町村長が必要と認める事項": null,
        "受入対象者": null,
        "備考": ""
      }
    },
    {
      "type": "Feature",
      "geometry": {
        "type": "Point",
        "coordinates": [
          138.64533,
          35.940469
        ]
      },
      "properties": {
        "NO": 37175,
        "共通ID": "E2030400001111",
        "都道府県名及び市町村名": "長野県川上村",
        "施設・場所名": "川端下公民館",
        "住所": "長野県川上村大字川端下502-1",
        "指定緊急避難場所との住所同一": "1",
        "その他市町村長が必要と認める事項": null,
        "受入対象者": null,
        "備考": ""
      }
    },
    {
      "type": "Feature",
      "geometry": {
        "type": "Point",
        "coordinates": [
          138.641508,
          35.923758
        ]
      },
      "properties": {
        "NO": 37176,
        "共通ID": "E2030400030111",
        "都道府県名及び市町村名": "長野県川上村",
        "施設・場所名": "岩根山荘",
        "住所": "長野県川上村大字川端下547-129",
        "指定緊急避難場所との住所同一": "",
        "その他市町村長が必要と認める事項": null,
        "受入対象者": null,
        "備考": ""
      }
    },
    {
      "type": "Feature",
      "geometry": {
        "type": "Point",
        "coordinates": [
          138.583734,
          35.973977
        ]
      },
      "properties": {
        "NO": 37177,
        "共通ID": "E2030400012111",
        "都道府県名及び市町村名": "長野県川上村",
        "施設・場所名": "川上村文化センター",
        "住所": "長野県川上村大字大深山348-9",
        "指定緊急避難場所との住所同一": "1",
        "その他市町村長が必要と認める事項": null,
        "受入対象者": null,
        "備考": ""
      }
    },
    {
      "type": "Feature",
      "geometry": {
        "type": "Point",
        "coordinates": [
          138.578559,
          35.975445
        ]
      },
      "properties": {
        "NO": 37178,
        "共通ID": "E2030400011111",
        "都道府県名及び市町村名": "長野県川上村",
        "施設・場所名": "川上村交流防災センター",
        "住所": "長野県川上村大字大深山525",
        "指定緊急避難場所との住所同一": "1",
        "その他市町村長が必要と認める事項": "",
        "受入対象者": "",
        "備考": ""
      }
    },
    {
      "type": "Feature",
      "geometry": {
        "type": "Point",
        "coordinates": [
          138.573141,
          35.974111
        ]
      },
      "properties": {
        "NO": 37179,
        "共通ID": "E2030400010111",
        "都道府県名及び市町村名": "長野県川上村",
        "施設・場所名": "大深山公民館",
        "住所": "長野県川上村大字大深山700",
        "指定緊急避難場所との住所同一": "1",
        "その他市町村長が必要と認める事項": null,
        "受入対象者": null,
        "備考": ""
      }
    },
    {
      "type": "Feature",
      "geometry": {
        "type": "Point",
        "coordinates": [
          138.581892,
          35.97306
        ]
      },
      "properties": {
        "NO": 37180,
        "共通ID": "E2030400040111",
        "都道府県名及び市町村名": "長野県川上村",
        "施設・場所名": "かわかみ保育園",
        "住所": "長野県川上村大字大深山79-4",
        "指定緊急避難場所との住所同一": "",
        "その他市町村長が必要と認める事項": null,
        "受入対象者": null,
        "備考": ""
      }
    },
    {
      "type": "Feature",
      "geometry": {
        "type": "Point",
        "coordinates": [
          138.581756,
          35.973637
        ]
      },
      "properties": {
        "NO": 37181,
        "共通ID": "E2030400013111",
        "都道府県名及び市町村名": "長野県川上村",
        "施設・場所名": "川上村民体育館",
        "住所": "長野県川上村大字大深山**",
        "指定緊急避難場所との住所同一": "",
        "その他市町村長が必要と認める事項": null,
        "受入対象者": null,
        "備考": ""
      }
    },
    {
      "type": "Feature",
      "geometry": {
        "type": "Point",
        "coordinates": [
          138.523626,
          35.981679
        ]
      },
      "properties": {
        "NO": 37182,
        "共通ID": "E2030400021111",
        "都道府県名及び市町村名": "長野県川上村",
        "施設・場所名": "樋沢公民館",
        "住所": "長野県川上村大字樋沢1230",
        "指定緊急避難場所との住所同一": "",
        "その他市町村長が必要と認める事項": null,
        "受入対象者": null,
        "備考": ""
      }
    }
  ]
}