{
  "type": "FeatureCollection",
  "name": "212164",
  "features": [
    {
      "type": "Feature",
      "geometry": {
        "type": "Point",
        "coordinates": [
          136.649892,
          35.404743
        ]
      },
      "properties": {
        "NO": 39690,
        "共通ID": "E2121600004111",
        "都道府県名及び市町村名": "岐阜県瑞穂市",
        "施設・場所名": "巣南公民館",
        "住所": "岐阜県瑞穂市宮田300-1",
        "指定緊急避難場所との住所同一": "1",
        "その他市町村長が必要と認める事項": null,
        "受入対象者": null,
        "備考": ""
      }
    },
    {
      "type": "Feature",
      "geometry": {
        "type": "Point",
        "coordinates": [
          136.672657,
          35.379081
        ]
      },
      "properties": {
        "NO": 39691,
        "共通ID": "E2121600008111",
        "都道府県名及び市町村名": "岐阜県瑞穂市",
        "施設・場所名": "牛牧小学校校舎・体育館",
        "住所": "岐阜県瑞穂市牛牧1523",
        "指定緊急避難場所との住所同一": "1",
        "その他市町村長が必要と認める事項": null,
        "受入対象者": null,
        "備考": ""
      }
    },
    {
      "type": "Feature",
      "geometry": {
        "type": "Point",
        "coordinates": [
          136.67258,
          35.377687
        ]
      },
      "properties": {
        "NO": 39692,
        "共通ID": "E2121600009111",
        "都道府県名及び市町村名": "岐阜県瑞穂市",
        "施設・場所名": "牛牧南部コミュニティセンター",
        "住所": "岐阜県瑞穂市牛牧1580-1",
        "指定緊急避難場所との住所同一": "1",
        "その他市町村長が必要と認める事項": null,
        "受入対象者": null,
        "備考": ""
      }
    },
    {
      "type": "Feature",
      "geometry": {
        "type": "Point",
        "coordinates": [
          136.643056,
          35.416562
        ]
      },
      "properties": {
        "NO": 39693,
        "共通ID": "E2121600012111",
        "都道府県名及び市町村名": "岐阜県瑞穂市",
        "施設・場所名": "西保育・教育センター",
        "住所": "岐阜県瑞穂市居倉177-1",
        "指定緊急避難場所との住所同一": "1",
        "その他市町村長が必要と認める事項": null,
        "受入対象者": null,
        "備考": ""
      }
    },
    {
      "type": "Feature",
      "geometry": {
        "type": "Point",
        "coordinates": [
          136.642112,
          35.416168
        ]
      },
      "properties": {
        "NO": 39694,
        "共通ID": "E2121600013111",
        "都道府県名及び市町村名": "岐阜県瑞穂市",
        "施設・場所名": "西小学校校舎・体育館",
        "住所": "岐阜県瑞穂市居倉389",
        "指定緊急避難場所との住所同一": "1",
        "その他市町村長が必要と認める事項": null,
        "受入対象者": null,
        "備考": ""
      }
    },
    {
      "type": "Feature",
      "geometry": {
        "type": "Point",
        "coordinates": [
          136.650862,
          35.40166
        ]
      },
      "properties": {
        "NO": 39695,
        "共通ID": "E2121600014111",
        "都道府県名及び市町村名": "岐阜県瑞穂市",
        "施設・場所名": "巣南中学校校舎・体育館・武道場",
        "住所": "岐阜県瑞穂市古橋10-1",
        "指定緊急避難場所との住所同一": "1",
        "その他市町村長が必要と認める事項": "",
        "受入対象者": "",
        "備考": ""
      }
    },
    {
      "type": "Feature",
      "geometry": {
        "type": "Point",
        "coordinates": [
          136.650986,
          35.391402
        ]
      },
      "properties": {
        "NO": 39696,
        "共通ID": "E2121600015111",
        "都道府県名及び市町村名": "岐阜県瑞穂市",
        "施設・場所名": "南保育・教育センター",
        "住所": "岐阜県瑞穂市古橋1129-1",
        "指定緊急避難場所との住所同一": "1",
        "その他市町村長が必要と認める事項": null,
        "受入対象者": null,
        "備考": ""
      }
    },
    {
      "type": "Feature",
      "geometry": {
        "type": "Point",
        "coordinates": [
          136.6569,
          35.388008
        ]
      },
      "properties": {
        "NO": 39697,
        "共通ID": "E2121600017111",
        "都道府県名及び市町村名": "岐阜県瑞穂市",
        "施設・場所名": "南小学校校舎・体育館",
        "住所": "岐阜県瑞穂市古橋1660",
        "指定緊急避難場所との住所同一": "1",
        "その他市町村長が必要と認める事項": null,
        "受入対象者": null,
        "備考": ""
      }
    },
    {
      "type": "Feature",
      "geometry": {
        "type": "Point",
        "coordinates": [
          136.665884,
          35.392675
        ]
      },
      "properties": {
        "NO": 39698,
        "共通ID": "E2121600020111",
        "都道府県名及び市町村名": "岐阜県瑞穂市",
        "施設・場所名": "牛牧北部防災コミュニティセンター",
        "住所": "岐阜県瑞穂市十九条413-1",
        "指定緊急避難場所との住所同一": "1",
        "その他市町村長が必要と認める事項": null,
        "受入対象者": null,
        "備考": ""
      }
    },
    {
      "type": "Feature",
      "geometry": {
        "type": "Point",
        "coordinates": [
          136.687053,
          35.369622
        ]
      },
      "properties": {
        "NO": 39699,
        "共通ID": "E2121600027111",
        "都道府県名及び市町村名": "岐阜県瑞穂市",
        "施設・場所名": "水防センター",
        "住所": "岐阜県瑞穂市祖父江1143-5",
        "指定緊急避難場所との住所同一": "1",
        "その他市町村長が必要と認める事項": "",
        "受入対象者": "",
        "備考": ""
      }
    },
    {
      "type": "Feature",
      "geometry": {
        "type": "Point",
        "coordinates": [
          136.682035,
          35.380033
        ]
      },
      "properties": {
        "NO": 39700,
        "共通ID": "E2121600029111",
        "都道府県名及び市町村名": "岐阜県瑞穂市",
        "施設・場所名": "牛牧保育所",
        "住所": "岐阜県瑞穂市祖父江170",
        "指定緊急避難場所との住所同一": "1",
        "その他市町村長が必要と認める事項": "",
        "受入対象者": "",
        "備考": ""
      }
    },
    {
      "type": "Feature",
      "geometry": {
        "type": "Point",
        "coordinates": [
          136.678067,
          35.39891
        ]
      },
      "properties": {
        "NO": 39701,
        "共通ID": "E2121600030111",
        "都道府県名及び市町村名": "岐阜県瑞穂市",
        "施設・場所名": "本田第２保育所",
        "住所": "岐阜県瑞穂市只越387",
        "指定緊急避難場所との住所同一": "1",
        "その他市町村長が必要と認める事項": null,
        "受入対象者": null,
        "備考": ""
      }
    },
    {
      "type": "Feature",
      "geometry": {
        "type": "Point",
        "coordinates": [
          136.684542,
          35.398173
        ]
      },
      "properties": {
        "NO": 39702,
        "共通ID": "E2121600031111",
        "都道府県名及び市町村名": "岐阜県瑞穂市",
        "施設・場所名": "ほづみ幼稚園",
        "住所": "岐阜県瑞穂市只越500",
        "指定緊急避難場所との住所同一": "1",
        "その他市町村長が必要と認める事項": null,
        "受入対象者": null,
        "備考": ""
      }
    },
    {
      "type": "Feature",
      "geometry": {
        "type": "Point",
        "coordinates": [
          136.650006,
          35.406366
        ]
      },
      "properties": {
        "NO": 39703,
        "共通ID": "E2121600032121",
        "都道府県名及び市町村名": "岐阜県瑞穂市",
        "施設・場所名": "老人福祉センター",
        "住所": "岐阜県瑞穂市田之上597",
        "指定緊急避難場所との住所同一": "1",
        "その他市町村長が必要と認める事項": "",
        "受入対象者": "要配慮者",
        "備考": ""
      }
    },
    {
      "type": "Feature",
      "geometry": {
        "type": "Point",
        "coordinates": [
          136.684483,
          35.411295
        ]
      },
      "properties": {
        "NO": 39704,
        "共通ID": "E2121600036111",
        "都道府県名及び市町村名": "岐阜県瑞穂市",
        "施設・場所名": "生津小学校校舎・体育館",
        "住所": "岐阜県瑞穂市馬場上光町2-108",
        "指定緊急避難場所との住所同一": "1",
        "その他市町村長が必要と認める事項": null,
        "受入対象者": null,
        "備考": ""
      }
    },
    {
      "type": "Feature",
      "geometry": {
        "type": "Point",
        "coordinates": [
          136.65803,
          35.411144
        ]
      },
      "properties": {
        "NO": 39705,
        "共通ID": "E2121600038111",
        "都道府県名及び市町村名": "岐阜県瑞穂市",
        "施設・場所名": "中小学校校舎・体育館",
        "住所": "岐阜県瑞穂市美江寺173",
        "指定緊急避難場所との住所同一": "1",
        "その他市町村長が必要と認める事項": null,
        "受入対象者": null,
        "備考": ""
      }
    },
    {
      "type": "Feature",
      "geometry": {
        "type": "Point",
        "coordinates": [
          136.659962,
          35.410735
        ]
      },
      "properties": {
        "NO": 39706,
        "共通ID": "E2121600039111",
        "都道府県名及び市町村名": "岐阜県瑞穂市",
        "施設・場所名": "中保育・教育センター",
        "住所": "岐阜県瑞穂市美江寺223",
        "指定緊急避難場所との住所同一": "1",
        "その他市町村長が必要と認める事項": null,
        "受入対象者": null,
        "備考": ""
      }
    },
    {
      "type": "Feature",
      "geometry": {
        "type": "Point",
        "coordinates": [
          136.689876,
          35.391523
        ]
      },
      "properties": {
        "NO": 39707,
        "共通ID": "E2121600041111",
        "都道府県名及び市町村名": "岐阜県瑞穂市",
        "施設・場所名": "市民センター",
        "住所": "岐阜県瑞穂市別府1300-3",
        "指定緊急避難場所との住所同一": "1",
        "その他市町村長が必要と認める事項": null,
        "受入対象者": null,
        "備考": ""
      }
    },
    {
      "type": "Feature",
      "geometry": {
        "type": "Point",
        "coordinates": [
          136.689015,
          35.397534
        ]
      },
      "properties": {
        "NO": 39708,
        "共通ID": "E2121600043111",
        "都道府県名及び市町村名": "岐阜県瑞穂市",
        "施設・場所名": "別府保育所",
        "住所": "岐阜県瑞穂市別府144-1",
        "指定緊急避難場所との住所同一": "1",
        "その他市町村長が必要と認める事項": "",
        "受入対象者": "",
        "備考": ""
      }
    },
    {
      "type": "Feature",
      "geometry": {
        "type": "Point",
        "coordinates": [
          136.686602,
          35.391993
        ]
      },
      "properties": {
        "NO": 39709,
        "共通ID": "E2121600045111",
        "都道府県名及び市町村名": "岐阜県瑞穂市",
        "施設・場所名": "穂積中学校校舎・体育館",
        "住所": "岐阜県瑞穂市別府1888",
        "指定緊急避難場所との住所同一": "1",
        "その他市町村長が必要と認める事項": null,
        "受入対象者": null,
        "備考": ""
      }
    },
    {
      "type": "Feature",
      "geometry": {
        "type": "Point",
        "coordinates": [
          136.690516,
          35.380752
        ]
      },
      "properties": {
        "NO": 39710,
        "共通ID": "E2121600046111",
        "都道府県名及び市町村名": "岐阜県瑞穂市",
        "施設・場所名": "朝日大学６号館・１０周年記念館",
        "住所": "岐阜県瑞穂市穂積1851",
        "指定緊急避難場所との住所同一": "1",
        "その他市町村長が必要と認める事項": null,
        "受入対象者": null,
        "備考": ""
      }
    },
    {
      "type": "Feature",
      "geometry": {
        "type": "Point",
        "coordinates": [
          136.694745,
          35.389789
        ]
      },
      "properties": {
        "NO": 39711,
        "共通ID": "E2121600048111",
        "都道府県名及び市町村名": "岐阜県瑞穂市",
        "施設・場所名": "穂積小学校校舎・体育館",
        "住所": "岐阜県瑞穂市穂積452",
        "指定緊急避難場所との住所同一": "1",
        "その他市町村長が必要と認める事項": null,
        "受入対象者": null,
        "備考": ""
      }
    },
    {
      "type": "Feature",
      "geometry": {
        "type": "Point",
        "coordinates": [
          136.681185,
          35.407895
        ]
      },
      "properties": {
        "NO": 39712,
        "共通ID": "E2121600050111",
        "都道府県名及び市町村名": "岐阜県瑞穂市",
        "施設・場所名": "本田第１保育所",
        "住所": "岐阜県瑞穂市本田1915",
        "指定緊急避難場所との住所同一": "1",
        "その他市町村長が必要と認める事項": null,
        "受入対象者": null,
        "備考": ""
      }
    },
    {
      "type": "Feature",
      "geometry": {
        "type": "Point",
        "coordinates": [
          136.687168,
          35.403845
        ]
      },
      "properties": {
        "NO": 39713,
        "共通ID": "E2121600051111",
        "都道府県名及び市町村名": "岐阜県瑞穂市",
        "施設・場所名": "穂積北中学校校舎・体育館",
        "住所": "岐阜県瑞穂市本田2000",
        "指定緊急避難場所との住所同一": "1",
        "その他市町村長が必要と認める事項": null,
        "受入対象者": null,
        "備考": ""
      }
    },
    {
      "type": "Feature",
      "geometry": {
        "type": "Point",
        "coordinates": [
          136.677641,
          35.40766
        ]
      },
      "properties": {
        "NO": 39714,
        "共通ID": "E2121600053111",
        "都道府県名及び市町村名": "岐阜県瑞穂市",
        "施設・場所名": "本田小学校校舎・体育館",
        "住所": "岐阜県瑞穂市本田938",
        "指定緊急避難場所との住所同一": "1",
        "その他市町村長が必要と認める事項": null,
        "受入対象者": null,
        "備考": ""
      }
    },
    {
      "type": "Feature",
      "geometry": {
        "type": "Point",
        "coordinates": [
          136.677598,
          35.405418
        ]
      },
      "properties": {
        "NO": 39715,
        "共通ID": "E2121600054111",
        "都道府県名及び市町村名": "岐阜県瑞穂市",
        "施設・場所名": "本田コミュニティセンター",
        "住所": "岐阜県瑞穂市本田977-1",
        "指定緊急避難場所との住所同一": "1",
        "その他市町村長が必要と認める事項": null,
        "受入対象者": null,
        "備考": ""
      }
    }
  ]
}