{
  "type": "FeatureCollection",
  "name": "212211",
  "features": [
    {
      "type": "Feature",
      "geometry": {
        "type": "Point",
        "coordinates": [
          136.634373,
          35.183943
        ]
      },
      "properties": {
        "NO": 40040,
        "共通ID": "E2122100001111",
        "都道府県名及び市町村名": "岐阜県海津市",
        "施設・場所名": "旧西江小学校（体育館含む）",
        "住所": "岐阜県海津市海津町安田72",
        "指定緊急避難場所との住所同一": "1",
        "その他市町村長が必要と認める事項": "",
        "受入対象者": "",
        "備考": ""
      }
    },
    {
      "type": "Feature",
      "geometry": {
        "type": "Point",
        "coordinates": [
          136.640617,
          35.216349
        ]
      },
      "properties": {
        "NO": 40041,
        "共通ID": "E2122100002111",
        "都道府県名及び市町村名": "岐阜県海津市",
        "施設・場所名": "木曽三川輪中ミュージアム",
        "住所": "岐阜県海津市海津町萱野205-1",
        "指定緊急避難場所との住所同一": "1",
        "その他市町村長が必要と認める事項": "",
        "受入対象者": "",
        "備考": ""
      }
    },
    {
      "type": "Feature",
      "geometry": {
        "type": "Point",
        "coordinates": [
          136.671316,
          35.213954
        ]
      },
      "properties": {
        "NO": 40042,
        "共通ID": "E2122100004111",
        "都道府県名及び市町村名": "岐阜県海津市",
        "施設・場所名": "旧東江小学校（体育館含む）",
        "住所": "岐阜県海津市海津町駒ケ江159",
        "指定緊急避難場所との住所同一": "1",
        "その他市町村長が必要と認める事項": "",
        "受入対象者": "",
        "備考": ""
      }
    },
    {
      "type": "Feature",
      "geometry": {
        "type": "Point",
        "coordinates": [
          136.666311,
          35.173842
        ]
      },
      "properties": {
        "NO": 40043,
        "共通ID": "E2122100005111",
        "都道府県名及び市町村名": "岐阜県海津市",
        "施設・場所名": "旧大江小学校（体育館含む）",
        "住所": "岐阜県海津市海津町古中島204",
        "指定緊急避難場所との住所同一": "1",
        "その他市町村長が必要と認める事項": "",
        "受入対象者": "",
        "備考": ""
      }
    },
    {
      "type": "Feature",
      "geometry": {
        "type": "Point",
        "coordinates": [
          136.63655,
          35.220518
        ]
      },
      "properties": {
        "NO": 40044,
        "共通ID": "E2122100006111",
        "都道府県名及び市町村名": "岐阜県海津市",
        "施設・場所名": "海津庁舎（大会議室）",
        "住所": "岐阜県海津市海津町高須515",
        "指定緊急避難場所との住所同一": "1",
        "その他市町村長が必要と認める事項": null,
        "受入対象者": null,
        "備考": ""
      }
    },
    {
      "type": "Feature",
      "geometry": {
        "type": "Point",
        "coordinates": [
          136.635379,
          35.220254
        ]
      },
      "properties": {
        "NO": 40045,
        "共通ID": "E2122100007121",
        "都道府県名及び市町村名": "岐阜県海津市",
        "施設・場所名": "海津総合福祉会館（ひまわり）",
        "住所": "岐阜県海津市海津町高須517-1",
        "指定緊急避難場所との住所同一": "",
        "その他市町村長が必要と認める事項": null,
        "受入対象者": "要配慮者",
        "備考": ""
      }
    },
    {
      "type": "Feature",
      "geometry": {
        "type": "Point",
        "coordinates": [
          136.638471,
          35.219791
        ]
      },
      "properties": {
        "NO": 40046,
        "共通ID": "E2122100008111",
        "都道府県名及び市町村名": "岐阜県海津市",
        "施設・場所名": "日新中学校（体育館含む）",
        "住所": "岐阜県海津市海津町高須531-1",
        "指定緊急避難場所との住所同一": "1",
        "その他市町村長が必要と認める事項": null,
        "受入対象者": null,
        "備考": ""
      }
    },
    {
      "type": "Feature",
      "geometry": {
        "type": "Point",
        "coordinates": [
          136.639,
          35.217867
        ]
      },
      "properties": {
        "NO": 40047,
        "共通ID": "E2122100009111",
        "都道府県名及び市町村名": "岐阜県海津市",
        "施設・場所名": "文化センター",
        "住所": "岐阜県海津市海津町高須585-1",
        "指定緊急避難場所との住所同一": "1",
        "その他市町村長が必要と認める事項": "",
        "受入対象者": "",
        "備考": ""
      }
    },
    {
      "type": "Feature",
      "geometry": {
        "type": "Point",
        "coordinates": [
          136.632282,
          35.223643
        ]
      },
      "properties": {
        "NO": 40048,
        "共通ID": "E2122100010111",
        "都道府県名及び市町村名": "岐阜県海津市",
        "施設・場所名": "海津明誠高等学校（体育館含む）",
        "住所": "岐阜県海津市海津町高須町11-1",
        "指定緊急避難場所との住所同一": "1",
        "その他市町村長が必要と認める事項": null,
        "受入対象者": null,
        "備考": ""
      }
    },
    {
      "type": "Feature",
      "geometry": {
        "type": "Point",
        "coordinates": [
          136.629543,
          35.221414
        ]
      },
      "properties": {
        "NO": 40049,
        "共通ID": "E2122100011111",
        "都道府県名及び市町村名": "岐阜県海津市",
        "施設・場所名": "海津小学校（体育館含む）",
        "住所": "岐阜県海津市海津町高須町337",
        "指定緊急避難場所との住所同一": "1",
        "その他市町村長が必要と認める事項": "",
        "受入対象者": "",
        "備考": ""
      }
    },
    {
      "type": "Feature",
      "geometry": {
        "type": "Point",
        "coordinates": [
          136.661252,
          35.225113
        ]
      },
      "properties": {
        "NO": 40050,
        "共通ID": "E2122100045121",
        "都道府県名及び市町村名": "岐阜県海津市",
        "施設・場所名": "あいさんハウス・ぎふ",
        "住所": "岐阜県海津市海津町鹿野1050-1",
        "指定緊急避難場所との住所同一": "",
        "その他市町村長が必要と認める事項": "",
        "受入対象者": "",
        "備考": ""
      }
    },
    {
      "type": "Feature",
      "geometry": {
        "type": "Point",
        "coordinates": [
          136.658597,
          35.241645
        ]
      },
      "properties": {
        "NO": 40051,
        "共通ID": "E2122100012111",
        "都道府県名及び市町村名": "岐阜県海津市",
        "施設・場所名": "旧吉里小学校（体育館含む）",
        "住所": "岐阜県海津市海津町松木776-1",
        "指定緊急避難場所との住所同一": "1",
        "その他市町村長が必要と認める事項": "",
        "受入対象者": "",
        "備考": ""
      }
    },
    {
      "type": "Feature",
      "geometry": {
        "type": "Point",
        "coordinates": [
          136.669897,
          35.163714
        ]
      },
      "properties": {
        "NO": 40052,
        "共通ID": "E2122100013111",
        "都道府県名及び市町村名": "岐阜県海津市",
        "施設・場所名": "長良川サービスセンター",
        "住所": "岐阜県海津市海津町福江1202-2",
        "指定緊急避難場所との住所同一": "1",
        "その他市町村長が必要と認める事項": null,
        "受入対象者": null,
        "備考": ""
      }
    },
    {
      "type": "Feature",
      "geometry": {
        "type": "Point",
        "coordinates": [
          136.660456,
          35.171914
        ]
      },
      "properties": {
        "NO": 40053,
        "共通ID": "E2122100040121",
        "都道府県名及び市町村名": "岐阜県海津市",
        "施設・場所名": "しょうふう海津",
        "住所": "岐阜県海津市海津町福江656-1",
        "指定緊急避難場所との住所同一": "",
        "その他市町村長が必要と認める事項": "",
        "受入対象者": "施設利用者、入居者",
        "備考": ""
      }
    },
    {
      "type": "Feature",
      "geometry": {
        "type": "Point",
        "coordinates": [
          136.660376,
          35.172901
        ]
      },
      "properties": {
        "NO": 40054,
        "共通ID": "E2122100041121",
        "都道府県名及び市町村名": "岐阜県海津市",
        "施設・場所名": "はつらつ海津",
        "住所": "岐阜県海津市海津町福江656-2",
        "指定緊急避難場所との住所同一": "",
        "その他市町村長が必要と認める事項": "",
        "受入対象者": "施設利用者、入居者",
        "備考": ""
      }
    },
    {
      "type": "Feature",
      "geometry": {
        "type": "Point",
        "coordinates": [
          136.630219,
          35.228909
        ]
      },
      "properties": {
        "NO": 40055,
        "共通ID": "E2122100038121",
        "都道府県名及び市町村名": "岐阜県海津市",
        "施設・場所名": "たかすの華",
        "住所": "岐阜県海津市海津町平原318-2",
        "指定緊急避難場所との住所同一": "",
        "その他市町村長が必要と認める事項": "",
        "受入対象者": "施設利用者、入居者",
        "備考": ""
      }
    },
    {
      "type": "Feature",
      "geometry": {
        "type": "Point",
        "coordinates": [
          136.601259,
          35.218994
        ]
      },
      "properties": {
        "NO": 40056,
        "共通ID": "E2122100017111",
        "都道府県名及び市町村名": "岐阜県海津市",
        "施設・場所名": "城南中学校（体育館含む）",
        "住所": "岐阜県海津市南濃町羽沢1050",
        "指定緊急避難場所との住所同一": "1",
        "その他市町村長が必要と認める事項": null,
        "受入対象者": null,
        "備考": ""
      }
    },
    {
      "type": "Feature",
      "geometry": {
        "type": "Point",
        "coordinates": [
          136.629778,
          35.172436
        ]
      },
      "properties": {
        "NO": 40057,
        "共通ID": "E2122100020111",
        "都道府県名及び市町村名": "岐阜県海津市",
        "施設・場所名": "石津小学校（体育館含む）",
        "住所": "岐阜県海津市南濃町吉田319",
        "指定緊急避難場所との住所同一": "1",
        "その他市町村長が必要と認める事項": null,
        "受入対象者": null,
        "備考": ""
      }
    },
    {
      "type": "Feature",
      "geometry": {
        "type": "Point",
        "coordinates": [
          136.625517,
          35.174308
        ]
      },
      "properties": {
        "NO": 40058,
        "共通ID": "E2122100021111",
        "都道府県名及び市町村名": "岐阜県海津市",
        "施設・場所名": "働く女性の家",
        "住所": "岐阜県海津市南濃町吉田492",
        "指定緊急避難場所との住所同一": "1",
        "その他市町村長が必要と認める事項": "",
        "受入対象者": "",
        "備考": ""
      }
    },
    {
      "type": "Feature",
      "geometry": {
        "type": "Point",
        "coordinates": [
          136.643387,
          35.157521
        ]
      },
      "properties": {
        "NO": 40059,
        "共通ID": "E2122100043121",
        "都道府県名及び市町村名": "岐阜県海津市",
        "施設・場所名": "長寿の里・海津",
        "住所": "岐阜県海津市南濃町境70-1",
        "指定緊急避難場所との住所同一": "",
        "その他市町村長が必要と認める事項": "",
        "受入対象者": "",
        "備考": ""
      }
    },
    {
      "type": "Feature",
      "geometry": {
        "type": "Point",
        "coordinates": [
          136.593608,
          35.228633
        ]
      },
      "properties": {
        "NO": 40060,
        "共通ID": "E2122100023111",
        "都道府県名及び市町村名": "岐阜県海津市",
        "施設・場所名": "城山小学校（体育館含む）",
        "住所": "岐阜県海津市南濃町駒野1317-8",
        "指定緊急避難場所との住所同一": "1",
        "その他市町村長が必要と認める事項": null,
        "受入対象者": null,
        "備考": ""
      }
    },
    {
      "type": "Feature",
      "geometry": {
        "type": "Point",
        "coordinates": [
          136.606108,
          35.221807
        ]
      },
      "properties": {
        "NO": 40061,
        "共通ID": "E2122100024121",
        "都道府県名及び市町村名": "岐阜県海津市",
        "施設・場所名": "南濃総合福祉会館（ゆとりの森）",
        "住所": "岐阜県海津市南濃町駒野827-1",
        "指定緊急避難場所との住所同一": "",
        "その他市町村長が必要と認める事項": null,
        "受入対象者": "要配慮者",
        "備考": ""
      }
    },
    {
      "type": "Feature",
      "geometry": {
        "type": "Point",
        "coordinates": [
          136.561817,
          35.244752
        ]
      },
      "properties": {
        "NO": 40062,
        "共通ID": "E2122100044121",
        "都道府県名及び市町村名": "岐阜県海津市",
        "施設・場所名": "長寿の里・南濃",
        "住所": "岐阜県海津市南濃町志津719-1",
        "指定緊急避難場所との住所同一": "",
        "その他市町村長が必要と認める事項": "",
        "受入対象者": "",
        "備考": ""
      }
    },
    {
      "type": "Feature",
      "geometry": {
        "type": "Point",
        "coordinates": [
          136.564523,
          35.25693
        ]
      },
      "properties": {
        "NO": 40063,
        "共通ID": "E2122100025111",
        "都道府県名及び市町村名": "岐阜県海津市",
        "施設・場所名": "下多度小学校（体育館含む）",
        "住所": "岐阜県海津市南濃町津屋1869",
        "指定緊急避難場所との住所同一": "1",
        "その他市町村長が必要と認める事項": null,
        "受入対象者": null,
        "備考": ""
      }
    },
    {
      "type": "Feature",
      "geometry": {
        "type": "Point",
        "coordinates": [
          136.565074,
          35.24824
        ]
      },
      "properties": {
        "NO": 40064,
        "共通ID": "E2122100027111",
        "都道府県名及び市町村名": "岐阜県海津市",
        "施設・場所名": "南濃コミュニティセンター",
        "住所": "岐阜県海津市南濃町津屋2837-263",
        "指定緊急避難場所との住所同一": "1",
        "その他市町村長が必要と認める事項": null,
        "受入対象者": null,
        "備考": ""
      }
    },
    {
      "type": "Feature",
      "geometry": {
        "type": "Point",
        "coordinates": [
          136.565423,
          35.248327
        ]
      },
      "properties": {
        "NO": 40065,
        "共通ID": "E2122100028111",
        "都道府県名及び市町村名": "岐阜県海津市",
        "施設・場所名": "みかげの森「プラザしもたど」",
        "住所": "岐阜県海津市南濃町津屋2837-90",
        "指定緊急避難場所との住所同一": "1",
        "その他市町村長が必要と認める事項": null,
        "受入対象者": null,
        "備考": ""
      }
    },
    {
      "type": "Feature",
      "geometry": {
        "type": "Point",
        "coordinates": [
          136.625076,
          35.246647
        ]
      },
      "properties": {
        "NO": 40066,
        "共通ID": "E2122100030121",
        "都道府県名及び市町村名": "岐阜県海津市",
        "施設・場所名": "海津特別支援学校体育館",
        "住所": "岐阜県海津市平田町今尾3885-2",
        "指定緊急避難場所との住所同一": "",
        "その他市町村長が必要と認める事項": "",
        "受入対象者": "生徒、生徒の保護者",
        "備考": ""
      }
    },
    {
      "type": "Feature",
      "geometry": {
        "type": "Point",
        "coordinates": [
          136.627881,
          35.253333
        ]
      },
      "properties": {
        "NO": 40067,
        "共通ID": "E2122100031111",
        "都道府県名及び市町村名": "岐阜県海津市",
        "施設・場所名": "今尾小学校（体育館含む）",
        "住所": "岐阜県海津市平田町今尾4434",
        "指定緊急避難場所との住所同一": "1",
        "その他市町村長が必要と認める事項": null,
        "受入対象者": null,
        "備考": ""
      }
    },
    {
      "type": "Feature",
      "geometry": {
        "type": "Point",
        "coordinates": [
          136.634949,
          35.256073
        ]
      },
      "properties": {
        "NO": 40068,
        "共通ID": "E2122100042111",
        "都道府県名及び市町村名": "岐阜県海津市",
        "施設・場所名": "平田体育館",
        "住所": "岐阜県海津市平田町今尾503",
        "指定緊急避難場所との住所同一": "1",
        "その他市町村長が必要と認める事項": "",
        "受入対象者": "",
        "備考": ""
      }
    },
    {
      "type": "Feature",
      "geometry": {
        "type": "Point",
        "coordinates": [
          136.636093,
          35.256035
        ]
      },
      "properties": {
        "NO": 40069,
        "共通ID": "E2122100032111",
        "都道府県名及び市町村名": "岐阜県海津市",
        "施設・場所名": "ふるさと会館",
        "住所": "岐阜県海津市平田町今尾614-1",
        "指定緊急避難場所との住所同一": "1",
        "その他市町村長が必要と認める事項": "",
        "受入対象者": "",
        "備考": ""
      }
    },
    {
      "type": "Feature",
      "geometry": {
        "type": "Point",
        "coordinates": [
          136.642879,
          35.255379
        ]
      },
      "properties": {
        "NO": 40070,
        "共通ID": "E2122100033111",
        "都道府県名及び市町村名": "岐阜県海津市",
        "施設・場所名": "平田中学校（体育館含む）",
        "住所": "岐阜県海津市平田町蛇池1318",
        "指定緊急避難場所との住所同一": "1",
        "その他市町村長が必要と認める事項": null,
        "受入対象者": null,
        "備考": ""
      }
    },
    {
      "type": "Feature",
      "geometry": {
        "type": "Point",
        "coordinates": [
          136.636706,
          35.256907
        ]
      },
      "properties": {
        "NO": 40071,
        "共通ID": "E2122100034121",
        "都道府県名及び市町村名": "岐阜県海津市",
        "施設・場所名": "こども未来館",
        "住所": "岐阜県海津市平田町仏師川483",
        "指定緊急避難場所との住所同一": "",
        "その他市町村長が必要と認める事項": "",
        "受入対象者": "要配慮者",
        "備考": ""
      }
    },
    {
      "type": "Feature",
      "geometry": {
        "type": "Point",
        "coordinates": [
          136.662232,
          35.273817
        ]
      },
      "properties": {
        "NO": 40072,
        "共通ID": "E2122100036111",
        "都道府県名及び市町村名": "岐阜県海津市",
        "施設・場所名": "海西小学校（体育館含む）",
        "住所": "岐阜県海津市平田町野寺1023",
        "指定緊急避難場所との住所同一": "1",
        "その他市町村長が必要と認める事項": null,
        "受入対象者": null,
        "備考": ""
      }
    },
    {
      "type": "Feature",
      "geometry": {
        "type": "Point",
        "coordinates": [
          136.662521,
          35.272713
        ]
      },
      "properties": {
        "NO": 40073,
        "共通ID": "E2122100039121",
        "都道府県名及び市町村名": "岐阜県海津市",
        "施設・場所名": "かいさいの華",
        "住所": "岐阜県海津市平田町野寺1092-1",
        "指定緊急避難場所との住所同一": "",
        "その他市町村長が必要と認める事項": "",
        "受入対象者": "施設利用者、入居者",
        "備考": ""
      }
    },
    {
      "type": "Feature",
      "geometry": {
        "type": "Point",
        "coordinates": [
          136.666982,
          35.274438
        ]
      },
      "properties": {
        "NO": 40074,
        "共通ID": "E2122100037111",
        "都道府県名及び市町村名": "岐阜県海津市",
        "施設・場所名": "平田海西公民館",
        "住所": "岐阜県海津市平田町野寺1359-1",
        "指定緊急避難場所との住所同一": "1",
        "その他市町村長が必要と認める事項": null,
        "受入対象者": null,
        "備考": ""
      }
    }
  ]
}