{
  "type": "FeatureCollection",
  "name": "213039",
  "features": [
    {
      "type": "Feature",
      "geometry": {
        "type": "Point",
        "coordinates": [
          136.783317,
          35.373617
        ]
      },
      "properties": {
        "NO": 40103,
        "共通ID": "E2130300001111",
        "都道府県名及び市町村名": "岐阜県笠松町",
        "施設・場所名": "円城寺集会場",
        "住所": "岐阜県笠松町円城寺1471",
        "指定緊急避難場所との住所同一": "1",
        "その他市町村長が必要と認める事項": "",
        "受入対象者": "",
        "備考": ""
      }
    },
    {
      "type": "Feature",
      "geometry": {
        "type": "Point",
        "coordinates": [
          136.759922,
          35.370299
        ]
      },
      "properties": {
        "NO": 40104,
        "共通ID": "E2130300002112",
        "都道府県名及び市町村名": "岐阜県笠松町",
        "施設・場所名": "笠松小学校",
        "住所": "岐阜県笠松町下新町87",
        "指定緊急避難場所との住所同一": "1",
        "その他市町村長が必要と認める事項": "",
        "受入対象者": "",
        "備考": ""
      }
    },
    {
      "type": "Feature",
      "geometry": {
        "type": "Point",
        "coordinates": [
          136.760136,
          35.369897
        ]
      },
      "properties": {
        "NO": 40105,
        "共通ID": "E2130300002111",
        "都道府県名及び市町村名": "岐阜県笠松町",
        "施設・場所名": "笠松小学校体育館",
        "住所": "岐阜県笠松町下新町87",
        "指定緊急避難場所との住所同一": "1",
        "その他市町村長が必要と認める事項": "",
        "受入対象者": "",
        "備考": ""
      }
    },
    {
      "type": "Feature",
      "geometry": {
        "type": "Point",
        "coordinates": [
          136.802943,
          35.377842
        ]
      },
      "properties": {
        "NO": 40106,
        "共通ID": "E2130300004111",
        "都道府県名及び市町村名": "岐阜県笠松町",
        "施設・場所名": "スポーツ交流館",
        "住所": "岐阜県笠松町江川116",
        "指定緊急避難場所との住所同一": "1",
        "その他市町村長が必要と認める事項": "",
        "受入対象者": "",
        "備考": ""
      }
    },
    {
      "type": "Feature",
      "geometry": {
        "type": "Point",
        "coordinates": [
          136.753404,
          35.37014
        ]
      },
      "properties": {
        "NO": 40107,
        "共通ID": "E2130300024111",
        "都道府県名及び市町村名": "岐阜県笠松町",
        "施設・場所名": "こども館",
        "住所": "岐阜県笠松町桜町93",
        "指定緊急避難場所との住所同一": "1",
        "その他市町村長が必要と認める事項": "",
        "受入対象者": "",
        "備考": ""
      }
    },
    {
      "type": "Feature",
      "geometry": {
        "type": "Point",
        "coordinates": [
          136.762685,
          35.37212
        ]
      },
      "properties": {
        "NO": 40108,
        "共通ID": "E2130300006111",
        "都道府県名及び市町村名": "岐阜県笠松町",
        "施設・場所名": "第一保育所",
        "住所": "岐阜県笠松町上新町172",
        "指定緊急避難場所との住所同一": "1",
        "その他市町村長が必要と認める事項": "",
        "受入対象者": "",
        "備考": ""
      }
    },
    {
      "type": "Feature",
      "geometry": {
        "type": "Point",
        "coordinates": [
          136.761308,
          35.374397
        ]
      },
      "properties": {
        "NO": 40109,
        "共通ID": "E2130300008111",
        "都道府県名及び市町村名": "岐阜県笠松町",
        "施設・場所名": "岐阜工業高等学校体育館",
        "住所": "岐阜県笠松町常盤町1700",
        "指定緊急避難場所との住所同一": "1",
        "その他市町村長が必要と認める事項": "",
        "受入対象者": "",
        "備考": ""
      }
    },
    {
      "type": "Feature",
      "geometry": {
        "type": "Point",
        "coordinates": [
          136.760723,
          35.373709
        ]
      },
      "properties": {
        "NO": 40110,
        "共通ID": "E2130300010112",
        "都道府県名及び市町村名": "岐阜県笠松町",
        "施設・場所名": "中央交流センター",
        "住所": "岐阜県笠松町常盤町6",
        "指定緊急避難場所との住所同一": "1",
        "その他市町村長が必要と認める事項": "",
        "受入対象者": "",
        "備考": ""
      }
    },
    {
      "type": "Feature",
      "geometry": {
        "type": "Point",
        "coordinates": [
          136.76097,
          35.373989
        ]
      },
      "properties": {
        "NO": 40111,
        "共通ID": "E2130300010111",
        "都道府県名及び市町村名": "岐阜県笠松町",
        "施設・場所名": "町民体育館",
        "住所": "岐阜県笠松町常盤町6",
        "指定緊急避難場所との住所同一": "1",
        "その他市町村長が必要と認める事項": "",
        "受入対象者": "",
        "備考": ""
      }
    },
    {
      "type": "Feature",
      "geometry": {
        "type": "Point",
        "coordinates": [
          136.75912,
          35.36805
        ]
      },
      "properties": {
        "NO": 40112,
        "共通ID": "E2130300012111",
        "都道府県名及び市町村名": "岐阜県笠松町",
        "施設・場所名": "笠松保育園",
        "住所": "岐阜県笠松町西宮町44-2",
        "指定緊急避難場所との住所同一": "1",
        "その他市町村長が必要と認める事項": "",
        "受入対象者": "",
        "備考": ""
      }
    },
    {
      "type": "Feature",
      "geometry": {
        "type": "Point",
        "coordinates": [
          136.761373,
          35.371243
        ]
      },
      "properties": {
        "NO": 40113,
        "共通ID": "E2130300013111",
        "都道府県名及び市町村名": "岐阜県笠松町",
        "施設・場所名": "コミュニティ消防センター",
        "住所": "岐阜県笠松町中新町29",
        "指定緊急避難場所との住所同一": "1",
        "その他市町村長が必要と認める事項": "",
        "受入対象者": "",
        "備考": ""
      }
    },
    {
      "type": "Feature",
      "geometry": {
        "type": "Point",
        "coordinates": [
          136.795391,
          35.374779
        ]
      },
      "properties": {
        "NO": 40114,
        "共通ID": "E2130300015112",
        "都道府県名及び市町村名": "岐阜県笠松町",
        "施設・場所名": "下羽栗小学校",
        "住所": "岐阜県笠松町中野227",
        "指定緊急避難場所との住所同一": "1",
        "その他市町村長が必要と認める事項": "",
        "受入対象者": "",
        "備考": ""
      }
    },
    {
      "type": "Feature",
      "geometry": {
        "type": "Point",
        "coordinates": [
          136.794683,
          35.374639
        ]
      },
      "properties": {
        "NO": 40115,
        "共通ID": "E2130300015111",
        "都道府県名及び市町村名": "岐阜県笠松町",
        "施設・場所名": "下羽栗小学校体育館",
        "住所": "岐阜県笠松町中野227",
        "指定緊急避難場所との住所同一": "1",
        "その他市町村長が必要と認める事項": "",
        "受入対象者": "",
        "備考": ""
      }
    },
    {
      "type": "Feature",
      "geometry": {
        "type": "Point",
        "coordinates": [
          136.79539,
          35.373965
        ]
      },
      "properties": {
        "NO": 40116,
        "共通ID": "E2130300016111",
        "都道府県名及び市町村名": "岐阜県笠松町",
        "施設・場所名": "総合交流センター",
        "住所": "岐阜県笠松町中野229",
        "指定緊急避難場所との住所同一": "1",
        "その他市町村長が必要と認める事項": "",
        "受入対象者": "",
        "備考": ""
      }
    },
    {
      "type": "Feature",
      "geometry": {
        "type": "Point",
        "coordinates": [
          136.793675,
          35.372795
        ]
      },
      "properties": {
        "NO": 40117,
        "共通ID": "E2130300017111",
        "都道府県名及び市町村名": "岐阜県笠松町",
        "施設・場所名": "下羽栗会館",
        "住所": "岐阜県笠松町中野317",
        "指定緊急避難場所との住所同一": "1",
        "その他市町村長が必要と認める事項": "",
        "受入対象者": "",
        "備考": ""
      }
    },
    {
      "type": "Feature",
      "geometry": {
        "type": "Point",
        "coordinates": [
          136.750511,
          35.354206
        ]
      },
      "properties": {
        "NO": 40118,
        "共通ID": "E2130300018111",
        "都道府県名及び市町村名": "岐阜県笠松町",
        "施設・場所名": "松枝交流センター",
        "住所": "岐阜県笠松町長池292",
        "指定緊急避難場所との住所同一": "1",
        "その他市町村長が必要と認める事項": "",
        "受入対象者": "",
        "備考": ""
      }
    },
    {
      "type": "Feature",
      "geometry": {
        "type": "Point",
        "coordinates": [
          136.750179,
          35.358695
        ]
      },
      "properties": {
        "NO": 40119,
        "共通ID": "E2130300019111",
        "都道府県名及び市町村名": "岐阜県笠松町",
        "施設・場所名": "笠松幼稚園",
        "住所": "岐阜県笠松町長池377",
        "指定緊急避難場所との住所同一": "1",
        "その他市町村長が必要と認める事項": "",
        "受入対象者": "",
        "備考": ""
      }
    },
    {
      "type": "Feature",
      "geometry": {
        "type": "Point",
        "coordinates": [
          136.746396,
          35.358515
        ]
      },
      "properties": {
        "NO": 40120,
        "共通ID": "E2130300020121",
        "都道府県名及び市町村名": "岐阜県笠松町",
        "施設・場所名": "福祉健康センター",
        "住所": "岐阜県笠松町長池408-1",
        "指定緊急避難場所との住所同一": "1",
        "その他市町村長が必要と認める事項": "",
        "受入対象者": "",
        "備考": ""
      }
    },
    {
      "type": "Feature",
      "geometry": {
        "type": "Point",
        "coordinates": [
          136.746396,
          35.358515
        ]
      },
      "properties": {
        "NO": 40121,
        "共通ID": "E2130300020111",
        "都道府県名及び市町村名": "岐阜県笠松町",
        "施設・場所名": "福祉健康センター",
        "住所": "岐阜県笠松町長池408-1",
        "指定緊急避難場所との住所同一": "1",
        "その他市町村長が必要と認める事項": "",
        "受入対象者": "",
        "備考": ""
      }
    },
    {
      "type": "Feature",
      "geometry": {
        "type": "Point",
        "coordinates": [
          136.750034,
          35.355675
        ]
      },
      "properties": {
        "NO": 40122,
        "共通ID": "E2130300022111",
        "都道府県名及び市町村名": "岐阜県笠松町",
        "施設・場所名": "南部コミュニティ消防センター",
        "住所": "岐阜県笠松町長池634",
        "指定緊急避難場所との住所同一": "1",
        "その他市町村長が必要と認める事項": "",
        "受入対象者": "",
        "備考": ""
      }
    },
    {
      "type": "Feature",
      "geometry": {
        "type": "Point",
        "coordinates": [
          136.749165,
          35.355627
        ]
      },
      "properties": {
        "NO": 40123,
        "共通ID": "E2130300023113",
        "都道府県名及び市町村名": "岐阜県笠松町",
        "施設・場所名": "松枝小学校",
        "住所": "岐阜県笠松町長池642",
        "指定緊急避難場所との住所同一": "1",
        "その他市町村長が必要と認める事項": "",
        "受入対象者": "",
        "備考": ""
      }
    },
    {
      "type": "Feature",
      "geometry": {
        "type": "Point",
        "coordinates": [
          136.747926,
          35.355203
        ]
      },
      "properties": {
        "NO": 40124,
        "共通ID": "E2130300023112",
        "都道府県名及び市町村名": "岐阜県笠松町",
        "施設・場所名": "松枝小学校体育館",
        "住所": "岐阜県笠松町長池642",
        "指定緊急避難場所との住所同一": "1",
        "その他市町村長が必要と認める事項": "",
        "受入対象者": "",
        "備考": ""
      }
    },
    {
      "type": "Feature",
      "geometry": {
        "type": "Point",
        "coordinates": [
          136.752498,
          35.35984
        ]
      },
      "properties": {
        "NO": 40125,
        "共通ID": "E2130300025111",
        "都道府県名及び市町村名": "岐阜県笠松町",
        "施設・場所名": "リバーサイド笠松園",
        "住所": "岐阜県笠松町田代621-1",
        "指定緊急避難場所との住所同一": "1",
        "その他市町村長が必要と認める事項": "",
        "受入対象者": "",
        "備考": ""
      }
    },
    {
      "type": "Feature",
      "geometry": {
        "type": "Point",
        "coordinates": [
          136.763215,
          35.375872
        ]
      },
      "properties": {
        "NO": 40126,
        "共通ID": "E2130300026121",
        "都道府県名及び市町村名": "岐阜県笠松町",
        "施設・場所名": "福祉会館",
        "住所": "岐阜県笠松町東陽町44-1",
        "指定緊急避難場所との住所同一": "1",
        "その他市町村長が必要と認める事項": "",
        "受入対象者": "",
        "備考": ""
      }
    },
    {
      "type": "Feature",
      "geometry": {
        "type": "Point",
        "coordinates": [
          136.763215,
          35.375872
        ]
      },
      "properties": {
        "NO": 40127,
        "共通ID": "E2130300026111",
        "都道府県名及び市町村名": "岐阜県笠松町",
        "施設・場所名": "福祉会館",
        "住所": "岐阜県笠松町東陽町44-1",
        "指定緊急避難場所との住所同一": "1",
        "その他市町村長が必要と認める事項": "",
        "受入対象者": "",
        "備考": ""
      }
    },
    {
      "type": "Feature",
      "geometry": {
        "type": "Point",
        "coordinates": [
          136.754899,
          35.370195
        ]
      },
      "properties": {
        "NO": 40128,
        "共通ID": "E2130300028111",
        "都道府県名及び市町村名": "岐阜県笠松町",
        "施設・場所名": "厚生会館",
        "住所": "岐阜県笠松町瓢町15",
        "指定緊急避難場所との住所同一": "1",
        "その他市町村長が必要と認める事項": "",
        "受入対象者": "",
        "備考": ""
      }
    },
    {
      "type": "Feature",
      "geometry": {
        "type": "Point",
        "coordinates": [
          136.811969,
          35.380312
        ]
      },
      "properties": {
        "NO": 40129,
        "共通ID": "E2130300030111",
        "都道府県名及び市町村名": "岐阜県笠松町",
        "施設・場所名": "米野会館",
        "住所": "岐阜県笠松町米野480",
        "指定緊急避難場所との住所同一": "1",
        "その他市町村長が必要と認める事項": "",
        "受入対象者": "",
        "備考": ""
      }
    },
    {
      "type": "Feature",
      "geometry": {
        "type": "Point",
        "coordinates": [
          136.744734,
          35.347472
        ]
      },
      "properties": {
        "NO": 40130,
        "共通ID": "E2130300031111",
        "都道府県名及び市町村名": "岐阜県笠松町",
        "施設・場所名": "児神社",
        "住所": "岐阜県笠松町北及1100",
        "指定緊急避難場所との住所同一": "1",
        "その他市町村長が必要と認める事項": "",
        "受入対象者": "",
        "備考": ""
      }
    },
    {
      "type": "Feature",
      "geometry": {
        "type": "Point",
        "coordinates": [
          136.745808,
          35.354875
        ]
      },
      "properties": {
        "NO": 40131,
        "共通ID": "E2130300033111",
        "都道府県名及び市町村名": "岐阜県笠松町",
        "施設・場所名": "松枝保育所",
        "住所": "岐阜県笠松町北及1783",
        "指定緊急避難場所との住所同一": "1",
        "その他市町村長が必要と認める事項": "",
        "受入対象者": "",
        "備考": ""
      }
    },
    {
      "type": "Feature",
      "geometry": {
        "type": "Point",
        "coordinates": [
          136.742864,
          35.351994
        ]
      },
      "properties": {
        "NO": 40132,
        "共通ID": "E2130300034111",
        "都道府県名及び市町村名": "岐阜県笠松町",
        "施設・場所名": "松枝みなみ会館",
        "住所": "岐阜県笠松町北及33-2",
        "指定緊急避難場所との住所同一": "1",
        "その他市町村長が必要と認める事項": "",
        "受入対象者": "",
        "備考": ""
      }
    },
    {
      "type": "Feature",
      "geometry": {
        "type": "Point",
        "coordinates": [
          136.742693,
          35.350767
        ]
      },
      "properties": {
        "NO": 40133,
        "共通ID": "E2130300035111",
        "都道府県名及び市町村名": "岐阜県笠松町",
        "施設・場所名": "笠松双葉幼稚園",
        "住所": "岐阜県笠松町北及66",
        "指定緊急避難場所との住所同一": "1",
        "その他市町村長が必要と認める事項": "",
        "受入対象者": "",
        "備考": ""
      }
    },
    {
      "type": "Feature",
      "geometry": {
        "type": "Point",
        "coordinates": [
          136.797028,
          35.373929
        ]
      },
      "properties": {
        "NO": 40134,
        "共通ID": "E2130300036111",
        "都道府県名及び市町村名": "岐阜県笠松町",
        "施設・場所名": "下羽栗保育所",
        "住所": "岐阜県笠松町無動寺228",
        "指定緊急避難場所との住所同一": "1",
        "その他市町村長が必要と認める事項": null,
        "受入対象者": null,
        "備考": ""
      }
    },
    {
      "type": "Feature",
      "geometry": {
        "type": "Point",
        "coordinates": [
          136.735152,
          35.357907
        ]
      },
      "properties": {
        "NO": 40135,
        "共通ID": "E2130300038111",
        "都道府県名及び市町村名": "岐阜県笠松町",
        "施設・場所名": "北門間会館",
        "住所": "岐阜県笠松町門間522-1",
        "指定緊急避難場所との住所同一": "1",
        "その他市町村長が必要と認める事項": null,
        "受入対象者": null,
        "備考": ""
      }
    },
    {
      "type": "Feature",
      "geometry": {
        "type": "Point",
        "coordinates": [
          136.759442,
          35.372248
        ]
      },
      "properties": {
        "NO": 40136,
        "共通ID": "E2130300039111",
        "都道府県名及び市町村名": "岐阜県笠松町",
        "施設・場所名": "笠松中学校",
        "住所": "岐阜県笠松町弥生町1",
        "指定緊急避難場所との住所同一": "1",
        "その他市町村長が必要と認める事項": null,
        "受入対象者": null,
        "備考": ""
      }
    },
    {
      "type": "Feature",
      "geometry": {
        "type": "Point",
        "coordinates": [
          136.75835,
          35.372337
        ]
      },
      "properties": {
        "NO": 40137,
        "共通ID": "E2130300040111",
        "都道府県名及び市町村名": "岐阜県笠松町",
        "施設・場所名": "笠松中学校体育館",
        "住所": "岐阜県笠松町弥生町4",
        "指定緊急避難場所との住所同一": "1",
        "その他市町村長が必要と認める事項": null,
        "受入対象者": null,
        "備考": ""
      }
    },
    {
      "type": "Feature",
      "geometry": {
        "type": "Point",
        "coordinates": [
          136.759573,
          35.376978
        ]
      },
      "properties": {
        "NO": 40138,
        "共通ID": "E2130300041111",
        "都道府県名及び市町村名": "岐阜県笠松町",
        "施設・場所名": "緑会館",
        "住所": "岐阜県笠松町緑町71",
        "指定緊急避難場所との住所同一": "1",
        "その他市町村長が必要と認める事項": "",
        "受入対象者": "",
        "備考": ""
      }
    }
  ]
}