{
  "type": "FeatureCollection",
  "name": "213829",
  "features": [
    {
      "type": "Feature",
      "geometry": {
        "type": "Point",
        "coordinates": [
          136.632542,
          35.2731
        ]
      },
      "properties": {
        "NO": 40265,
        "共通ID": "E2138200006111",
        "都道府県名及び市町村名": "岐阜県輪之内町",
        "施設・場所名": "仁木こども園",
        "住所": "岐阜県輪之内町下大榑新田261-2",
        "指定緊急避難場所との住所同一": "1",
        "その他市町村長が必要と認める事項": null,
        "受入対象者": null,
        "備考": ""
      }
    },
    {
      "type": "Feature",
      "geometry": {
        "type": "Point",
        "coordinates": [
          136.629487,
          35.272628
        ]
      },
      "properties": {
        "NO": 40266,
        "共通ID": "E2138200010111",
        "都道府県名及び市町村名": "岐阜県輪之内町",
        "施設・場所名": "仁木小学校",
        "住所": "岐阜県輪之内町海松新田827",
        "指定緊急避難場所との住所同一": "1",
        "その他市町村長が必要と認める事項": null,
        "受入対象者": null,
        "備考": ""
      }
    },
    {
      "type": "Feature",
      "geometry": {
        "type": "Point",
        "coordinates": [
          136.628775,
          35.272186
        ]
      },
      "properties": {
        "NO": 40267,
        "共通ID": "E2138200011111",
        "都道府県名及び市町村名": "岐阜県輪之内町",
        "施設・場所名": "仁木小学校体育館",
        "住所": "岐阜県輪之内町海松新田830-1",
        "指定緊急避難場所との住所同一": "",
        "その他市町村長が必要と認める事項": null,
        "受入対象者": null,
        "備考": ""
      }
    },
    {
      "type": "Feature",
      "geometry": {
        "type": "Point",
        "coordinates": [
          136.63747,
          35.284222
        ]
      },
      "properties": {
        "NO": 40268,
        "共通ID": "E2138200015111",
        "都道府県名及び市町村名": "岐阜県輪之内町",
        "施設・場所名": "輪之内中学校体育館",
        "住所": "岐阜県輪之内町四郷2457",
        "指定緊急避難場所との住所同一": "1",
        "その他市町村長が必要と認める事項": null,
        "受入対象者": null,
        "備考": ""
      }
    },
    {
      "type": "Feature",
      "geometry": {
        "type": "Point",
        "coordinates": [
          136.636717,
          35.284069
        ]
      },
      "properties": {
        "NO": 40269,
        "共通ID": "E2138200015112",
        "都道府県名及び市町村名": "岐阜県輪之内町",
        "施設・場所名": "輪之内中学校",
        "住所": "岐阜県輪之内町四郷2457",
        "指定緊急避難場所との住所同一": "1",
        "その他市町村長が必要と認める事項": null,
        "受入対象者": null,
        "備考": ""
      }
    },
    {
      "type": "Feature",
      "geometry": {
        "type": "Point",
        "coordinates": [
          136.636104,
          35.283729
        ]
      },
      "properties": {
        "NO": 40270,
        "共通ID": "E2138200016111",
        "都道府県名及び市町村名": "岐阜県輪之内町",
        "施設・場所名": "輪之内町体育センター",
        "住所": "岐阜県輪之内町四郷2457-1",
        "指定緊急避難場所との住所同一": "",
        "その他市町村長が必要と認める事項": null,
        "受入対象者": null,
        "備考": ""
      }
    },
    {
      "type": "Feature",
      "geometry": {
        "type": "Point",
        "coordinates": [
          136.638169,
          35.284859
        ]
      },
      "properties": {
        "NO": 40271,
        "共通ID": "E2138200017111",
        "都道府県名及び市町村名": "岐阜県輪之内町",
        "施設・場所名": "輪之内町民センター",
        "住所": "岐阜県輪之内町四郷2530-1",
        "指定緊急避難場所との住所同一": "1",
        "その他市町村長が必要と認める事項": null,
        "受入対象者": null,
        "備考": ""
      }
    },
    {
      "type": "Feature",
      "geometry": {
        "type": "Point",
        "coordinates": [
          136.655234,
          35.294751
        ]
      },
      "properties": {
        "NO": 40272,
        "共通ID": "E2138200024111",
        "都道府県名及び市町村名": "岐阜県輪之内町",
        "施設・場所名": "大藪こども園",
        "住所": "岐阜県輪之内町大藪1117",
        "指定緊急避難場所との住所同一": "1",
        "その他市町村長が必要と認める事項": null,
        "受入対象者": null,
        "備考": ""
      }
    },
    {
      "type": "Feature",
      "geometry": {
        "type": "Point",
        "coordinates": [
          136.656761,
          35.294322
        ]
      },
      "properties": {
        "NO": 40273,
        "共通ID": "E2138200024112",
        "都道府県名及び市町村名": "岐阜県輪之内町",
        "施設・場所名": "大藪小学校体育館",
        "住所": "岐阜県輪之内町大藪1117",
        "指定緊急避難場所との住所同一": "1",
        "その他市町村長が必要と認める事項": null,
        "受入対象者": null,
        "備考": ""
      }
    },
    {
      "type": "Feature",
      "geometry": {
        "type": "Point",
        "coordinates": [
          136.656066,
          35.294487
        ]
      },
      "properties": {
        "NO": 40274,
        "共通ID": "E2138200024113",
        "都道府県名及び市町村名": "岐阜県輪之内町",
        "施設・場所名": "大藪小学校",
        "住所": "岐阜県輪之内町大藪1117",
        "指定緊急避難場所との住所同一": "1",
        "その他市町村長が必要と認める事項": null,
        "受入対象者": null,
        "備考": ""
      }
    },
    {
      "type": "Feature",
      "geometry": {
        "type": "Point",
        "coordinates": [
          136.629351,
          35.278454
        ]
      },
      "properties": {
        "NO": 40275,
        "共通ID": "E2138200028111",
        "都道府県名及び市町村名": "岐阜県輪之内町",
        "施設・場所名": "輪之内町ふれあいセンター",
        "住所": "岐阜県輪之内町中郷新田2201-1",
        "指定緊急避難場所との住所同一": "1",
        "その他市町村長が必要と認める事項": null,
        "受入対象者": null,
        "備考": ""
      }
    },
    {
      "type": "Feature",
      "geometry": {
        "type": "Point",
        "coordinates": [
          136.629055,
          35.278447
        ]
      },
      "properties": {
        "NO": 40276,
        "共通ID": "E2138200028121",
        "都道府県名及び市町村名": "岐阜県輪之内町",
        "施設・場所名": "輪之内町発達支援教室そら",
        "住所": "岐阜県輪之内町中郷新田2201-1",
        "指定緊急避難場所との住所同一": "1",
        "その他市町村長が必要と認める事項": null,
        "受入対象者": "要配慮者",
        "備考": ""
      }
    },
    {
      "type": "Feature",
      "geometry": {
        "type": "Point",
        "coordinates": [
          136.633381,
          35.283563
        ]
      },
      "properties": {
        "NO": 40277,
        "共通ID": "E2138200029121",
        "都道府県名及び市町村名": "岐阜県輪之内町",
        "施設・場所名": "特別養護老人ホームハピネスビラ",
        "住所": "岐阜県輪之内町中郷新田2408",
        "指定緊急避難場所との住所同一": "",
        "その他市町村長が必要と認める事項": null,
        "受入対象者": "要配慮者",
        "備考": ""
      }
    },
    {
      "type": "Feature",
      "geometry": {
        "type": "Point",
        "coordinates": [
          136.631207,
          35.30368
        ]
      },
      "properties": {
        "NO": 40278,
        "共通ID": "E2138200031111",
        "都道府県名及び市町村名": "岐阜県輪之内町",
        "施設・場所名": "福束小学校",
        "住所": "岐阜県輪之内町南波76",
        "指定緊急避難場所との住所同一": "1",
        "その他市町村長が必要と認める事項": null,
        "受入対象者": null,
        "備考": ""
      }
    },
    {
      "type": "Feature",
      "geometry": {
        "type": "Point",
        "coordinates": [
          136.632159,
          35.30407
        ]
      },
      "properties": {
        "NO": 40279,
        "共通ID": "E2138200032111",
        "都道府県名及び市町村名": "岐阜県輪之内町",
        "施設・場所名": "福束小学校体育館",
        "住所": "岐阜県輪之内町南波77",
        "指定緊急避難場所との住所同一": "",
        "その他市町村長が必要と認める事項": null,
        "受入対象者": null,
        "備考": ""
      }
    },
    {
      "type": "Feature",
      "geometry": {
        "type": "Point",
        "coordinates": [
          136.632676,
          35.303915
        ]
      },
      "properties": {
        "NO": 40280,
        "共通ID": "E2138200041111",
        "都道府県名及び市町村名": "岐阜県輪之内町",
        "施設・場所名": "福束こども園",
        "住所": "岐阜県輪之内町里983-1",
        "指定緊急避難場所との住所同一": "1",
        "その他市町村長が必要と認める事項": null,
        "受入対象者": null,
        "備考": ""
      }
    }
  ]
}