{
  "type": "FeatureCollection",
  "name": "215058",
  "features": [
    {
      "type": "Feature",
      "geometry": {
        "type": "Point",
        "coordinates": [
          137.125375,
          35.468857
        ]
      },
      "properties": {
        "NO": 40446,
        "共通ID": "E2150500001111",
        "都道府県名及び市町村名": "岐阜県八百津町",
        "施設・場所名": "錦津保育園",
        "住所": "岐阜県八百津町伊岐津志1484",
        "指定緊急避難場所との住所同一": "1",
        "その他市町村長が必要と認める事項": "",
        "受入対象者": "",
        "備考": ""
      }
    },
    {
      "type": "Feature",
      "geometry": {
        "type": "Point",
        "coordinates": [
          137.122421,
          35.466761
        ]
      },
      "properties": {
        "NO": 40447,
        "共通ID": "E2150500001121",
        "都道府県名及び市町村名": "岐阜県八百津町",
        "施設・場所名": "錦津保育園",
        "住所": "岐阜県八百津町伊岐津志1484",
        "指定緊急避難場所との住所同一": "1",
        "その他市町村長が必要と認める事項": "",
        "受入対象者": "要配慮者",
        "備考": ""
      }
    },
    {
      "type": "Feature",
      "geometry": {
        "type": "Point",
        "coordinates": [
          137.125906,
          35.468629
        ]
      },
      "properties": {
        "NO": 40448,
        "共通ID": "E2150500002111",
        "都道府県名及び市町村名": "岐阜県八百津町",
        "施設・場所名": "錦津コミュニティセンター",
        "住所": "岐阜県八百津町伊岐津志1692-1",
        "指定緊急避難場所との住所同一": "1",
        "その他市町村長が必要と認める事項": "",
        "受入対象者": "",
        "備考": ""
      }
    },
    {
      "type": "Feature",
      "geometry": {
        "type": "Point",
        "coordinates": [
          137.130757,
          35.467511
        ]
      },
      "properties": {
        "NO": 40449,
        "共通ID": "E2150500003111",
        "都道府県名及び市町村名": "岐阜県八百津町",
        "施設・場所名": "錦津小学校体育館",
        "住所": "岐阜県八百津町伊岐津志1806",
        "指定緊急避難場所との住所同一": "1",
        "その他市町村長が必要と認める事項": "",
        "受入対象者": "",
        "備考": ""
      }
    },
    {
      "type": "Feature",
      "geometry": {
        "type": "Point",
        "coordinates": [
          137.187164,
          35.520395
        ]
      },
      "properties": {
        "NO": 40450,
        "共通ID": "E2150500005111",
        "都道府県名及び市町村名": "岐阜県八百津町",
        "施設・場所名": "久田見小学校体育館",
        "住所": "岐阜県八百津町久田見2741",
        "指定緊急避難場所との住所同一": "1",
        "その他市町村長が必要と認める事項": null,
        "受入対象者": null,
        "備考": ""
      }
    },
    {
      "type": "Feature",
      "geometry": {
        "type": "Point",
        "coordinates": [
          137.1891,
          35.519981
        ]
      },
      "properties": {
        "NO": 40451,
        "共通ID": "E2150500006111",
        "都道府県名及び市町村名": "岐阜県八百津町",
        "施設・場所名": "久田見環境改善センター",
        "住所": "岐阜県八百津町久田見2745-7",
        "指定緊急避難場所との住所同一": "1",
        "その他市町村長が必要と認める事項": "",
        "受入対象者": "",
        "備考": ""
      }
    },
    {
      "type": "Feature",
      "geometry": {
        "type": "Point",
        "coordinates": [
          137.186909,
          35.521028
        ]
      },
      "properties": {
        "NO": 40452,
        "共通ID": "E2150500007111",
        "都道府県名及び市町村名": "岐阜県八百津町",
        "施設・場所名": "八百津町東部デイサービスセンター",
        "住所": "岐阜県八百津町久田見2761-8",
        "指定緊急避難場所との住所同一": "1",
        "その他市町村長が必要と認める事項": "",
        "受入対象者": "",
        "備考": ""
      }
    },
    {
      "type": "Feature",
      "geometry": {
        "type": "Point",
        "coordinates": [
          137.200419,
          35.515243
        ]
      },
      "properties": {
        "NO": 40453,
        "共通ID": "E2150500008111",
        "都道府県名及び市町村名": "岐阜県八百津町",
        "施設・場所名": "八百津東部中学校体育館",
        "住所": "岐阜県八百津町久田見3376-1",
        "指定緊急避難場所との住所同一": "1",
        "その他市町村長が必要と認める事項": "",
        "受入対象者": "",
        "備考": ""
      }
    },
    {
      "type": "Feature",
      "geometry": {
        "type": "Point",
        "coordinates": [
          137.255844,
          35.499241
        ]
      },
      "properties": {
        "NO": 40454,
        "共通ID": "E2150500011111",
        "都道府県名及び市町村名": "岐阜県八百津町",
        "施設・場所名": "潮見小学校体育館",
        "住所": "岐阜県八百津町潮見1125",
        "指定緊急避難場所との住所同一": "1",
        "その他市町村長が必要と認める事項": null,
        "受入対象者": null,
        "備考": ""
      }
    },
    {
      "type": "Feature",
      "geometry": {
        "type": "Point",
        "coordinates": [
          137.245762,
          35.48658
        ]
      },
      "properties": {
        "NO": 40455,
        "共通ID": "E2150500013111",
        "都道府県名及び市町村名": "岐阜県八百津町",
        "施設・場所名": "潮南環境改善センター",
        "住所": "岐阜県八百津町潮見808-9",
        "指定緊急避難場所との住所同一": "1",
        "その他市町村長が必要と認める事項": "",
        "受入対象者": "",
        "備考": ""
      }
    },
    {
      "type": "Feature",
      "geometry": {
        "type": "Point",
        "coordinates": [
          137.144752,
          35.476417
        ]
      },
      "properties": {
        "NO": 40456,
        "共通ID": "E2150500018111",
        "都道府県名及び市町村名": "岐阜県八百津町",
        "施設・場所名": "Ｂ＆Ｇ体育館",
        "住所": "岐阜県八百津町八百津3389-1",
        "指定緊急避難場所との住所同一": "1",
        "その他市町村長が必要と認める事項": "",
        "受入対象者": "",
        "備考": ""
      }
    },
    {
      "type": "Feature",
      "geometry": {
        "type": "Point",
        "coordinates": [
          137.143493,
          35.476083
        ]
      },
      "properties": {
        "NO": 40457,
        "共通ID": "E2150500021111",
        "都道府県名及び市町村名": "岐阜県八百津町",
        "施設・場所名": "八百津小学校体育館",
        "住所": "岐阜県八百津町八百津3784",
        "指定緊急避難場所との住所同一": "1",
        "その他市町村長が必要と認める事項": "",
        "受入対象者": "",
        "備考": ""
      }
    },
    {
      "type": "Feature",
      "geometry": {
        "type": "Point",
        "coordinates": [
          137.144069,
          35.476479
        ]
      },
      "properties": {
        "NO": 40458,
        "共通ID": "E2150500022111",
        "都道府県名及び市町村名": "岐阜県八百津町",
        "施設・場所名": "八百津町中央公民館",
        "住所": "岐阜県八百津町八百津3827-1",
        "指定緊急避難場所との住所同一": "1",
        "その他市町村長が必要と認める事項": null,
        "受入対象者": null,
        "備考": ""
      }
    },
    {
      "type": "Feature",
      "geometry": {
        "type": "Point",
        "coordinates": [
          137.143518,
          35.476791
        ]
      },
      "properties": {
        "NO": 40459,
        "共通ID": "E2150500023111",
        "都道府県名及び市町村名": "岐阜県八百津町",
        "施設・場所名": "八百津町福祉センター（夢広場ゆうゆう）",
        "住所": "岐阜県八百津町八百津3836-3",
        "指定緊急避難場所との住所同一": "1",
        "その他市町村長が必要と認める事項": "",
        "受入対象者": "",
        "備考": ""
      }
    },
    {
      "type": "Feature",
      "geometry": {
        "type": "Point",
        "coordinates": [
          137.143518,
          35.476791
        ]
      },
      "properties": {
        "NO": 40460,
        "共通ID": "E2150500023121",
        "都道府県名及び市町村名": "岐阜県八百津町",
        "施設・場所名": "八百津町福祉センター",
        "住所": "岐阜県八百津町八百津3836-3",
        "指定緊急避難場所との住所同一": "1",
        "その他市町村長が必要と認める事項": "",
        "受入対象者": "要配慮者",
        "備考": ""
      }
    },
    {
      "type": "Feature",
      "geometry": {
        "type": "Point",
        "coordinates": [
          137.145755,
          35.510574
        ]
      },
      "properties": {
        "NO": 40461,
        "共通ID": "E2150500025111",
        "都道府県名及び市町村名": "岐阜県八百津町",
        "施設・場所名": "北部農村センター",
        "住所": "岐阜県八百津町八百津6928-3",
        "指定緊急避難場所との住所同一": "1",
        "その他市町村長が必要と認める事項": "",
        "受入対象者": "",
        "備考": ""
      }
    },
    {
      "type": "Feature",
      "geometry": {
        "type": "Point",
        "coordinates": [
          137.240336,
          35.52937
        ]
      },
      "properties": {
        "NO": 40462,
        "共通ID": "E2150500026111",
        "都道府県名及び市町村名": "岐阜県八百津町",
        "施設・場所名": "福地公民館",
        "住所": "岐阜県八百津町福地757-2",
        "指定緊急避難場所との住所同一": "1",
        "その他市町村長が必要と認める事項": null,
        "受入対象者": null,
        "備考": ""
      }
    },
    {
      "type": "Feature",
      "geometry": {
        "type": "Point",
        "coordinates": [
          137.239712,
          35.528487
        ]
      },
      "properties": {
        "NO": 40463,
        "共通ID": "E2150500027111",
        "都道府県名及び市町村名": "岐阜県八百津町",
        "施設・場所名": "福地体育館",
        "住所": "岐阜県八百津町福地775-3",
        "指定緊急避難場所との住所同一": "1",
        "その他市町村長が必要と認める事項": null,
        "受入対象者": null,
        "備考": ""
      }
    },
    {
      "type": "Feature",
      "geometry": {
        "type": "Point",
        "coordinates": [
          137.124198,
          35.479471
        ]
      },
      "properties": {
        "NO": 40464,
        "共通ID": "E2150500029111",
        "都道府県名及び市町村名": "岐阜県八百津町",
        "施設・場所名": "八百津中学校体育館",
        "住所": "岐阜県八百津町野上916-4",
        "指定緊急避難場所との住所同一": "1",
        "その他市町村長が必要と認める事項": "",
        "受入対象者": "",
        "備考": ""
      }
    },
    {
      "type": "Feature",
      "geometry": {
        "type": "Point",
        "coordinates": [
          137.100008,
          35.467598
        ]
      },
      "properties": {
        "NO": 40465,
        "共通ID": "E2150500030111",
        "都道府県名及び市町村名": "岐阜県八百津町",
        "施設・場所名": "和知小学校体育館",
        "住所": "岐阜県八百津町和知1227",
        "指定緊急避難場所との住所同一": "1",
        "その他市町村長が必要と認める事項": null,
        "受入対象者": null,
        "備考": ""
      }
    },
    {
      "type": "Feature",
      "geometry": {
        "type": "Point",
        "coordinates": [
          137.102846,
          35.466959
        ]
      },
      "properties": {
        "NO": 40466,
        "共通ID": "E2150500031111",
        "都道府県名及び市町村名": "岐阜県八百津町",
        "施設・場所名": "和知研修センター",
        "住所": "岐阜県八百津町和知1692",
        "指定緊急避難場所との住所同一": "1",
        "その他市町村長が必要と認める事項": "",
        "受入対象者": "",
        "備考": ""
      }
    },
    {
      "type": "Feature",
      "geometry": {
        "type": "Point",
        "coordinates": [
          137.103479,
          35.467133
        ]
      },
      "properties": {
        "NO": 40467,
        "共通ID": "E2150500032111",
        "都道府県名及び市町村名": "岐阜県八百津町",
        "施設・場所名": "和知体育館",
        "住所": "岐阜県八百津町和知1706",
        "指定緊急避難場所との住所同一": "1",
        "その他市町村長が必要と認める事項": null,
        "受入対象者": null,
        "備考": ""
      }
    }
  ]
}