{
  "type": "FeatureCollection",
  "name": "222071",
  "features": [
    {
      "type": "Feature",
      "geometry": {
        "type": "Point",
        "coordinates": [
          138.661328,
          35.275359
        ]
      },
      "properties": {
        "NO": 41204,
        "共通ID": "E2220700001111",
        "都道府県名及び市町村名": "静岡県富士宮市",
        "施設・場所名": "粟倉分校",
        "住所": "静岡県富士宮市粟倉1828",
        "指定緊急避難場所との住所同一": "1",
        "その他市町村長が必要と認める事項": null,
        "受入対象者": null,
        "備考": ""
      }
    },
    {
      "type": "Feature",
      "geometry": {
        "type": "Point",
        "coordinates": [
          138.591806,
          35.208972
        ]
      },
      "properties": {
        "NO": 41205,
        "共通ID": "E2220700002111",
        "都道府県名及び市町村名": "静岡県富士宮市",
        "施設・場所名": "西小学校",
        "住所": "静岡県富士宮市安居山380",
        "指定緊急避難場所との住所同一": "1",
        "その他市町村長が必要と認める事項": null,
        "受入対象者": null,
        "備考": ""
      }
    },
    {
      "type": "Feature",
      "geometry": {
        "type": "Point",
        "coordinates": [
          138.534913,
          35.233752
        ]
      },
      "properties": {
        "NO": 41206,
        "共通ID": "E2220700003111",
        "都道府県名及び市町村名": "静岡県富士宮市",
        "施設・場所名": "下稲子公民館",
        "住所": "静岡県富士宮市下稲子1036-3",
        "指定緊急避難場所との住所同一": "1",
        "その他市町村長が必要と認める事項": "",
        "受入対象者": "",
        "備考": ""
      }
    },
    {
      "type": "Feature",
      "geometry": {
        "type": "Point",
        "coordinates": [
          138.579134,
          35.27429
        ]
      },
      "properties": {
        "NO": 41207,
        "共通ID": "E2220700005111",
        "都道府県名及び市町村名": "静岡県富士宮市",
        "施設・場所名": "上野小学校",
        "住所": "静岡県富士宮市下条408",
        "指定緊急避難場所との住所同一": "1",
        "その他市町村長が必要と認める事項": null,
        "受入対象者": null,
        "備考": ""
      }
    },
    {
      "type": "Feature",
      "geometry": {
        "type": "Point",
        "coordinates": [
          138.551644,
          35.256856
        ]
      },
      "properties": {
        "NO": 41208,
        "共通ID": "E2220700006111",
        "都道府県名及び市町村名": "静岡県富士宮市",
        "施設・場所名": "柚野中学校",
        "住所": "静岡県富士宮市下柚野371",
        "指定緊急避難場所との住所同一": "1",
        "その他市町村長が必要と認める事項": null,
        "受入対象者": null,
        "備考": ""
      }
    },
    {
      "type": "Feature",
      "geometry": {
        "type": "Point",
        "coordinates": [
          138.602005,
          35.226801
        ]
      },
      "properties": {
        "NO": 41209,
        "共通ID": "E2220700009111",
        "都道府県名及び市町村名": "静岡県富士宮市",
        "施設・場所名": "貴船小学校",
        "住所": "静岡県富士宮市貴船町3-3",
        "指定緊急避難場所との住所同一": "1",
        "その他市町村長が必要と認める事項": null,
        "受入対象者": null,
        "備考": ""
      }
    },
    {
      "type": "Feature",
      "geometry": {
        "type": "Point",
        "coordinates": [
          138.607484,
          35.22742
        ]
      },
      "properties": {
        "NO": 41210,
        "共通ID": "E2220700012111",
        "都道府県名及び市町村名": "静岡県富士宮市",
        "施設・場所名": "市民文化会館",
        "住所": "静岡県富士宮市宮町14-2",
        "指定緊急避難場所との住所同一": "1",
        "その他市町村長が必要と認める事項": null,
        "受入対象者": null,
        "備考": ""
      }
    },
    {
      "type": "Feature",
      "geometry": {
        "type": "Point",
        "coordinates": [
          138.612339,
          35.237091
        ]
      },
      "properties": {
        "NO": 41211,
        "共通ID": "E2220700013111",
        "都道府県名及び市町村名": "静岡県富士宮市",
        "施設・場所名": "富士宮北高等学校",
        "住所": "静岡県富士宮市宮北町230",
        "指定緊急避難場所との住所同一": "1",
        "その他市町村長が必要と認める事項": null,
        "受入対象者": null,
        "備考": ""
      }
    },
    {
      "type": "Feature",
      "geometry": {
        "type": "Point",
        "coordinates": [
          138.625058,
          35.222105
        ]
      },
      "properties": {
        "NO": 41212,
        "共通ID": "E2220700014111",
        "都道府県名及び市町村名": "静岡県富士宮市",
        "施設・場所名": "富岳館高等学校",
        "住所": "静岡県富士宮市弓沢町732",
        "指定緊急避難場所との住所同一": "1",
        "その他市町村長が必要と認める事項": null,
        "受入対象者": null,
        "備考": ""
      }
    },
    {
      "type": "Feature",
      "geometry": {
        "type": "Point",
        "coordinates": [
          138.612763,
          35.226197
        ]
      },
      "properties": {
        "NO": 41213,
        "共通ID": "E2220700016111",
        "都道府県名及び市町村名": "静岡県富士宮市",
        "施設・場所名": "大宮小学校",
        "住所": "静岡県富士宮市元城町2-1",
        "指定緊急避難場所との住所同一": "1",
        "その他市町村長が必要と認める事項": null,
        "受入対象者": null,
        "備考": ""
      }
    },
    {
      "type": "Feature",
      "geometry": {
        "type": "Point",
        "coordinates": [
          138.579193,
          35.314163
        ]
      },
      "properties": {
        "NO": 41214,
        "共通ID": "E2220700017111",
        "都道府県名及び市町村名": "静岡県富士宮市",
        "施設・場所名": "白糸小学校",
        "住所": "静岡県富士宮市原1115",
        "指定緊急避難場所との住所同一": "1",
        "その他市町村長が必要と認める事項": null,
        "受入対象者": null,
        "備考": ""
      }
    },
    {
      "type": "Feature",
      "geometry": {
        "type": "Point",
        "coordinates": [
          138.589391,
          35.428259
        ]
      },
      "properties": {
        "NO": 41215,
        "共通ID": "E2220700018111",
        "都道府県名及び市町村名": "静岡県富士宮市",
        "施設・場所名": "根原分校",
        "住所": "静岡県富士宮市根原155",
        "指定緊急避難場所との住所同一": "1",
        "その他市町村長が必要と認める事項": null,
        "受入対象者": null,
        "備考": ""
      }
    },
    {
      "type": "Feature",
      "geometry": {
        "type": "Point",
        "coordinates": [
          138.628035,
          35.270403
        ]
      },
      "properties": {
        "NO": 41216,
        "共通ID": "E2220700019111",
        "都道府県名及び市町村名": "静岡県富士宮市",
        "施設・場所名": "山宮小学校",
        "住所": "静岡県富士宮市山宮1560-1",
        "指定緊急避難場所との住所同一": "1",
        "その他市町村長が必要と認める事項": null,
        "受入対象者": null,
        "備考": ""
      }
    },
    {
      "type": "Feature",
      "geometry": {
        "type": "Point",
        "coordinates": [
          138.62835,
          35.225876
        ]
      },
      "properties": {
        "NO": 41217,
        "共通ID": "E2220700022111",
        "都道府県名及び市町村名": "静岡県富士宮市",
        "施設・場所名": "富士宮東高等学校",
        "住所": "静岡県富士宮市小泉1234",
        "指定緊急避難場所との住所同一": "1",
        "その他市町村長が必要と認める事項": null,
        "受入対象者": null,
        "備考": ""
      }
    },
    {
      "type": "Feature",
      "geometry": {
        "type": "Point",
        "coordinates": [
          138.63652,
          35.225848
        ]
      },
      "properties": {
        "NO": 41218,
        "共通ID": "E2220700023111",
        "都道府県名及び市町村名": "静岡県富士宮市",
        "施設・場所名": "富士根南小学校",
        "住所": "静岡県富士宮市小泉1675",
        "指定緊急避難場所との住所同一": "1",
        "その他市町村長が必要と認める事項": null,
        "受入対象者": null,
        "備考": ""
      }
    },
    {
      "type": "Feature",
      "geometry": {
        "type": "Point",
        "coordinates": [
          138.638122,
          35.224358
        ]
      },
      "properties": {
        "NO": 41219,
        "共通ID": "E2220700024111",
        "都道府県名及び市町村名": "静岡県富士宮市",
        "施設・場所名": "富士根南中学校",
        "住所": "静岡県富士宮市小泉1996",
        "指定緊急避難場所との住所同一": "1",
        "その他市町村長が必要と認める事項": null,
        "受入対象者": null,
        "備考": ""
      }
    },
    {
      "type": "Feature",
      "geometry": {
        "type": "Point",
        "coordinates": [
          138.601809,
          35.309578
        ]
      },
      "properties": {
        "NO": 41220,
        "共通ID": "E2220700025111",
        "都道府県名及び市町村名": "静岡県富士宮市",
        "施設・場所名": "上井出小学校",
        "住所": "静岡県富士宮市上井出1400",
        "指定緊急避難場所との住所同一": "1",
        "その他市町村長が必要と認める事項": null,
        "受入対象者": null,
        "備考": ""
      }
    },
    {
      "type": "Feature",
      "geometry": {
        "type": "Point",
        "coordinates": [
          138.5888,
          35.320734
        ]
      },
      "properties": {
        "NO": 41221,
        "共通ID": "E2220700026111",
        "都道府県名及び市町村名": "静岡県富士宮市",
        "施設・場所名": "西富士中学校",
        "住所": "静岡県富士宮市上井出918-1",
        "指定緊急避難場所との住所同一": "1",
        "その他市町村長が必要と認める事項": null,
        "受入対象者": null,
        "備考": ""
      }
    },
    {
      "type": "Feature",
      "geometry": {
        "type": "Point",
        "coordinates": [
          138.532782,
          35.254599
        ]
      },
      "properties": {
        "NO": 41222,
        "共通ID": "E2220700027111",
        "都道府県名及び市町村名": "静岡県富士宮市",
        "施設・場所名": "稲子小学校",
        "住所": "静岡県富士宮市上稲子830-1",
        "指定緊急避難場所との住所同一": "1",
        "その他市町村長が必要と認める事項": null,
        "受入対象者": null,
        "備考": ""
      }
    },
    {
      "type": "Feature",
      "geometry": {
        "type": "Point",
        "coordinates": [
          138.551655,
          35.257014
        ]
      },
      "properties": {
        "NO": 41223,
        "共通ID": "E2220700028111",
        "都道府県名及び市町村名": "静岡県富士宮市",
        "施設・場所名": "柚野小学校",
        "住所": "静岡県富士宮市上柚野88",
        "指定緊急避難場所との住所同一": "1",
        "その他市町村長が必要と認める事項": null,
        "受入対象者": null,
        "備考": ""
      }
    },
    {
      "type": "Feature",
      "geometry": {
        "type": "Point",
        "coordinates": [
          138.596526,
          35.351951
        ]
      },
      "properties": {
        "NO": 41224,
        "共通ID": "E2220700031111",
        "都道府県名及び市町村名": "静岡県富士宮市",
        "施設・場所名": "人穴小学校",
        "住所": "静岡県富士宮市人穴362",
        "指定緊急避難場所との住所同一": "1",
        "その他市町村長が必要と認める事項": null,
        "受入対象者": null,
        "備考": ""
      }
    },
    {
      "type": "Feature",
      "geometry": {
        "type": "Point",
        "coordinates": [
          138.616026,
          35.209546
        ]
      },
      "properties": {
        "NO": 41225,
        "共通ID": "E2220700033111",
        "都道府県名及び市町村名": "静岡県富士宮市",
        "施設・場所名": "黒田小学校",
        "住所": "静岡県富士宮市星山1030-2",
        "指定緊急避難場所との住所同一": "1",
        "その他市町村長が必要と認める事項": null,
        "受入対象者": null,
        "備考": ""
      }
    },
    {
      "type": "Feature",
      "geometry": {
        "type": "Point",
        "coordinates": [
          138.617045,
          35.202214
        ]
      },
      "properties": {
        "NO": 41226,
        "共通ID": "E2220700034111",
        "都道府県名及び市町村名": "静岡県富士宮市",
        "施設・場所名": "星陵高等学校",
        "住所": "静岡県富士宮市星山1068",
        "指定緊急避難場所との住所同一": "1",
        "その他市町村長が必要と認める事項": null,
        "受入対象者": null,
        "備考": ""
      }
    },
    {
      "type": "Feature",
      "geometry": {
        "type": "Point",
        "coordinates": [
          138.573694,
          35.277691
        ]
      },
      "properties": {
        "NO": 41227,
        "共通ID": "E2220700035111",
        "都道府県名及び市町村名": "静岡県富士宮市",
        "施設・場所名": "上野中学校",
        "住所": "静岡県富士宮市精進川410",
        "指定緊急避難場所との住所同一": "1",
        "その他市町村長が必要と認める事項": null,
        "受入対象者": null,
        "備考": ""
      }
    },
    {
      "type": "Feature",
      "geometry": {
        "type": "Point",
        "coordinates": [
          138.563744,
          35.230792
        ]
      },
      "properties": {
        "NO": 41228,
        "共通ID": "E2220700036111",
        "都道府県名及び市町村名": "静岡県富士宮市",
        "施設・場所名": "芝川Ｂ＆Ｇ海洋センター",
        "住所": "静岡県富士宮市西山858",
        "指定緊急避難場所との住所同一": "1",
        "その他市町村長が必要と認める事項": null,
        "受入対象者": null,
        "備考": ""
      }
    },
    {
      "type": "Feature",
      "geometry": {
        "type": "Point",
        "coordinates": [
          138.653372,
          35.253962
        ]
      },
      "properties": {
        "NO": 41229,
        "共通ID": "E2220700038111",
        "都道府県名及び市町村名": "静岡県富士宮市",
        "施設・場所名": "富士根北小学校",
        "住所": "静岡県富士宮市村山1499",
        "指定緊急避難場所との住所同一": "1",
        "その他市町村長が必要と認める事項": null,
        "受入対象者": null,
        "備考": ""
      }
    },
    {
      "type": "Feature",
      "geometry": {
        "type": "Point",
        "coordinates": [
          138.65601,
          35.251143
        ]
      },
      "properties": {
        "NO": 41230,
        "共通ID": "E2220700039111",
        "都道府県名及び市町村名": "静岡県富士宮市",
        "施設・場所名": "富士根北中学校",
        "住所": "静岡県富士宮市村山935-1",
        "指定緊急避難場所との住所同一": "1",
        "その他市町村長が必要と認める事項": null,
        "受入対象者": null,
        "備考": ""
      }
    },
    {
      "type": "Feature",
      "geometry": {
        "type": "Point",
        "coordinates": [
          138.565145,
          35.362251
        ]
      },
      "properties": {
        "NO": 41231,
        "共通ID": "E2220700044111",
        "都道府県名及び市町村名": "静岡県富士宮市",
        "施設・場所名": "井之頭小学校",
        "住所": "静岡県富士宮市猪之頭168",
        "指定緊急避難場所との住所同一": "1",
        "その他市町村長が必要と認める事項": null,
        "受入対象者": null,
        "備考": ""
      }
    },
    {
      "type": "Feature",
      "geometry": {
        "type": "Point",
        "coordinates": [
          138.565975,
          35.374769
        ]
      },
      "properties": {
        "NO": 41232,
        "共通ID": "E2220700045111",
        "都道府県名及び市町村名": "静岡県富士宮市",
        "施設・場所名": "井之頭中学校",
        "住所": "静岡県富士宮市猪之頭999",
        "指定緊急避難場所との住所同一": "1",
        "その他市町村長が必要と認める事項": null,
        "受入対象者": null,
        "備考": ""
      }
    },
    {
      "type": "Feature",
      "geometry": {
        "type": "Point",
        "coordinates": [
          138.565897,
          35.204007
        ]
      },
      "properties": {
        "NO": 41233,
        "共通ID": "E2220700047111",
        "都道府県名及び市町村名": "静岡県富士宮市",
        "施設・場所名": "芝川中学校",
        "住所": "静岡県富士宮市長貫1267",
        "指定緊急避難場所との住所同一": "1",
        "その他市町村長が必要と認める事項": null,
        "受入対象者": null,
        "備考": ""
      }
    },
    {
      "type": "Feature",
      "geometry": {
        "type": "Point",
        "coordinates": [
          138.566828,
          35.205684
        ]
      },
      "properties": {
        "NO": 41234,
        "共通ID": "E2220700049111",
        "都道府県名及び市町村名": "静岡県富士宮市",
        "施設・場所名": "芝富小学校",
        "住所": "静岡県富士宮市長貫1323",
        "指定緊急避難場所との住所同一": "1",
        "その他市町村長が必要と認める事項": null,
        "受入対象者": null,
        "備考": ""
      }
    },
    {
      "type": "Feature",
      "geometry": {
        "type": "Point",
        "coordinates": [
          138.550631,
          35.193835
        ]
      },
      "properties": {
        "NO": 41235,
        "共通ID": "E2220700050111",
        "都道府県名及び市町村名": "静岡県富士宮市",
        "施設・場所名": "内房小学校",
        "住所": "静岡県富士宮市内房3909",
        "指定緊急避難場所との住所同一": "1",
        "その他市町村長が必要と認める事項": null,
        "受入対象者": null,
        "備考": ""
      }
    },
    {
      "type": "Feature",
      "geometry": {
        "type": "Point",
        "coordinates": [
          138.627858,
          35.231814
        ]
      },
      "properties": {
        "NO": 41236,
        "共通ID": "E2220700052112",
        "都道府県名及び市町村名": "静岡県富士宮市",
        "施設・場所名": "富士見小学校",
        "住所": "静岡県富士宮市富士見ケ丘1794",
        "指定緊急避難場所との住所同一": "1",
        "その他市町村長が必要と認める事項": "",
        "受入対象者": "",
        "備考": ""
      }
    },
    {
      "type": "Feature",
      "geometry": {
        "type": "Point",
        "coordinates": [
          138.596871,
          35.235031
        ]
      },
      "properties": {
        "NO": 41237,
        "共通ID": "E2220700054111",
        "都道府県名及び市町村名": "静岡県富士宮市",
        "施設・場所名": "第四中学校",
        "住所": "静岡県富士宮市穂波町13-1",
        "指定緊急避難場所との住所同一": "1",
        "その他市町村長が必要と認める事項": null,
        "受入対象者": null,
        "備考": ""
      }
    },
    {
      "type": "Feature",
      "geometry": {
        "type": "Point",
        "coordinates": [
          138.613101,
          35.230965
        ]
      },
      "properties": {
        "NO": 41238,
        "共通ID": "E2220700056111",
        "都道府県名及び市町村名": "静岡県富士宮市",
        "施設・場所名": "第二中学校",
        "住所": "静岡県富士宮市豊町17-1",
        "指定緊急避難場所との住所同一": "1",
        "その他市町村長が必要と認める事項": null,
        "受入対象者": null,
        "備考": ""
      }
    },
    {
      "type": "Feature",
      "geometry": {
        "type": "Point",
        "coordinates": [
          138.607188,
          35.278507
        ]
      },
      "properties": {
        "NO": 41239,
        "共通ID": "E2220700057111",
        "都道府県名及び市町村名": "静岡県富士宮市",
        "施設・場所名": "北山中学校",
        "住所": "静岡県富士宮市北山1092",
        "指定緊急避難場所との住所同一": "1",
        "その他市町村長が必要と認める事項": null,
        "受入対象者": null,
        "備考": ""
      }
    },
    {
      "type": "Feature",
      "geometry": {
        "type": "Point",
        "coordinates": [
          138.603759,
          35.286455
        ]
      },
      "properties": {
        "NO": 41240,
        "共通ID": "E2220700058111",
        "都道府県名及び市町村名": "静岡県富士宮市",
        "施設・場所名": "北山小学校",
        "住所": "静岡県富士宮市北山1582",
        "指定緊急避難場所との住所同一": "1",
        "その他市町村長が必要と認める事項": null,
        "受入対象者": null,
        "備考": ""
      }
    },
    {
      "type": "Feature",
      "geometry": {
        "type": "Point",
        "coordinates": [
          138.620704,
          35.250882
        ]
      },
      "properties": {
        "NO": 41241,
        "共通ID": "E2220700060111",
        "都道府県名及び市町村名": "静岡県富士宮市",
        "施設・場所名": "大富士小学校",
        "住所": "静岡県富士宮市万野原新田3992",
        "指定緊急避難場所との住所同一": "1",
        "その他市町村長が必要と認める事項": null,
        "受入対象者": null,
        "備考": ""
      }
    },
    {
      "type": "Feature",
      "geometry": {
        "type": "Point",
        "coordinates": [
          138.617954,
          35.253714
        ]
      },
      "properties": {
        "NO": 41242,
        "共通ID": "E2220700061111",
        "都道府県名及び市町村名": "静岡県富士宮市",
        "施設・場所名": "大富士中学校",
        "住所": "静岡県富士宮市万野原新田4115-1",
        "指定緊急避難場所との住所同一": "1",
        "その他市町村長が必要と認める事項": null,
        "受入対象者": null,
        "備考": ""
      }
    },
    {
      "type": "Feature",
      "geometry": {
        "type": "Point",
        "coordinates": [
          138.603121,
          35.219751
        ]
      },
      "properties": {
        "NO": 41243,
        "共通ID": "E2220700064111",
        "都道府県名及び市町村名": "静岡県富士宮市",
        "施設・場所名": "第三中学校",
        "住所": "静岡県富士宮市野中658",
        "指定緊急避難場所との住所同一": "1",
        "その他市町村長が必要と認める事項": null,
        "受入対象者": null,
        "備考": ""
      }
    },
    {
      "type": "Feature",
      "geometry": {
        "type": "Point",
        "coordinates": [
          138.620908,
          35.225134
        ]
      },
      "properties": {
        "NO": 41244,
        "共通ID": "E2220700065111",
        "都道府県名及び市町村名": "静岡県富士宮市",
        "施設・場所名": "東小学校",
        "住所": "静岡県富士宮市矢立町227",
        "指定緊急避難場所との住所同一": "1",
        "その他市町村長が必要と認める事項": null,
        "受入対象者": null,
        "備考": ""
      }
    },
    {
      "type": "Feature",
      "geometry": {
        "type": "Point",
        "coordinates": [
          138.624648,
          35.225584
        ]
      },
      "properties": {
        "NO": 41245,
        "共通ID": "E2220700066111",
        "都道府県名及び市町村名": "静岡県富士宮市",
        "施設・場所名": "第一中学校",
        "住所": "静岡県富士宮市矢立町814",
        "指定緊急避難場所との住所同一": "1",
        "その他市町村長が必要と認める事項": null,
        "受入対象者": null,
        "備考": ""
      }
    },
    {
      "type": "Feature",
      "geometry": {
        "type": "Point",
        "coordinates": [
          138.605235,
          35.246594
        ]
      },
      "properties": {
        "NO": 41246,
        "共通ID": "E2220700067111",
        "都道府県名及び市町村名": "静岡県富士宮市",
        "施設・場所名": "富士宮西高等学校",
        "住所": "静岡県富士宮市淀師1550",
        "指定緊急避難場所との住所同一": "1",
        "その他市町村長が必要と認める事項": null,
        "受入対象者": null,
        "備考": ""
      }
    },
    {
      "type": "Feature",
      "geometry": {
        "type": "Point",
        "coordinates": [
          138.596018,
          35.24296
        ]
      },
      "properties": {
        "NO": 41247,
        "共通ID": "E2220700068111",
        "都道府県名及び市町村名": "静岡県富士宮市",
        "施設・場所名": "富丘小学校",
        "住所": "静岡県富士宮市淀師489-4",
        "指定緊急避難場所との住所同一": "1",
        "その他市町村長が必要と認める事項": null,
        "受入対象者": null,
        "備考": ""
      }
    }
  ]
}