{
  "type": "FeatureCollection",
  "name": "232084",
  "features": [
    {
      "type": "Feature",
      "geometry": {
        "type": "Point",
        "coordinates": [
          136.71698,
          35.168262
        ]
      },
      "properties": {
        "NO": 43656,
        "共通ID": "E2320800001112",
        "都道府県名及び市町村名": "愛知県津島市",
        "施設・場所名": "天王中学校",
        "住所": "愛知県津島市宮川町2-45",
        "指定緊急避難場所との住所同一": "",
        "その他市町村長が必要と認める事項": "",
        "受入対象者": "",
        "備考": ""
      }
    },
    {
      "type": "Feature",
      "geometry": {
        "type": "Point",
        "coordinates": [
          136.715515,
          35.166458
        ]
      },
      "properties": {
        "NO": 43657,
        "共通ID": "E2320800024112",
        "都道府県名及び市町村名": "愛知県津島市",
        "施設・場所名": "津島高等学校",
        "住所": "愛知県津島市宮川町3-80",
        "指定緊急避難場所との住所同一": "1",
        "その他市町村長が必要と認める事項": "",
        "受入対象者": "",
        "備考": ""
      }
    },
    {
      "type": "Feature",
      "geometry": {
        "type": "Point",
        "coordinates": [
          136.725152,
          35.184216
        ]
      },
      "properties": {
        "NO": 43658,
        "共通ID": "E2320800002111",
        "都道府県名及び市町村名": "愛知県津島市",
        "施設・場所名": "北小学校",
        "住所": "愛知県津島市松原町37",
        "指定緊急避難場所との住所同一": "1",
        "その他市町村長が必要と認める事項": "",
        "受入対象者": "",
        "備考": ""
      }
    },
    {
      "type": "Feature",
      "geometry": {
        "type": "Point",
        "coordinates": [
          136.727688,
          35.169133
        ]
      },
      "properties": {
        "NO": 43659,
        "共通ID": "E2320800003111",
        "都道府県名及び市町村名": "愛知県津島市",
        "施設・場所名": "南小学校",
        "住所": "愛知県津島市常盤町4-20",
        "指定緊急避難場所との住所同一": "1",
        "その他市町村長が必要と認める事項": "",
        "受入対象者": "",
        "備考": ""
      }
    },
    {
      "type": "Feature",
      "geometry": {
        "type": "Point",
        "coordinates": [
          136.771086,
          35.177361
        ]
      },
      "properties": {
        "NO": 43660,
        "共通ID": "E2320800004111",
        "都道府県名及び市町村名": "愛知県津島市",
        "施設・場所名": "神守小学校",
        "住所": "愛知県津島市神守町字中町13",
        "指定緊急避難場所との住所同一": "1",
        "その他市町村長が必要と認める事項": "",
        "受入対象者": "",
        "備考": ""
      }
    },
    {
      "type": "Feature",
      "geometry": {
        "type": "Point",
        "coordinates": [
          136.774506,
          35.155976
        ]
      },
      "properties": {
        "NO": 43661,
        "共通ID": "E2320800005111",
        "都道府県名及び市町村名": "愛知県津島市",
        "施設・場所名": "高台寺小学校",
        "住所": "愛知県津島市神尾町字江西61",
        "指定緊急避難場所との住所同一": "1",
        "その他市町村長が必要と認める事項": "",
        "受入対象者": "",
        "備考": ""
      }
    },
    {
      "type": "Feature",
      "geometry": {
        "type": "Point",
        "coordinates": [
          136.734344,
          35.182755
        ]
      },
      "properties": {
        "NO": 43662,
        "共通ID": "E2320800006112",
        "都道府県名及び市町村名": "愛知県津島市",
        "施設・場所名": "藤浪中学校",
        "住所": "愛知県津島市西柳原町4-45",
        "指定緊急避難場所との住所同一": "",
        "その他市町村長が必要と認める事項": "",
        "受入対象者": "",
        "備考": ""
      }
    },
    {
      "type": "Feature",
      "geometry": {
        "type": "Point",
        "coordinates": [
          136.716668,
          35.178512
        ]
      },
      "properties": {
        "NO": 43663,
        "共通ID": "E2320800007111",
        "都道府県名及び市町村名": "愛知県津島市",
        "施設・場所名": "西小学校",
        "住所": "愛知県津島市大和町1-14",
        "指定緊急避難場所との住所同一": "1",
        "その他市町村長が必要と認める事項": "",
        "受入対象者": "",
        "備考": ""
      }
    },
    {
      "type": "Feature",
      "geometry": {
        "type": "Point",
        "coordinates": [
          136.759831,
          35.150637
        ]
      },
      "properties": {
        "NO": 43664,
        "共通ID": "E2320800008111",
        "都道府県名及び市町村名": "愛知県津島市",
        "施設・場所名": "神島田小学校",
        "住所": "愛知県津島市中一色町東郷80",
        "指定緊急避難場所との住所同一": "1",
        "その他市町村長が必要と認める事項": "",
        "受入対象者": "",
        "備考": ""
      }
    },
    {
      "type": "Feature",
      "geometry": {
        "type": "Point",
        "coordinates": [
          136.747742,
          35.165619
        ]
      },
      "properties": {
        "NO": 43665,
        "共通ID": "E2320800009112",
        "都道府県名及び市町村名": "愛知県津島市",
        "施設・場所名": "暁中学校",
        "住所": "愛知県津島市唐臼町囲外1",
        "指定緊急避難場所との住所同一": "",
        "その他市町村長が必要と認める事項": "",
        "受入対象者": "",
        "備考": ""
      }
    },
    {
      "type": "Feature",
      "geometry": {
        "type": "Point",
        "coordinates": [
          136.772125,
          35.17086
        ]
      },
      "properties": {
        "NO": 43666,
        "共通ID": "E2320800010112",
        "都道府県名及び市町村名": "愛知県津島市",
        "施設・場所名": "神守中学校",
        "住所": "愛知県津島市百島町字観音坊32-1",
        "指定緊急避難場所との住所同一": "",
        "その他市町村長が必要と認める事項": "",
        "受入対象者": "",
        "備考": ""
      }
    },
    {
      "type": "Feature",
      "geometry": {
        "type": "Point",
        "coordinates": [
          136.768077,
          35.189992
        ]
      },
      "properties": {
        "NO": 43667,
        "共通ID": "E2320800011111",
        "都道府県名及び市町村名": "愛知県津島市",
        "施設・場所名": "蛭間小学校",
        "住所": "愛知県津島市蛭間町字逆川東848",
        "指定緊急避難場所との住所同一": "1",
        "その他市町村長が必要と認める事項": "",
        "受入対象者": "",
        "備考": ""
      }
    },
    {
      "type": "Feature",
      "geometry": {
        "type": "Point",
        "coordinates": [
          136.766235,
          35.182812
        ]
      },
      "properties": {
        "NO": 43668,
        "共通ID": "E2320800022111",
        "都道府県名及び市町村名": "愛知県津島市",
        "施設・場所名": "津島東高等学校",
        "住所": "愛知県津島市蛭間町字弁日1",
        "指定緊急避難場所との住所同一": "",
        "その他市町村長が必要と認める事項": "",
        "受入対象者": "",
        "備考": ""
      }
    },
    {
      "type": "Feature",
      "geometry": {
        "type": "Point",
        "coordinates": [
          136.725815,
          35.187088
        ]
      },
      "properties": {
        "NO": 43669,
        "共通ID": "E2320800023111",
        "都道府県名及び市町村名": "愛知県津島市",
        "施設・場所名": "津島北高等学校",
        "住所": "愛知県津島市又吉町4-1",
        "指定緊急避難場所との住所同一": "",
        "その他市町村長が必要と認める事項": "",
        "受入対象者": "",
        "備考": ""
      }
    },
    {
      "type": "Feature",
      "geometry": {
        "type": "Point",
        "coordinates": [
          136.739119,
          35.177455
        ]
      },
      "properties": {
        "NO": 43670,
        "共通ID": "E2320800012111",
        "都道府県名及び市町村名": "愛知県津島市",
        "施設・場所名": "東小学校",
        "住所": "愛知県津島市立込町1-17",
        "指定緊急避難場所との住所同一": "1",
        "その他市町村長が必要と認める事項": "",
        "受入対象者": "",
        "備考": ""
      }
    }
  ]
}