{
  "type": "FeatureCollection",
  "name": "232033",
  "features": [
    {
      "type": "Feature",
      "geometry": {
        "type": "Point",
        "coordinates": [
          136.758068,
          35.325785
        ]
      },
      "properties": {
        "NO": 43324,
        "共通ID": "E2320300002111",
        "都道府県名及び市町村名": "愛知県一宮市",
        "施設・場所名": "奥小学校",
        "住所": "愛知県一宮市奥町字貴船前24",
        "指定緊急避難場所との住所同一": "1",
        "その他市町村長が必要と認める事項": null,
        "受入対象者": null,
        "備考": ""
      }
    },
    {
      "type": "Feature",
      "geometry": {
        "type": "Point",
        "coordinates": [
          136.764069,
          35.326363
        ]
      },
      "properties": {
        "NO": 43325,
        "共通ID": "E2320300004111",
        "都道府県名及び市町村名": "愛知県一宮市",
        "施設・場所名": "奥中学校",
        "住所": "愛知県一宮市奥町字上平池55",
        "指定緊急避難場所との住所同一": "1",
        "その他市町村長が必要と認める事項": null,
        "受入対象者": null,
        "備考": ""
      }
    },
    {
      "type": "Feature",
      "geometry": {
        "type": "Point",
        "coordinates": [
          136.772236,
          35.32105
        ]
      },
      "properties": {
        "NO": 43326,
        "共通ID": "E2320300006111",
        "都道府県名及び市町村名": "愛知県一宮市",
        "施設・場所名": "開明小学校",
        "住所": "愛知県一宮市開明字城堀20",
        "指定緊急避難場所との住所同一": "1",
        "その他市町村長が必要と認める事項": null,
        "受入対象者": null,
        "備考": ""
      }
    },
    {
      "type": "Feature",
      "geometry": {
        "type": "Point",
        "coordinates": [
          136.758175,
          35.317241
        ]
      },
      "properties": {
        "NO": 43327,
        "共通ID": "E2320300007111",
        "都道府県名及び市町村名": "愛知県一宮市",
        "施設・場所名": "尾西第三中学校",
        "住所": "愛知県一宮市開明字村上54",
        "指定緊急避難場所との住所同一": "1",
        "その他市町村長が必要と認める事項": null,
        "受入対象者": null,
        "備考": ""
      }
    },
    {
      "type": "Feature",
      "geometry": {
        "type": "Point",
        "coordinates": [
          136.807223,
          35.312214
        ]
      },
      "properties": {
        "NO": 43328,
        "共通ID": "E2320300009111",
        "都道府県名及び市町村名": "愛知県一宮市",
        "施設・場所名": "北部中学校",
        "住所": "愛知県一宮市貴船1-6-10",
        "指定緊急避難場所との住所同一": "1",
        "その他市町村長が必要と認める事項": null,
        "受入対象者": null,
        "備考": ""
      }
    },
    {
      "type": "Feature",
      "geometry": {
        "type": "Point",
        "coordinates": [
          136.810403,
          35.311699
        ]
      },
      "properties": {
        "NO": 43329,
        "共通ID": "E2320300010111",
        "都道府県名及び市町村名": "愛知県一宮市",
        "施設・場所名": "貴船小学校",
        "住所": "愛知県一宮市貴船1-8-46",
        "指定緊急避難場所との住所同一": "1",
        "その他市町村長が必要と認める事項": null,
        "受入対象者": null,
        "備考": ""
      }
    },
    {
      "type": "Feature",
      "geometry": {
        "type": "Point",
        "coordinates": [
          136.740175,
          35.306178
        ]
      },
      "properties": {
        "NO": 43330,
        "共通ID": "E2320300011111",
        "都道府県名及び市町村名": "愛知県一宮市",
        "施設・場所名": "起小学校",
        "住所": "愛知県一宮市起字西生出35",
        "指定緊急避難場所との住所同一": "1",
        "その他市町村長が必要と認める事項": null,
        "受入対象者": null,
        "備考": ""
      }
    },
    {
      "type": "Feature",
      "geometry": {
        "type": "Point",
        "coordinates": [
          136.801692,
          35.351915
        ]
      },
      "properties": {
        "NO": 43331,
        "共通ID": "E2320300014111",
        "都道府県名及び市町村名": "愛知県一宮市",
        "施設・場所名": "葉栗北小学校",
        "住所": "愛知県一宮市光明寺字畳手55",
        "指定緊急避難場所との住所同一": "1",
        "その他市町村長が必要と認める事項": null,
        "受入対象者": null,
        "備考": ""
      }
    },
    {
      "type": "Feature",
      "geometry": {
        "type": "Point",
        "coordinates": [
          136.807159,
          35.295212
        ]
      },
      "properties": {
        "NO": 43332,
        "共通ID": "E2320300015111",
        "都道府県名及び市町村名": "愛知県一宮市",
        "施設・場所名": "向山小学校",
        "住所": "愛知県一宮市向山町3-1",
        "指定緊急避難場所との住所同一": "1",
        "その他市町村長が必要と認める事項": null,
        "受入対象者": null,
        "備考": ""
      }
    },
    {
      "type": "Feature",
      "geometry": {
        "type": "Point",
        "coordinates": [
          136.804905,
          35.339359
        ]
      },
      "properties": {
        "NO": 43333,
        "共通ID": "E2320300016111",
        "都道府県名及び市町村名": "愛知県一宮市",
        "施設・場所名": "葉栗中学校",
        "住所": "愛知県一宮市高田字清水100",
        "指定緊急避難場所との住所同一": "1",
        "その他市町村長が必要と認める事項": null,
        "受入対象者": null,
        "備考": ""
      }
    },
    {
      "type": "Feature",
      "geometry": {
        "type": "Point",
        "coordinates": [
          136.786302,
          35.318712
        ]
      },
      "properties": {
        "NO": 43334,
        "共通ID": "E2320300017111",
        "都道府県名及び市町村名": "愛知県一宮市",
        "施設・場所名": "今伊勢中学校",
        "住所": "愛知県一宮市今伊勢町宮後字郷中茶原52",
        "指定緊急避難場所との住所同一": "1",
        "その他市町村長が必要と認める事項": null,
        "受入対象者": null,
        "備考": ""
      }
    },
    {
      "type": "Feature",
      "geometry": {
        "type": "Point",
        "coordinates": [
          136.792583,
          35.321878
        ]
      },
      "properties": {
        "NO": 43335,
        "共通ID": "E2320300018111",
        "都道府県名及び市町村名": "愛知県一宮市",
        "施設・場所名": "今伊勢小学校",
        "住所": "愛知県一宮市今伊勢町新神戸字乾26",
        "指定緊急避難場所との住所同一": "1",
        "その他市町村長が必要と認める事項": null,
        "受入対象者": null,
        "備考": ""
      }
    },
    {
      "type": "Feature",
      "geometry": {
        "type": "Point",
        "coordinates": [
          136.782561,
          35.324072
        ]
      },
      "properties": {
        "NO": 43336,
        "共通ID": "E2320300019111",
        "都道府県名及び市町村名": "愛知県一宮市",
        "施設・場所名": "今伊勢西小学校",
        "住所": "愛知県一宮市今伊勢町馬寄字西平4-1",
        "指定緊急避難場所との住所同一": "1",
        "その他市町村長が必要と認める事項": null,
        "受入対象者": null,
        "備考": ""
      }
    },
    {
      "type": "Feature",
      "geometry": {
        "type": "Point",
        "coordinates": [
          136.839228,
          35.276556
        ]
      },
      "properties": {
        "NO": 43337,
        "共通ID": "E2320300020111",
        "都道府県名及び市町村名": "愛知県一宮市",
        "施設・場所名": "丹陽小学校",
        "住所": "愛知県一宮市三ツ井5-22-1",
        "指定緊急避難場所との住所同一": "1",
        "その他市町村長が必要と認める事項": null,
        "受入対象者": null,
        "備考": ""
      }
    },
    {
      "type": "Feature",
      "geometry": {
        "type": "Point",
        "coordinates": [
          136.759704,
          35.306608
        ]
      },
      "properties": {
        "NO": 43338,
        "共通ID": "E2320300022111",
        "都道府県名及び市町村名": "愛知県一宮市",
        "施設・場所名": "三条小学校",
        "住所": "愛知県一宮市三条字苅16",
        "指定緊急避難場所との住所同一": "1",
        "その他市町村長が必要と認める事項": null,
        "受入対象者": null,
        "備考": ""
      }
    },
    {
      "type": "Feature",
      "geometry": {
        "type": "Point",
        "coordinates": [
          136.754355,
          35.300099
        ]
      },
      "properties": {
        "NO": 43339,
        "共通ID": "E2320300023111",
        "都道府県名及び市町村名": "愛知県一宮市",
        "施設・場所名": "尾西第一中学校",
        "住所": "愛知県一宮市三条字宮西50",
        "指定緊急避難場所との住所同一": "1",
        "その他市町村長が必要と認める事項": null,
        "受入対象者": null,
        "備考": ""
      }
    },
    {
      "type": "Feature",
      "geometry": {
        "type": "Point",
        "coordinates": [
          136.84365,
          35.317202
        ]
      },
      "properties": {
        "NO": 43340,
        "共通ID": "E2320300024111",
        "都道府県名及び市町村名": "愛知県一宮市",
        "施設・場所名": "西成東小学校",
        "住所": "愛知県一宮市春明字中切1",
        "指定緊急避難場所との住所同一": "1",
        "その他市町村長が必要と認める事項": null,
        "受入対象者": null,
        "備考": ""
      }
    },
    {
      "type": "Feature",
      "geometry": {
        "type": "Point",
        "coordinates": [
          136.746851,
          35.315239
        ]
      },
      "properties": {
        "NO": 43341,
        "共通ID": "E2320300025111",
        "都道府県名及び市町村名": "愛知県一宮市",
        "施設・場所名": "小信中島小学校",
        "住所": "愛知県一宮市小信中島字南平口59",
        "指定緊急避難場所との住所同一": "1",
        "その他市町村長が必要と認める事項": null,
        "受入対象者": null,
        "備考": ""
      }
    },
    {
      "type": "Feature",
      "geometry": {
        "type": "Point",
        "coordinates": [
          136.720339,
          35.279782
        ]
      },
      "properties": {
        "NO": 43342,
        "共通ID": "E2320300026111",
        "都道府県名及び市町村名": "愛知県一宮市",
        "施設・場所名": "朝日西小学校",
        "住所": "愛知県一宮市上祖父江字高須賀18",
        "指定緊急避難場所との住所同一": "1",
        "その他市町村長が必要と認める事項": null,
        "受入対象者": null,
        "備考": ""
      }
    },
    {
      "type": "Feature",
      "geometry": {
        "type": "Point",
        "coordinates": [
          136.835199,
          35.328792
        ]
      },
      "properties": {
        "NO": 43343,
        "共通ID": "E2320300027111",
        "都道府県名及び市町村名": "愛知県一宮市",
        "施設・場所名": "瀬部小学校",
        "住所": "愛知県一宮市瀬部字川原55",
        "指定緊急避難場所との住所同一": "1",
        "その他市町村長が必要と認める事項": null,
        "受入対象者": null,
        "備考": ""
      }
    },
    {
      "type": "Feature",
      "geometry": {
        "type": "Point",
        "coordinates": [
          136.747215,
          35.297241
        ]
      },
      "properties": {
        "NO": 43344,
        "共通ID": "E2320300028111",
        "都道府県名及び市町村名": "愛知県一宮市",
        "施設・場所名": "大徳小学校",
        "住所": "愛知県一宮市西五城字荒子中切26-1",
        "指定緊急避難場所との住所同一": "1",
        "その他市町村長が必要と認める事項": null,
        "受入対象者": null,
        "備考": ""
      }
    },
    {
      "type": "Feature",
      "geometry": {
        "type": "Point",
        "coordinates": [
          136.832502,
          35.318381
        ]
      },
      "properties": {
        "NO": 43345,
        "共通ID": "E2320300030111",
        "都道府県名及び市町村名": "愛知県一宮市",
        "施設・場所名": "西成小学校",
        "住所": "愛知県一宮市西大海道字障子目30",
        "指定緊急避難場所との住所同一": "1",
        "その他市町村長が必要と認める事項": null,
        "受入対象者": null,
        "備考": ""
      }
    },
    {
      "type": "Feature",
      "geometry": {
        "type": "Point",
        "coordinates": [
          136.830967,
          35.3193
        ]
      },
      "properties": {
        "NO": 43346,
        "共通ID": "E2320300031111",
        "都道府県名及び市町村名": "愛知県一宮市",
        "施設・場所名": "西成中学校",
        "住所": "愛知県一宮市西大海道字柏木15",
        "指定緊急避難場所との住所同一": "1",
        "その他市町村長が必要と認める事項": null,
        "受入対象者": null,
        "備考": ""
      }
    },
    {
      "type": "Feature",
      "geometry": {
        "type": "Point",
        "coordinates": [
          136.871187,
          35.304412
        ]
      },
      "properties": {
        "NO": 43347,
        "共通ID": "E2320300032111",
        "都道府県名及び市町村名": "愛知県一宮市",
        "施設・場所名": "千秋東小学校",
        "住所": "愛知県一宮市千秋町加納馬場字松下54",
        "指定緊急避難場所との住所同一": "1",
        "その他市町村長が必要と認める事項": null,
        "受入対象者": null,
        "備考": ""
      }
    },
    {
      "type": "Feature",
      "geometry": {
        "type": "Point",
        "coordinates": [
          136.861824,
          35.301846
        ]
      },
      "properties": {
        "NO": 43348,
        "共通ID": "E2320300034111",
        "都道府県名及び市町村名": "愛知県一宮市",
        "施設・場所名": "千秋中学校",
        "住所": "愛知県一宮市千秋町佐野字高須2982",
        "指定緊急避難場所との住所同一": "1",
        "その他市町村長が必要と認める事項": null,
        "受入対象者": null,
        "備考": ""
      }
    },
    {
      "type": "Feature",
      "geometry": {
        "type": "Point",
        "coordinates": [
          136.856627,
          35.303887
        ]
      },
      "properties": {
        "NO": 43349,
        "共通ID": "E2320300035111",
        "都道府県名及び市町村名": "愛知県一宮市",
        "施設・場所名": "千秋小学校",
        "住所": "愛知県一宮市千秋町佐野字北浦136",
        "指定緊急避難場所との住所同一": "1",
        "その他市町村長が必要と認める事項": null,
        "受入対象者": null,
        "備考": ""
      }
    },
    {
      "type": "Feature",
      "geometry": {
        "type": "Point",
        "coordinates": [
          136.85027,
          35.290596
        ]
      },
      "properties": {
        "NO": 43350,
        "共通ID": "E2320300036111",
        "都道府県名及び市町村名": "愛知県一宮市",
        "施設・場所名": "千秋南小学校",
        "住所": "愛知県一宮市千秋町小山1329",
        "指定緊急避難場所との住所同一": "1",
        "その他市町村長が必要と認める事項": null,
        "受入対象者": null,
        "備考": ""
      }
    },
    {
      "type": "Feature",
      "geometry": {
        "type": "Point",
        "coordinates": [
          136.85701,
          35.293003
        ]
      },
      "properties": {
        "NO": 43351,
        "共通ID": "E2320300080111",
        "都道府県名及び市町村名": "愛知県一宮市",
        "施設・場所名": "一宮南高等学校",
        "住所": "愛知県一宮市千秋町町屋字平松6-1",
        "指定緊急避難場所との住所同一": "",
        "その他市町村長が必要と認める事項": "受入対象者は他市町村等から受入れ要請のあった被災者とする。",
        "受入対象者": "",
        "備考": ""
      }
    },
    {
      "type": "Feature",
      "geometry": {
        "type": "Point",
        "coordinates": [
          136.82498,
          35.343776
        ]
      },
      "properties": {
        "NO": 43352,
        "共通ID": "E2320300038111",
        "都道府県名及び市町村名": "愛知県一宮市",
        "施設・場所名": "浅井中学校",
        "住所": "愛知県一宮市浅井町前野字郷西145",
        "指定緊急避難場所との住所同一": "1",
        "その他市町村長が必要と認める事項": null,
        "受入対象者": null,
        "備考": ""
      }
    },
    {
      "type": "Feature",
      "geometry": {
        "type": "Point",
        "coordinates": [
          136.823356,
          35.343714
        ]
      },
      "properties": {
        "NO": 43353,
        "共通ID": "E2320300039111",
        "都道府県名及び市町村名": "愛知県一宮市",
        "施設・場所名": "浅井中小学校",
        "住所": "愛知県一宮市浅井町大日比野字東若栗61",
        "指定緊急避難場所との住所同一": "1",
        "その他市町村長が必要と認める事項": null,
        "受入対象者": null,
        "備考": ""
      }
    },
    {
      "type": "Feature",
      "geometry": {
        "type": "Point",
        "coordinates": [
          136.825744,
          35.349592
        ]
      },
      "properties": {
        "NO": 43354,
        "共通ID": "E2320300040111",
        "都道府県名及び市町村名": "愛知県一宮市",
        "施設・場所名": "浅井北小学校",
        "住所": "愛知県一宮市浅井町大野字南土山75",
        "指定緊急避難場所との住所同一": "1",
        "その他市町村長が必要と認める事項": null,
        "受入対象者": null,
        "備考": ""
      }
    },
    {
      "type": "Feature",
      "geometry": {
        "type": "Point",
        "coordinates": [
          136.826298,
          35.334562
        ]
      },
      "properties": {
        "NO": 43355,
        "共通ID": "E2320300042111",
        "都道府県名及び市町村名": "愛知県一宮市",
        "施設・場所名": "浅井南小学校",
        "住所": "愛知県一宮市浅井町東浅井字地蔵386",
        "指定緊急避難場所との住所同一": "1",
        "その他市町村長が必要と認める事項": null,
        "受入対象者": null,
        "備考": ""
      }
    },
    {
      "type": "Feature",
      "geometry": {
        "type": "Point",
        "coordinates": [
          136.826077,
          35.298593
        ]
      },
      "properties": {
        "NO": 43356,
        "共通ID": "E2320300043111",
        "都道府県名及び市町村名": "愛知県一宮市",
        "施設・場所名": "南部中学校",
        "住所": "愛知県一宮市浅野字土井ノ内1-1",
        "指定緊急避難場所との住所同一": "1",
        "その他市町村長が必要と認める事項": null,
        "受入対象者": null,
        "備考": ""
      }
    },
    {
      "type": "Feature",
      "geometry": {
        "type": "Point",
        "coordinates": [
          136.830332,
          35.296652
        ]
      },
      "properties": {
        "NO": 43357,
        "共通ID": "E2320300044111",
        "都道府県名及び市町村名": "愛知県一宮市",
        "施設・場所名": "浅野小学校",
        "住所": "愛知県一宮市浅野字野口95",
        "指定緊急避難場所との住所同一": "1",
        "その他市町村長が必要と認める事項": null,
        "受入対象者": null,
        "備考": ""
      }
    },
    {
      "type": "Feature",
      "geometry": {
        "type": "Point",
        "coordinates": [
          136.813994,
          35.284265
        ]
      },
      "properties": {
        "NO": 43358,
        "共通ID": "E2320300045111",
        "都道府県名及び市町村名": "愛知県一宮市",
        "施設・場所名": "丹陽西小学校",
        "住所": "愛知県一宮市多加木1-17-1",
        "指定緊急避難場所との住所同一": "1",
        "その他市町村長が必要と認める事項": null,
        "受入対象者": null,
        "備考": ""
      }
    },
    {
      "type": "Feature",
      "geometry": {
        "type": "Point",
        "coordinates": [
          136.801271,
          35.312458
        ]
      },
      "properties": {
        "NO": 43359,
        "共通ID": "E2320300046111",
        "都道府県名及び市町村名": "愛知県一宮市",
        "施設・場所名": "宮西小学校",
        "住所": "愛知県一宮市大宮4-5-33",
        "指定緊急避難場所との住所同一": "1",
        "その他市町村長が必要と認める事項": null,
        "受入対象者": null,
        "備考": ""
      }
    },
    {
      "type": "Feature",
      "geometry": {
        "type": "Point",
        "coordinates": [
          136.805076,
          35.298952
        ]
      },
      "properties": {
        "NO": 43360,
        "共通ID": "E2320300047111",
        "都道府県名及び市町村名": "愛知県一宮市",
        "施設・場所名": "大志小学校",
        "住所": "愛知県一宮市大志2-7-6",
        "指定緊急避難場所との住所同一": "1",
        "その他市町村長が必要と認める事項": null,
        "受入対象者": null,
        "備考": ""
      }
    },
    {
      "type": "Feature",
      "geometry": {
        "type": "Point",
        "coordinates": [
          136.828466,
          35.308914
        ]
      },
      "properties": {
        "NO": 43361,
        "共通ID": "E2320300048111",
        "都道府県名及び市町村名": "愛知県一宮市",
        "施設・場所名": "赤見小学校",
        "住所": "愛知県一宮市大赤見字清水2467",
        "指定緊急避難場所との住所同一": "1",
        "その他市町村長が必要と認める事項": null,
        "受入対象者": null,
        "備考": ""
      }
    },
    {
      "type": "Feature",
      "geometry": {
        "type": "Point",
        "coordinates": [
          136.8069,
          35.341445
        ]
      },
      "properties": {
        "NO": 43362,
        "共通ID": "E2320300049111",
        "都道府県名及び市町村名": "愛知県一宮市",
        "施設・場所名": "葉栗小学校",
        "住所": "愛知県一宮市大毛字南出30",
        "指定緊急避難場所との住所同一": "1",
        "その他市町村長が必要と認める事項": null,
        "受入対象者": null,
        "備考": ""
      }
    },
    {
      "type": "Feature",
      "geometry": {
        "type": "Point",
        "coordinates": [
          136.784943,
          35.288504
        ]
      },
      "properties": {
        "NO": 43363,
        "共通ID": "E2320300050111",
        "都道府県名及び市町村名": "愛知県一宮市",
        "施設・場所名": "大和中学校",
        "住所": "愛知県一宮市大和町苅安賀字上東出80",
        "指定緊急避難場所との住所同一": "1",
        "その他市町村長が必要と認める事項": null,
        "受入対象者": null,
        "備考": ""
      }
    },
    {
      "type": "Feature",
      "geometry": {
        "type": "Point",
        "coordinates": [
          136.778911,
          35.291893
        ]
      },
      "properties": {
        "NO": 43364,
        "共通ID": "E2320300051111",
        "都道府県名及び市町村名": "愛知県一宮市",
        "施設・場所名": "大和西小学校",
        "住所": "愛知県一宮市大和町苅安賀字東北出3248",
        "指定緊急避難場所との住所同一": "1",
        "その他市町村長が必要と認める事項": null,
        "受入対象者": null,
        "備考": ""
      }
    },
    {
      "type": "Feature",
      "geometry": {
        "type": "Point",
        "coordinates": [
          136.792931,
          35.284368
        ]
      },
      "properties": {
        "NO": 43365,
        "共通ID": "E2320300052111",
        "都道府県名及び市町村名": "愛知県一宮市",
        "施設・場所名": "大和東小学校",
        "住所": "愛知県一宮市大和町戸塚字薬師浦320",
        "指定緊急避難場所との住所同一": "1",
        "その他市町村長が必要と認める事項": null,
        "受入対象者": null,
        "備考": ""
      }
    },
    {
      "type": "Feature",
      "geometry": {
        "type": "Point",
        "coordinates": [
          136.790166,
          35.27476
        ]
      },
      "properties": {
        "NO": 43366,
        "共通ID": "E2320300053111",
        "都道府県名及び市町村名": "愛知県一宮市",
        "施設・場所名": "大和南小学校",
        "住所": "愛知県一宮市大和町戸塚字連田1-2",
        "指定緊急避難場所との住所同一": "1",
        "その他市町村長が必要と認める事項": null,
        "受入対象者": null,
        "備考": ""
      }
    },
    {
      "type": "Feature",
      "geometry": {
        "type": "Point",
        "coordinates": [
          136.782629,
          35.272695
        ]
      },
      "properties": {
        "NO": 43367,
        "共通ID": "E2320300054111",
        "都道府県名及び市町村名": "愛知県一宮市",
        "施設・場所名": "大和南中学校",
        "住所": "愛知県一宮市大和町南高井字蓮原2-1",
        "指定緊急避難場所との住所同一": "1",
        "その他市町村長が必要と認める事項": null,
        "受入対象者": null,
        "備考": ""
      }
    },
    {
      "type": "Feature",
      "geometry": {
        "type": "Point",
        "coordinates": [
          136.836326,
          35.263976
        ]
      },
      "properties": {
        "NO": 43368,
        "共通ID": "E2320300055111",
        "都道府県名及び市町村名": "愛知県一宮市",
        "施設・場所名": "丹陽南小学校",
        "住所": "愛知県一宮市丹陽町九日市場2666",
        "指定緊急避難場所との住所同一": "1",
        "その他市町村長が必要と認める事項": null,
        "受入対象者": null,
        "備考": ""
      }
    },
    {
      "type": "Feature",
      "geometry": {
        "type": "Point",
        "coordinates": [
          136.836392,
          35.282792
        ]
      },
      "properties": {
        "NO": 43369,
        "共通ID": "E2320300056111",
        "都道府県名及び市町村名": "愛知県一宮市",
        "施設・場所名": "丹陽中学校",
        "住所": "愛知県一宮市丹陽町三ツ井字鬼ケ島6",
        "指定緊急避難場所との住所同一": "1",
        "その他市町村長が必要と認める事項": null,
        "受入対象者": null,
        "備考": ""
      }
    },
    {
      "type": "Feature",
      "geometry": {
        "type": "Point",
        "coordinates": [
          136.836667,
          35.311965
        ]
      },
      "properties": {
        "NO": 43370,
        "共通ID": "E2320300058111",
        "都道府県名及び市町村名": "愛知県一宮市",
        "施設・場所名": "西成東部中学校",
        "住所": "愛知県一宮市定水寺字五反田10",
        "指定緊急避難場所との住所同一": "1",
        "その他市町村長が必要と認める事項": null,
        "受入対象者": null,
        "備考": ""
      }
    },
    {
      "type": "Feature",
      "geometry": {
        "type": "Point",
        "coordinates": [
          136.76714,
          35.277102
        ]
      },
      "properties": {
        "NO": 43371,
        "共通ID": "E2320300059111",
        "都道府県名及び市町村名": "愛知県一宮市",
        "施設・場所名": "萩原中学校",
        "住所": "愛知県一宮市萩原町串作字河室浦1",
        "指定緊急避難場所との住所同一": "1",
        "その他市町村長が必要と認める事項": null,
        "受入対象者": null,
        "備考": ""
      }
    },
    {
      "type": "Feature",
      "geometry": {
        "type": "Point",
        "coordinates": [
          136.767303,
          35.279552
        ]
      },
      "properties": {
        "NO": 43372,
        "共通ID": "E2320300079111",
        "都道府県名及び市町村名": "愛知県一宮市",
        "施設・場所名": "一宮西高等学校",
        "住所": "愛知県一宮市萩原町串作字河田1",
        "指定緊急避難場所との住所同一": "",
        "その他市町村長が必要と認める事項": "受入対象者は他市町村等から受入れ要請のあった被災者とする。",
        "受入対象者": "",
        "備考": ""
      }
    },
    {
      "type": "Feature",
      "geometry": {
        "type": "Point",
        "coordinates": [
          136.773105,
          35.272816
        ]
      },
      "properties": {
        "NO": 43373,
        "共通ID": "E2320300061111",
        "都道府県名及び市町村名": "愛知県一宮市",
        "施設・場所名": "中島小学校",
        "住所": "愛知県一宮市萩原町西宮重字中光堂850",
        "指定緊急避難場所との住所同一": "1",
        "その他市町村長が必要と認める事項": null,
        "受入対象者": null,
        "備考": ""
      }
    },
    {
      "type": "Feature",
      "geometry": {
        "type": "Point",
        "coordinates": [
          136.756258,
          35.281006
        ]
      },
      "properties": {
        "NO": 43374,
        "共通ID": "E2320300062111",
        "都道府県名及び市町村名": "愛知県一宮市",
        "施設・場所名": "萩原小学校",
        "住所": "愛知県一宮市萩原町萩原字河原崎1544",
        "指定緊急避難場所との住所同一": "1",
        "その他市町村長が必要と認める事項": null,
        "受入対象者": null,
        "備考": ""
      }
    },
    {
      "type": "Feature",
      "geometry": {
        "type": "Point",
        "coordinates": [
          136.788671,
          35.306027
        ]
      },
      "properties": {
        "NO": 43375,
        "共通ID": "E2320300063111",
        "都道府県名及び市町村名": "愛知県一宮市",
        "施設・場所名": "中部中学校",
        "住所": "愛知県一宮市八幡4-1-111",
        "指定緊急避難場所との住所同一": "1",
        "その他市町村長が必要と認める事項": null,
        "受入対象者": null,
        "備考": ""
      }
    },
    {
      "type": "Feature",
      "geometry": {
        "type": "Point",
        "coordinates": [
          136.817165,
          35.304214
        ]
      },
      "properties": {
        "NO": 43376,
        "共通ID": "E2320300064111",
        "都道府県名及び市町村名": "愛知県一宮市",
        "施設・場所名": "富士小学校",
        "住所": "愛知県一宮市富士2-5-14",
        "指定緊急避難場所との住所同一": "1",
        "その他市町村長が必要と認める事項": null,
        "受入対象者": null,
        "備考": ""
      }
    },
    {
      "type": "Feature",
      "geometry": {
        "type": "Point",
        "coordinates": [
          136.788837,
          35.301656
        ]
      },
      "properties": {
        "NO": 43377,
        "共通ID": "E2320300067111",
        "都道府県名及び市町村名": "愛知県一宮市",
        "施設・場所名": "神山小学校",
        "住所": "愛知県一宮市平和2-12-7",
        "指定緊急避難場所との住所同一": "1",
        "その他市町村長が必要と認める事項": null,
        "受入対象者": null,
        "備考": ""
      }
    },
    {
      "type": "Feature",
      "geometry": {
        "type": "Point",
        "coordinates": [
          136.809673,
          35.295933
        ]
      },
      "properties": {
        "NO": 43378,
        "共通ID": "E2320300078111",
        "都道府県名及び市町村名": "愛知県一宮市",
        "施設・場所名": "一宮高等学校",
        "住所": "愛知県一宮市北園通6-9",
        "指定緊急避難場所との住所同一": "",
        "その他市町村長が必要と認める事項": "受入対象者は他市町村等から受入れ要請のあった被災者とする。",
        "受入対象者": "",
        "備考": ""
      }
    },
    {
      "type": "Feature",
      "geometry": {
        "type": "Point",
        "coordinates": [
          136.780553,
          35.360301
        ]
      },
      "properties": {
        "NO": 43379,
        "共通ID": "E2320300068111",
        "都道府県名及び市町村名": "愛知県一宮市",
        "施設・場所名": "北方中学校",
        "住所": "愛知県一宮市北方町北方字宮浦42",
        "指定緊急避難場所との住所同一": "1",
        "その他市町村長が必要と認める事項": null,
        "受入対象者": null,
        "備考": ""
      }
    },
    {
      "type": "Feature",
      "geometry": {
        "type": "Point",
        "coordinates": [
          136.782019,
          35.361535
        ]
      },
      "properties": {
        "NO": 43380,
        "共通ID": "E2320300069111",
        "都道府県名及び市町村名": "愛知県一宮市",
        "施設・場所名": "北方小学校",
        "住所": "愛知県一宮市北方町北方字宮浦43",
        "指定緊急避難場所との住所同一": "1",
        "その他市町村長が必要と認める事項": null,
        "受入対象者": null,
        "備考": ""
      }
    },
    {
      "type": "Feature",
      "geometry": {
        "type": "Point",
        "coordinates": [
          136.788071,
          35.29568
        ]
      },
      "properties": {
        "NO": 43381,
        "共通ID": "E2320300070111",
        "都道府県名及び市町村名": "愛知県一宮市",
        "施設・場所名": "末広小学校",
        "住所": "愛知県一宮市末広2-20-1",
        "指定緊急避難場所との住所同一": "1",
        "その他市町村長が必要と認める事項": null,
        "受入対象者": null,
        "備考": ""
      }
    },
    {
      "type": "Feature",
      "geometry": {
        "type": "Point",
        "coordinates": [
          136.736286,
          35.279518
        ]
      },
      "properties": {
        "NO": 43382,
        "共通ID": "E2320300071111",
        "都道府県名及び市町村名": "愛知県一宮市",
        "施設・場所名": "朝日東小学校",
        "住所": "愛知県一宮市明地字江端8",
        "指定緊急避難場所との住所同一": "1",
        "その他市町村長が必要と認める事項": null,
        "受入対象者": null,
        "備考": ""
      }
    },
    {
      "type": "Feature",
      "geometry": {
        "type": "Point",
        "coordinates": [
          136.742889,
          35.278885
        ]
      },
      "properties": {
        "NO": 43383,
        "共通ID": "E2320300072111",
        "都道府県名及び市町村名": "愛知県一宮市",
        "施設・場所名": "尾西第二中学校",
        "住所": "愛知県一宮市明地字油屋前30",
        "指定緊急避難場所との住所同一": "1",
        "その他市町村長が必要と認める事項": null,
        "受入対象者": null,
        "備考": ""
      }
    },
    {
      "type": "Feature",
      "geometry": {
        "type": "Point",
        "coordinates": [
          136.764319,
          35.340203
        ]
      },
      "properties": {
        "NO": 43384,
        "共通ID": "E2320300073111",
        "都道府県名及び市町村名": "愛知県一宮市",
        "施設・場所名": "木曽川西小学校",
        "住所": "愛知県一宮市木曽川町玉ノ井字道路寺7-3",
        "指定緊急避難場所との住所同一": "1",
        "その他市町村長が必要と認める事項": null,
        "受入対象者": null,
        "備考": ""
      }
    },
    {
      "type": "Feature",
      "geometry": {
        "type": "Point",
        "coordinates": [
          136.780322,
          35.344553
        ]
      },
      "properties": {
        "NO": 43385,
        "共通ID": "E2320300074111",
        "都道府県名及び市町村名": "愛知県一宮市",
        "施設・場所名": "黒田小学校",
        "住所": "愛知県一宮市木曽川町黒田字古城26-2",
        "指定緊急避難場所との住所同一": "1",
        "その他市町村長が必要と認める事項": null,
        "受入対象者": null,
        "備考": ""
      }
    },
    {
      "type": "Feature",
      "geometry": {
        "type": "Point",
        "coordinates": [
          136.789343,
          35.341648
        ]
      },
      "properties": {
        "NO": 43386,
        "共通ID": "E2320300076111",
        "都道府県名及び市町村名": "愛知県一宮市",
        "施設・場所名": "木曽川東小学校",
        "住所": "愛知県一宮市木曽川町黒田八ノ通り141-1",
        "指定緊急避難場所との住所同一": "1",
        "その他市町村長が必要と認める事項": null,
        "受入対象者": null,
        "備考": ""
      }
    },
    {
      "type": "Feature",
      "geometry": {
        "type": "Point",
        "coordinates": [
          136.768334,
          35.343265
        ]
      },
      "properties": {
        "NO": 43387,
        "共通ID": "E2320300077111",
        "都道府県名及び市町村名": "愛知県一宮市",
        "施設・場所名": "木曽川中学校",
        "住所": "愛知県一宮市木曽川町里小牧字北青木25",
        "指定緊急避難場所との住所同一": "1",
        "その他市町村長が必要と認める事項": null,
        "受入対象者": null,
        "備考": ""
      }
    }
  ]
}