{
  "type": "FeatureCollection",
  "name": "232114",
  "features": [
    {
      "type": "Feature",
      "geometry": {
        "type": "Point",
        "coordinates": [
          137.153604,
          35.121741
        ]
      },
      "properties": {
        "NO": 43745,
        "共通ID": "E2321100123111",
        "都道府県名及び市町村名": "愛知県豊田市",
        "施設・場所名": "愛知県立豊田高等学校",
        "住所": "愛知県豊田市伊保町三本松1",
        "指定緊急避難場所との住所同一": "1",
        "その他市町村長が必要と認める事項": "",
        "受入対象者": "",
        "備考": ""
      }
    },
    {
      "type": "Feature",
      "geometry": {
        "type": "Point",
        "coordinates": [
          137.177563,
          35.130782
        ]
      },
      "properties": {
        "NO": 43746,
        "共通ID": "E2321100002111",
        "都道府県名及び市町村名": "愛知県豊田市",
        "施設・場所名": "井郷中学校",
        "住所": "愛知県豊田市井上町1-10-1",
        "指定緊急避難場所との住所同一": "1",
        "その他市町村長が必要と認める事項": null,
        "受入対象者": null,
        "備考": ""
      }
    },
    {
      "type": "Feature",
      "geometry": {
        "type": "Point",
        "coordinates": [
          137.17462,
          35.121369
        ]
      },
      "properties": {
        "NO": 43747,
        "共通ID": "E2321100003111",
        "都道府県名及び市町村名": "愛知県豊田市",
        "施設・場所名": "猿投農林高等学校",
        "住所": "愛知県豊田市井上町12-179",
        "指定緊急避難場所との住所同一": "1",
        "その他市町村長が必要と認める事項": "",
        "受入対象者": "",
        "備考": ""
      }
    },
    {
      "type": "Feature",
      "geometry": {
        "type": "Point",
        "coordinates": [
          137.182889,
          35.128248
        ]
      },
      "properties": {
        "NO": 43748,
        "共通ID": "E2321100004111",
        "都道府県名及び市町村名": "愛知県豊田市",
        "施設・場所名": "井上小学校",
        "住所": "愛知県豊田市井上町2-34",
        "指定緊急避難場所との住所同一": "1",
        "その他市町村長が必要と認める事項": null,
        "受入対象者": null,
        "備考": ""
      }
    },
    {
      "type": "Feature",
      "geometry": {
        "type": "Point",
        "coordinates": [
          137.508968,
          35.215642
        ]
      },
      "properties": {
        "NO": 43749,
        "共通ID": "E2321100005111",
        "都道府県名及び市町村名": "愛知県豊田市",
        "施設・場所名": "稲武交流館",
        "住所": "愛知県豊田市稲武町竹ノ下1-1",
        "指定緊急避難場所との住所同一": "1",
        "その他市町村長が必要と認める事項": null,
        "受入対象者": null,
        "備考": ""
      }
    },
    {
      "type": "Feature",
      "geometry": {
        "type": "Point",
        "coordinates": [
          137.218182,
          35.063996
        ]
      },
      "properties": {
        "NO": 43750,
        "共通ID": "E2321100006111",
        "都道府県名及び市町村名": "愛知県豊田市",
        "施設・場所名": "松平高等学校",
        "住所": "愛知県豊田市鵜ケ瀬町桐山1",
        "指定緊急避難場所との住所同一": "1",
        "その他市町村長が必要と認める事項": "",
        "受入対象者": "",
        "備考": ""
      }
    },
    {
      "type": "Feature",
      "geometry": {
        "type": "Point",
        "coordinates": [
          137.149878,
          35.098312
        ]
      },
      "properties": {
        "NO": 43751,
        "共通ID": "E2321100007111",
        "都道府県名及び市町村名": "愛知県豊田市",
        "施設・場所名": "崇化館中学校",
        "住所": "愛知県豊田市栄町2-6",
        "指定緊急避難場所との住所同一": "1",
        "その他市町村長が必要と認める事項": null,
        "受入対象者": null,
        "備考": ""
      }
    },
    {
      "type": "Feature",
      "geometry": {
        "type": "Point",
        "coordinates": [
          137.297021,
          35.239353
        ]
      },
      "properties": {
        "NO": 43752,
        "共通ID": "E2321100008111",
        "都道府県名及び市町村名": "愛知県豊田市",
        "施設・場所名": "小原交流館",
        "住所": "愛知県豊田市永太郎町落681-1",
        "指定緊急避難場所との住所同一": "1",
        "その他市町村長が必要と認める事項": null,
        "受入対象者": null,
        "備考": ""
      }
    },
    {
      "type": "Feature",
      "geometry": {
        "type": "Point",
        "coordinates": [
          137.184298,
          35.107877
        ]
      },
      "properties": {
        "NO": 43753,
        "共通ID": "E2321100009111",
        "都道府県名及び市町村名": "愛知県豊田市",
        "施設・場所名": "越戸こども園",
        "住所": "愛知県豊田市越戸町松葉52-2",
        "指定緊急避難場所との住所同一": "1",
        "その他市町村長が必要と認める事項": null,
        "受入対象者": null,
        "備考": ""
      }
    },
    {
      "type": "Feature",
      "geometry": {
        "type": "Point",
        "coordinates": [
          137.153014,
          35.028715
        ]
      },
      "properties": {
        "NO": 43754,
        "共通ID": "E2321100010111",
        "都道府県名及び市町村名": "愛知県豊田市",
        "施設・場所名": "寿恵野小学校",
        "住所": "愛知県豊田市鴛鴨町東屋敷50",
        "指定緊急避難場所との住所同一": "1",
        "その他市町村長が必要と認める事項": null,
        "受入対象者": null,
        "備考": ""
      }
    },
    {
      "type": "Feature",
      "geometry": {
        "type": "Point",
        "coordinates": [
          137.485338,
          35.256798
        ]
      },
      "properties": {
        "NO": 43755,
        "共通ID": "E2321100011111",
        "都道府県名及び市町村名": "愛知県豊田市",
        "施設・場所名": "押山地区振興施設",
        "住所": "愛知県豊田市押山町ススベ99-1",
        "指定緊急避難場所との住所同一": "1",
        "その他市町村長が必要と認める事項": null,
        "受入対象者": null,
        "備考": ""
      }
    },
    {
      "type": "Feature",
      "geometry": {
        "type": "Point",
        "coordinates": [
          137.296303,
          35.027041
        ]
      },
      "properties": {
        "NO": 43756,
        "共通ID": "E2321100012111",
        "都道府県名及び市町村名": "愛知県豊田市",
        "施設・場所名": "花山小学校",
        "住所": "愛知県豊田市下山田代町万徳前16-4",
        "指定緊急避難場所との住所同一": "1",
        "その他市町村長が必要と認める事項": null,
        "受入対象者": null,
        "備考": ""
      }
    },
    {
      "type": "Feature",
      "geometry": {
        "type": "Point",
        "coordinates": [
          137.1647,
          35.066741
        ]
      },
      "properties": {
        "NO": 43757,
        "共通ID": "E2321100013111",
        "都道府県名及び市町村名": "愛知県豊田市",
        "施設・場所名": "根川小学校",
        "住所": "愛知県豊田市下林町7-30",
        "指定緊急避難場所との住所同一": "1",
        "その他市町村長が必要と認める事項": null,
        "受入対象者": null,
        "備考": ""
      }
    },
    {
      "type": "Feature",
      "geometry": {
        "type": "Point",
        "coordinates": [
          137.163435,
          35.157096
        ]
      },
      "properties": {
        "NO": 43758,
        "共通ID": "E2321100014111",
        "都道府県名及び市町村名": "愛知県豊田市",
        "施設・場所名": "猿投中学校",
        "住所": "愛知県豊田市加納町東股15",
        "指定緊急避難場所との住所同一": "1",
        "その他市町村長が必要と認める事項": null,
        "受入対象者": null,
        "備考": ""
      }
    },
    {
      "type": "Feature",
      "geometry": {
        "type": "Point",
        "coordinates": [
          137.163429,
          35.156145
        ]
      },
      "properties": {
        "NO": 43759,
        "共通ID": "E2321100015111",
        "都道府県名及び市町村名": "愛知県豊田市",
        "施設・場所名": "加納小学校",
        "住所": "愛知県豊田市加納町東股55",
        "指定緊急避難場所との住所同一": "1",
        "その他市町村長が必要と認める事項": null,
        "受入対象者": null,
        "備考": ""
      }
    },
    {
      "type": "Feature",
      "geometry": {
        "type": "Point",
        "coordinates": [
          137.088699,
          35.015347
        ]
      },
      "properties": {
        "NO": 43760,
        "共通ID": "E2321100016111",
        "都道府県名及び市町村名": "愛知県豊田市",
        "施設・場所名": "若園中学校",
        "住所": "愛知県豊田市花園町脇ノ田13-3",
        "指定緊急避難場所との住所同一": "1",
        "その他市町村長が必要と認める事項": null,
        "受入対象者": null,
        "備考": ""
      }
    },
    {
      "type": "Feature",
      "geometry": {
        "type": "Point",
        "coordinates": [
          137.204542,
          35.051262
        ]
      },
      "properties": {
        "NO": 43761,
        "共通ID": "E2321100017111",
        "都道府県名及び市町村名": "愛知県豊田市",
        "施設・場所名": "岩倉小学校",
        "住所": "愛知県豊田市岩倉町五ツ畑23",
        "指定緊急避難場所との住所同一": "1",
        "その他市町村長が必要と認める事項": null,
        "受入対象者": null,
        "備考": ""
      }
    },
    {
      "type": "Feature",
      "geometry": {
        "type": "Point",
        "coordinates": [
          137.215423,
          35.053078
        ]
      },
      "properties": {
        "NO": 43762,
        "共通ID": "E2321100019111",
        "都道府県名及び市町村名": "愛知県豊田市",
        "施設・場所名": "九久平小学校",
        "住所": "愛知県豊田市九久平町寺前3-2",
        "指定緊急避難場所との住所同一": "1",
        "その他市町村長が必要と認める事項": null,
        "受入対象者": null,
        "備考": ""
      }
    },
    {
      "type": "Feature",
      "geometry": {
        "type": "Point",
        "coordinates": [
          137.215733,
          35.054493
        ]
      },
      "properties": {
        "NO": 43763,
        "共通ID": "E2321100020111",
        "都道府県名及び市町村名": "愛知県豊田市",
        "施設・場所名": "松平こども園",
        "住所": "愛知県豊田市九久平町簗場52",
        "指定緊急避難場所との住所同一": "1",
        "その他市町村長が必要と認める事項": null,
        "受入対象者": null,
        "備考": ""
      }
    },
    {
      "type": "Feature",
      "geometry": {
        "type": "Point",
        "coordinates": [
          137.053685,
          35.019678
        ]
      },
      "properties": {
        "NO": 43764,
        "共通ID": "E2321100021111",
        "都道府県名及び市町村名": "愛知県豊田市",
        "施設・場所名": "駒場小学校",
        "住所": "愛知県豊田市駒場町新生58",
        "指定緊急避難場所との住所同一": "1",
        "その他市町村長が必要と認める事項": null,
        "受入対象者": null,
        "備考": ""
      }
    },
    {
      "type": "Feature",
      "geometry": {
        "type": "Point",
        "coordinates": [
          137.500331,
          35.215422
        ]
      },
      "properties": {
        "NO": 43765,
        "共通ID": "E2321100022111",
        "都道府県名及び市町村名": "愛知県豊田市",
        "施設・場所名": "稲武中学校",
        "住所": "愛知県豊田市桑原町鐘鋳場270",
        "指定緊急避難場所との住所同一": "1",
        "その他市町村長が必要と認める事項": null,
        "受入対象者": null,
        "備考": ""
      }
    },
    {
      "type": "Feature",
      "geometry": {
        "type": "Point",
        "coordinates": [
          137.348908,
          35.147787
        ]
      },
      "properties": {
        "NO": 43766,
        "共通ID": "E2321100023111",
        "都道府県名及び市町村名": "愛知県豊田市",
        "施設・場所名": "萩野小学校",
        "住所": "愛知県豊田市桑田和町宮ノ前5",
        "指定緊急避難場所との住所同一": "1",
        "その他市町村長が必要と認める事項": null,
        "受入対象者": null,
        "備考": ""
      }
    },
    {
      "type": "Feature",
      "geometry": {
        "type": "Point",
        "coordinates": [
          137.189873,
          35.062182
        ]
      },
      "properties": {
        "NO": 43767,
        "共通ID": "E2321100024111",
        "都道府県名及び市町村名": "愛知県豊田市",
        "施設・場所名": "五ケ丘小学校",
        "住所": "愛知県豊田市五ケ丘4-2",
        "指定緊急避難場所との住所同一": "1",
        "その他市町村長が必要と認める事項": null,
        "受入対象者": null,
        "備考": ""
      }
    },
    {
      "type": "Feature",
      "geometry": {
        "type": "Point",
        "coordinates": [
          137.198808,
          35.065181
        ]
      },
      "properties": {
        "NO": 43768,
        "共通ID": "E2321100025111",
        "都道府県名及び市町村名": "愛知県豊田市",
        "施設・場所名": "五ケ丘東小学校",
        "住所": "愛知県豊田市五ケ丘8-1",
        "指定緊急避難場所との住所同一": "1",
        "その他市町村長が必要と認める事項": null,
        "受入対象者": null,
        "備考": ""
      }
    },
    {
      "type": "Feature",
      "geometry": {
        "type": "Point",
        "coordinates": [
          137.147215,
          35.074714
        ]
      },
      "properties": {
        "NO": 43769,
        "共通ID": "E2321100026111",
        "都道府県名及び市町村名": "愛知県豊田市",
        "施設・場所名": "童子山小学校",
        "住所": "愛知県豊田市御幸町1-60",
        "指定緊急避難場所との住所同一": "1",
        "その他市町村長が必要と認める事項": null,
        "受入対象者": null,
        "備考": ""
      }
    },
    {
      "type": "Feature",
      "geometry": {
        "type": "Point",
        "coordinates": [
          137.247562,
          35.195051
        ]
      },
      "properties": {
        "NO": 43770,
        "共通ID": "E2321100027111",
        "都道府県名及び市町村名": "愛知県豊田市",
        "施設・場所名": "御作小学校",
        "住所": "愛知県豊田市御作町田中1086-4",
        "指定緊急避難場所との住所同一": "1",
        "その他市町村長が必要と認める事項": null,
        "受入対象者": null,
        "備考": ""
      }
    },
    {
      "type": "Feature",
      "geometry": {
        "type": "Point",
        "coordinates": [
          137.231518,
          35.082823
        ]
      },
      "properties": {
        "NO": 43771,
        "共通ID": "E2321100028111",
        "都道府県名及び市町村名": "愛知県豊田市",
        "施設・場所名": "幸海小学校",
        "住所": "愛知県豊田市幸海町下御堂下切14-1",
        "指定緊急避難場所との住所同一": "",
        "その他市町村長が必要と認める事項": "",
        "受入対象者": "",
        "備考": ""
      }
    },
    {
      "type": "Feature",
      "geometry": {
        "type": "Point",
        "coordinates": [
          137.122694,
          35.0072
        ]
      },
      "properties": {
        "NO": 43772,
        "共通ID": "E2321100029111",
        "都道府県名及び市町村名": "愛知県豊田市",
        "施設・場所名": "高嶺小学校",
        "住所": "愛知県豊田市広美町高根2-1",
        "指定緊急避難場所との住所同一": "1",
        "その他市町村長が必要と認める事項": null,
        "受入対象者": null,
        "備考": ""
      }
    },
    {
      "type": "Feature",
      "geometry": {
        "type": "Point",
        "coordinates": [
          137.182163,
          35.094355
        ]
      },
      "properties": {
        "NO": 43773,
        "共通ID": "E2321100030111",
        "都道府県名及び市町村名": "愛知県豊田市",
        "施設・場所名": "高橋中学校",
        "住所": "愛知県豊田市高橋町4-70",
        "指定緊急避難場所との住所同一": "1",
        "その他市町村長が必要と認める事項": null,
        "受入対象者": null,
        "備考": ""
      }
    },
    {
      "type": "Feature",
      "geometry": {
        "type": "Point",
        "coordinates": [
          137.256309,
          35.066933
        ]
      },
      "properties": {
        "NO": 43774,
        "共通ID": "E2321100031111",
        "都道府県名及び市町村名": "愛知県豊田市",
        "施設・場所名": "豊松小学校",
        "住所": "愛知県豊田市坂上町郷敷1-1",
        "指定緊急避難場所との住所同一": "1",
        "その他市町村長が必要と認める事項": null,
        "受入対象者": null,
        "備考": ""
      }
    },
    {
      "type": "Feature",
      "geometry": {
        "type": "Point",
        "coordinates": [
          137.322096,
          35.218354
        ]
      },
      "properties": {
        "NO": 43775,
        "共通ID": "E2321100032111",
        "都道府県名及び市町村名": "愛知県豊田市",
        "施設・場所名": "笹戸会館",
        "住所": "愛知県豊田市笹戸町平畑1",
        "指定緊急避難場所との住所同一": "1",
        "その他市町村長が必要と認める事項": null,
        "受入対象者": null,
        "備考": ""
      }
    },
    {
      "type": "Feature",
      "geometry": {
        "type": "Point",
        "coordinates": [
          137.297427,
          35.26293
        ]
      },
      "properties": {
        "NO": 43776,
        "共通ID": "E2321100033111",
        "都道府県名及び市町村名": "愛知県豊田市",
        "施設・場所名": "小原北部生活改善センター",
        "住所": "愛知県豊田市雑敷町東門84-1",
        "指定緊急避難場所との住所同一": "1",
        "その他市町村長が必要と認める事項": null,
        "受入対象者": null,
        "備考": ""
      }
    },
    {
      "type": "Feature",
      "geometry": {
        "type": "Point",
        "coordinates": [
          137.140914,
          35.084809
        ]
      },
      "properties": {
        "NO": 43777,
        "共通ID": "E2321100034111",
        "都道府県名及び市町村名": "愛知県豊田市",
        "施設・場所名": "衣丘小学校",
        "住所": "愛知県豊田市三軒町6-20-1",
        "指定緊急避難場所との住所同一": "1",
        "その他市町村長が必要と認める事項": null,
        "受入対象者": null,
        "備考": ""
      }
    },
    {
      "type": "Feature",
      "geometry": {
        "type": "Point",
        "coordinates": [
          137.143282,
          35.05744
        ]
      },
      "properties": {
        "NO": 43778,
        "共通ID": "E2321100035111",
        "都道府県名及び市町村名": "愛知県豊田市",
        "施設・場所名": "山之手小学校",
        "住所": "愛知県豊田市山之手6-6",
        "指定緊急避難場所との住所同一": "1",
        "その他市町村長が必要と認める事項": null,
        "受入対象者": null,
        "備考": ""
      }
    },
    {
      "type": "Feature",
      "geometry": {
        "type": "Point",
        "coordinates": [
          137.299547,
          35.098287
        ]
      },
      "properties": {
        "NO": 43779,
        "共通ID": "E2321100036111",
        "都道府県名及び市町村名": "愛知県豊田市",
        "施設・場所名": "冷田小学校",
        "住所": "愛知県豊田市四ツ松町笹ケ田40-1",
        "指定緊急避難場所との住所同一": "1",
        "その他市町村長が必要と認める事項": null,
        "受入対象者": null,
        "備考": ""
      }
    },
    {
      "type": "Feature",
      "geometry": {
        "type": "Point",
        "coordinates": [
          137.171605,
          35.130371
        ]
      },
      "properties": {
        "NO": 43780,
        "共通ID": "E2321100037111",
        "都道府県名及び市町村名": "愛知県豊田市",
        "施設・場所名": "四郷小学校",
        "住所": "愛知県豊田市四郷町山畑76-8",
        "指定緊急避難場所との住所同一": "1",
        "その他市町村長が必要と認める事項": null,
        "受入対象者": null,
        "備考": ""
      }
    },
    {
      "type": "Feature",
      "geometry": {
        "type": "Point",
        "coordinates": [
          137.299783,
          35.225507
        ]
      },
      "properties": {
        "NO": 43781,
        "共通ID": "E2321100038111",
        "都道府県名及び市町村名": "愛知県豊田市",
        "施設・場所名": "本城小学校",
        "住所": "愛知県豊田市市場町市場前372-2",
        "指定緊急避難場所との住所同一": "1",
        "その他市町村長が必要と認める事項": null,
        "受入対象者": null,
        "備考": ""
      }
    },
    {
      "type": "Feature",
      "geometry": {
        "type": "Point",
        "coordinates": [
          137.196885,
          35.095367
        ]
      },
      "properties": {
        "NO": 43782,
        "共通ID": "E2321100039111",
        "都道府県名及び市町村名": "愛知県豊田市",
        "施設・場所名": "市木小学校",
        "住所": "愛知県豊田市市木町8-1-2",
        "指定緊急避難場所との住所同一": "1",
        "その他市町村長が必要と認める事項": null,
        "受入対象者": null,
        "備考": ""
      }
    },
    {
      "type": "Feature",
      "geometry": {
        "type": "Point",
        "coordinates": [
          137.197157,
          35.071599
        ]
      },
      "properties": {
        "NO": 43783,
        "共通ID": "E2321100040111",
        "都道府県名及び市町村名": "愛知県豊田市",
        "施設・場所名": "古瀬間小学校",
        "住所": "愛知県豊田市志賀町西之海道240",
        "指定緊急避難場所との住所同一": "1",
        "その他市町村長が必要と認める事項": null,
        "受入対象者": null,
        "備考": ""
      }
    },
    {
      "type": "Feature",
      "geometry": {
        "type": "Point",
        "coordinates": [
          137.196022,
          35.067599
        ]
      },
      "properties": {
        "NO": 43784,
        "共通ID": "E2321100041111",
        "都道府県名及び市町村名": "愛知県豊田市",
        "施設・場所名": "益富中学校",
        "住所": "愛知県豊田市志賀町浜居場625",
        "指定緊急避難場所との住所同一": "1",
        "その他市町村長が必要と認める事項": null,
        "受入対象者": null,
        "備考": ""
      }
    },
    {
      "type": "Feature",
      "geometry": {
        "type": "Point",
        "coordinates": [
          137.087132,
          35.034712
        ]
      },
      "properties": {
        "NO": 43785,
        "共通ID": "E2321100042111",
        "都道府県名及び市町村名": "愛知県豊田市",
        "施設・場所名": "高岡中学校",
        "住所": "愛知県豊田市若林西町広崎82",
        "指定緊急避難場所との住所同一": "1",
        "その他市町村長が必要と認める事項": null,
        "受入対象者": null,
        "備考": ""
      }
    },
    {
      "type": "Feature",
      "geometry": {
        "type": "Point",
        "coordinates": [
          137.09462,
          35.032927
        ]
      },
      "properties": {
        "NO": 43786,
        "共通ID": "E2321100043111",
        "都道府県名及び市町村名": "愛知県豊田市",
        "施設・場所名": "若林西小学校",
        "住所": "愛知県豊田市若林西町西ノ堂7",
        "指定緊急避難場所との住所同一": "1",
        "その他市町村長が必要と認める事項": null,
        "受入対象者": null,
        "備考": ""
      }
    },
    {
      "type": "Feature",
      "geometry": {
        "type": "Point",
        "coordinates": [
          137.105456,
          35.023349
        ]
      },
      "properties": {
        "NO": 43787,
        "共通ID": "E2321100044111",
        "都道府県名及び市町村名": "愛知県豊田市",
        "施設・場所名": "若林東小学校",
        "住所": "愛知県豊田市若林東町広間64",
        "指定緊急避難場所との住所同一": "1",
        "その他市町村長が必要と認める事項": null,
        "受入対象者": null,
        "備考": ""
      }
    },
    {
      "type": "Feature",
      "geometry": {
        "type": "Point",
        "coordinates": [
          137.102425,
          35.020807
        ]
      },
      "properties": {
        "NO": 43788,
        "共通ID": "E2321100045111",
        "都道府県名及び市町村名": "愛知県豊田市",
        "施設・場所名": "愛知県立豊田南高等学校",
        "住所": "愛知県豊田市若林東町中外根1-1",
        "指定緊急避難場所との住所同一": "1",
        "その他市町村長が必要と認める事項": "",
        "受入対象者": "",
        "備考": ""
      }
    },
    {
      "type": "Feature",
      "geometry": {
        "type": "Point",
        "coordinates": [
          137.121171,
          35.038707
        ]
      },
      "properties": {
        "NO": 43789,
        "共通ID": "E2321100046111",
        "都道府県名及び市町村名": "愛知県豊田市",
        "施設・場所名": "竹村小学校",
        "住所": "愛知県豊田市住吉町大興4",
        "指定緊急避難場所との住所同一": "1",
        "その他市町村長が必要と認める事項": null,
        "受入対象者": null,
        "備考": ""
      }
    },
    {
      "type": "Feature",
      "geometry": {
        "type": "Point",
        "coordinates": [
          137.182824,
          35.08345
        ]
      },
      "properties": {
        "NO": 43790,
        "共通ID": "E2321100047111",
        "都道府県名及び市町村名": "愛知県豊田市",
        "施設・場所名": "広川台小学校",
        "住所": "愛知県豊田市渋谷町1-12-1",
        "指定緊急避難場所との住所同一": "1",
        "その他市町村長が必要と認める事項": null,
        "受入対象者": null,
        "備考": ""
      }
    },
    {
      "type": "Feature",
      "geometry": {
        "type": "Point",
        "coordinates": [
          137.19226,
          35.082871
        ]
      },
      "properties": {
        "NO": 43791,
        "共通ID": "E2321100048111",
        "都道府県名及び市町村名": "愛知県豊田市",
        "施設・場所名": "東山小学校",
        "住所": "愛知県豊田市渋谷町3-8",
        "指定緊急避難場所との住所同一": "1",
        "その他市町村長が必要と認める事項": null,
        "受入対象者": null,
        "備考": ""
      }
    },
    {
      "type": "Feature",
      "geometry": {
        "type": "Point",
        "coordinates": [
          137.286508,
          35.230287
        ]
      },
      "properties": {
        "NO": 43792,
        "共通ID": "E2321100049111",
        "都道府県名及び市町村名": "愛知県豊田市",
        "施設・場所名": "小原町勤労者研修センター",
        "住所": "愛知県豊田市小原町上平941-15",
        "指定緊急避難場所との住所同一": "1",
        "その他市町村長が必要と認める事項": null,
        "受入対象者": null,
        "備考": ""
      }
    },
    {
      "type": "Feature",
      "geometry": {
        "type": "Point",
        "coordinates": [
          137.143556,
          35.082064
        ]
      },
      "properties": {
        "NO": 43793,
        "共通ID": "E2321100050111",
        "都道府県名及び市町村名": "愛知県豊田市",
        "施設・場所名": "愛知県立豊田西高等学校",
        "住所": "愛知県豊田市小坂町14-65",
        "指定緊急避難場所との住所同一": "1",
        "その他市町村長が必要と認める事項": "",
        "受入対象者": "",
        "備考": ""
      }
    },
    {
      "type": "Feature",
      "geometry": {
        "type": "Point",
        "coordinates": [
          137.453508,
          35.190261
        ]
      },
      "properties": {
        "NO": 43794,
        "共通ID": "E2321100001113",
        "都道府県名及び市町村名": "愛知県豊田市",
        "施設・場所名": "稲武小田木老人憩の家",
        "住所": "愛知県豊田市小田木町清水畑20-1",
        "指定緊急避難場所との住所同一": "",
        "その他市町村長が必要と認める事項": "",
        "受入対象者": "",
        "備考": ""
      }
    },
    {
      "type": "Feature",
      "geometry": {
        "type": "Point",
        "coordinates": [
          137.362043,
          35.231777
        ]
      },
      "properties": {
        "NO": 43795,
        "共通ID": "E2321100052111",
        "都道府県名及び市町村名": "愛知県豊田市",
        "施設・場所名": "旭支所",
        "住所": "愛知県豊田市小渡町船戸15-1",
        "指定緊急避難場所との住所同一": "1",
        "その他市町村長が必要と認める事項": null,
        "受入対象者": null,
        "備考": ""
      }
    },
    {
      "type": "Feature",
      "geometry": {
        "type": "Point",
        "coordinates": [
          137.13376,
          35.009589
        ]
      },
      "properties": {
        "NO": 43796,
        "共通ID": "E2321100053111",
        "都道府県名及び市町村名": "愛知県豊田市",
        "施設・場所名": "上郷中学校",
        "住所": "愛知県豊田市上郷町4-5-1",
        "指定緊急避難場所との住所同一": "1",
        "その他市町村長が必要と認める事項": null,
        "受入対象者": null,
        "備考": ""
      }
    },
    {
      "type": "Feature",
      "geometry": {
        "type": "Point",
        "coordinates": [
          137.134527,
          35.017109
        ]
      },
      "properties": {
        "NO": 43797,
        "共通ID": "E2321100054111",
        "都道府県名及び市町村名": "愛知県豊田市",
        "施設・場所名": "上郷コミュニティセンター",
        "住所": "愛知県豊田市上郷町5-1-1",
        "指定緊急避難場所との住所同一": "1",
        "その他市町村長が必要と認める事項": null,
        "受入対象者": null,
        "備考": ""
      }
    },
    {
      "type": "Feature",
      "geometry": {
        "type": "Point",
        "coordinates": [
          137.22515,
          35.11738
        ]
      },
      "properties": {
        "NO": 43798,
        "共通ID": "E2321100055111",
        "都道府県名及び市町村名": "愛知県豊田市",
        "施設・場所名": "上鷹見こども園",
        "住所": "愛知県豊田市上高町古白344-2",
        "指定緊急避難場所との住所同一": "1",
        "その他市町村長が必要と認める事項": null,
        "受入対象者": null,
        "備考": ""
      }
    },
    {
      "type": "Feature",
      "geometry": {
        "type": "Point",
        "coordinates": [
          137.176595,
          35.089817
        ]
      },
      "properties": {
        "NO": 43799,
        "共通ID": "E2321100056111",
        "都道府県名及び市町村名": "愛知県豊田市",
        "施設・場所名": "寺部小学校",
        "住所": "愛知県豊田市上野町1-173",
        "指定緊急避難場所との住所同一": "1",
        "その他市町村長が必要と認める事項": null,
        "受入対象者": null,
        "備考": ""
      }
    },
    {
      "type": "Feature",
      "geometry": {
        "type": "Point",
        "coordinates": [
          137.141491,
          35.127644
        ]
      },
      "properties": {
        "NO": 43800,
        "共通ID": "E2321100057111",
        "都道府県名及び市町村名": "愛知県豊田市",
        "施設・場所名": "浄水北小学校",
        "住所": "愛知県豊田市浄水町原山8-1",
        "指定緊急避難場所との住所同一": "1",
        "その他市町村長が必要と認める事項": null,
        "受入対象者": null,
        "備考": ""
      }
    },
    {
      "type": "Feature",
      "geometry": {
        "type": "Point",
        "coordinates": [
          137.140742,
          35.118908
        ]
      },
      "properties": {
        "NO": 43801,
        "共通ID": "E2321100058111",
        "都道府県名及び市町村名": "愛知県豊田市",
        "施設・場所名": "浄水小学校",
        "住所": "愛知県豊田市浄水町南平113-2",
        "指定緊急避難場所との住所同一": "1",
        "その他市町村長が必要と認める事項": null,
        "受入対象者": null,
        "備考": ""
      }
    },
    {
      "type": "Feature",
      "geometry": {
        "type": "Point",
        "coordinates": [
          137.349446,
          35.162495
        ]
      },
      "properties": {
        "NO": 43802,
        "共通ID": "E2321100059111",
        "都道府県名及び市町村名": "愛知県豊田市",
        "施設・場所名": "新盛小学校",
        "住所": "愛知県豊田市新盛町深沼11-1",
        "指定緊急避難場所との住所同一": "1",
        "その他市町村長が必要と認める事項": null,
        "受入対象者": null,
        "備考": ""
      }
    },
    {
      "type": "Feature",
      "geometry": {
        "type": "Point",
        "coordinates": [
          137.124611,
          35.085149
        ]
      },
      "properties": {
        "NO": 43803,
        "共通ID": "E2321100060111",
        "都道府県名及び市町村名": "愛知県豊田市",
        "施設・場所名": "逢妻中学校",
        "住所": "愛知県豊田市新町1-46-5",
        "指定緊急避難場所との住所同一": "1",
        "その他市町村長が必要と認める事項": null,
        "受入対象者": null,
        "備考": ""
      }
    },
    {
      "type": "Feature",
      "geometry": {
        "type": "Point",
        "coordinates": [
          137.358432,
          35.04187
        ]
      },
      "properties": {
        "NO": 43804,
        "共通ID": "E2321100061111",
        "都道府県名及び市町村名": "愛知県豊田市",
        "施設・場所名": "下山保健福祉センター",
        "住所": "愛知県豊田市神殿町中切7-2",
        "指定緊急避難場所との住所同一": "1",
        "その他市町村長が必要と認める事項": null,
        "受入対象者": null,
        "備考": ""
      }
    },
    {
      "type": "Feature",
      "geometry": {
        "type": "Point",
        "coordinates": [
          137.170686,
          35.05114
        ]
      },
      "properties": {
        "NO": 43805,
        "共通ID": "E2321100062111",
        "都道府県名及び市町村名": "愛知県豊田市",
        "施設・場所名": "豊南中学校",
        "住所": "愛知県豊田市水源町1-17",
        "指定緊急避難場所との住所同一": "1",
        "その他市町村長が必要と認める事項": null,
        "受入対象者": null,
        "備考": ""
      }
    },
    {
      "type": "Feature",
      "geometry": {
        "type": "Point",
        "coordinates": [
          137.359254,
          35.200923
        ]
      },
      "properties": {
        "NO": 43806,
        "共通ID": "E2321100063111",
        "都道府県名及び市町村名": "愛知県豊田市",
        "施設・場所名": "敷島会館",
        "住所": "愛知県豊田市杉本町奥西山49",
        "指定緊急避難場所との住所同一": "1",
        "その他市町村長が必要と認める事項": null,
        "受入対象者": null,
        "備考": ""
      }
    },
    {
      "type": "Feature",
      "geometry": {
        "type": "Point",
        "coordinates": [
          137.155966,
          35.008654
        ]
      },
      "properties": {
        "NO": 43807,
        "共通ID": "E2321100064111",
        "都道府県名及び市町村名": "愛知県豊田市",
        "施設・場所名": "畝部小学校",
        "住所": "愛知県豊田市畝部西町新田屋敷24",
        "指定緊急避難場所との住所同一": "1",
        "その他市町村長が必要と認める事項": null,
        "受入対象者": null,
        "備考": ""
      }
    },
    {
      "type": "Feature",
      "geometry": {
        "type": "Point",
        "coordinates": [
          137.214803,
          35.154366
        ]
      },
      "properties": {
        "NO": 43808,
        "共通ID": "E2321100065111",
        "都道府県名及び市町村名": "愛知県豊田市",
        "施設・場所名": "西広瀬小学校",
        "住所": "愛知県豊田市西広瀬町清水34",
        "指定緊急避難場所との住所同一": "1",
        "その他市町村長が必要と認める事項": null,
        "受入対象者": null,
        "備考": ""
      }
    },
    {
      "type": "Feature",
      "geometry": {
        "type": "Point",
        "coordinates": [
          137.157308,
          35.109039
        ]
      },
      "properties": {
        "NO": 43809,
        "共通ID": "E2321100066111",
        "都道府県名及び市町村名": "愛知県豊田市",
        "施設・場所名": "梅坪台中学校",
        "住所": "愛知県豊田市西山町1-21-1",
        "指定緊急避難場所との住所同一": "1",
        "その他市町村長が必要と認める事項": null,
        "受入対象者": null,
        "備考": ""
      }
    },
    {
      "type": "Feature",
      "geometry": {
        "type": "Point",
        "coordinates": [
          137.188777,
          35.16257
        ]
      },
      "properties": {
        "NO": 43810,
        "共通ID": "E2321100067111",
        "都道府県名及び市町村名": "愛知県豊田市",
        "施設・場所名": "中山小学校",
        "住所": "愛知県豊田市西中山町蔵屋敷61",
        "指定緊急避難場所との住所同一": "1",
        "その他市町村長が必要と認める事項": null,
        "受入対象者": null,
        "備考": ""
      }
    },
    {
      "type": "Feature",
      "geometry": {
        "type": "Point",
        "coordinates": [
          137.179415,
          35.120649
        ]
      },
      "properties": {
        "NO": 43811,
        "共通ID": "E2321100068111",
        "都道府県名及び市町村名": "愛知県豊田市",
        "施設・場所名": "猿投台中学校",
        "住所": "愛知県豊田市青木町3-80",
        "指定緊急避難場所との住所同一": "1",
        "その他市町村長が必要と認める事項": null,
        "受入対象者": null,
        "備考": ""
      }
    },
    {
      "type": "Feature",
      "geometry": {
        "type": "Point",
        "coordinates": [
          137.178408,
          35.119864
        ]
      },
      "properties": {
        "NO": 43812,
        "共通ID": "E2321100069111",
        "都道府県名及び市町村名": "愛知県豊田市",
        "施設・場所名": "青木小学校",
        "住所": "愛知県豊田市青木町4-5",
        "指定緊急避難場所との住所同一": "1",
        "その他市町村長が必要と認める事項": null,
        "受入対象者": null,
        "備考": ""
      }
    },
    {
      "type": "Feature",
      "geometry": {
        "type": "Point",
        "coordinates": [
          137.203673,
          35.230239
        ]
      },
      "properties": {
        "NO": 43813,
        "共通ID": "E2321100070111",
        "都道府県名及び市町村名": "愛知県豊田市",
        "施設・場所名": "石畳小学校",
        "住所": "愛知県豊田市石畳町辻124-5",
        "指定緊急避難場所との住所同一": "1",
        "その他市町村長が必要と認める事項": null,
        "受入対象者": null,
        "備考": ""
      }
    },
    {
      "type": "Feature",
      "geometry": {
        "type": "Point",
        "coordinates": [
          137.372661,
          35.244841
        ]
      },
      "properties": {
        "NO": 43814,
        "共通ID": "E2321100071111",
        "都道府県名及び市町村名": "愛知県豊田市",
        "施設・場所名": "浅野会館",
        "住所": "愛知県豊田市浅谷町下万場303-2",
        "指定緊急避難場所との住所同一": "",
        "その他市町村長が必要と認める事項": null,
        "受入対象者": null,
        "備考": ""
      }
    },
    {
      "type": "Feature",
      "geometry": {
        "type": "Point",
        "coordinates": [
          137.168154,
          35.051211
        ]
      },
      "properties": {
        "NO": 43815,
        "共通ID": "E2321100072111",
        "都道府県名及び市町村名": "愛知県豊田市",
        "施設・場所名": "前山小学校",
        "住所": "愛知県豊田市前山町1-24",
        "指定緊急避難場所との住所同一": "1",
        "その他市町村長が必要と認める事項": null,
        "受入対象者": null,
        "備考": ""
      }
    },
    {
      "type": "Feature",
      "geometry": {
        "type": "Point",
        "coordinates": [
          137.07348,
          35.039526
        ]
      },
      "properties": {
        "NO": 43816,
        "共通ID": "E2321100073111",
        "都道府県名及び市町村名": "愛知県豊田市",
        "施設・場所名": "前林中学校",
        "住所": "愛知県豊田市前林町行田60",
        "指定緊急避難場所との住所同一": "1",
        "その他市町村長が必要と認める事項": null,
        "受入対象者": null,
        "備考": ""
      }
    },
    {
      "type": "Feature",
      "geometry": {
        "type": "Point",
        "coordinates": [
          137.319953,
          35.133946
        ]
      },
      "properties": {
        "NO": 43817,
        "共通ID": "E2321100074111",
        "都道府県名及び市町村名": "愛知県豊田市",
        "施設・場所名": "足助中学校",
        "住所": "愛知県豊田市足助町梶平58",
        "指定緊急避難場所との住所同一": "1",
        "その他市町村長が必要と認める事項": null,
        "受入対象者": null,
        "備考": ""
      }
    },
    {
      "type": "Feature",
      "geometry": {
        "type": "Point",
        "coordinates": [
          137.320276,
          35.136575
        ]
      },
      "properties": {
        "NO": 43818,
        "共通ID": "E2321100075111",
        "都道府県名及び市町村名": "愛知県豊田市",
        "施設・場所名": "足助小学校",
        "住所": "愛知県豊田市足助町今岡33-2",
        "指定緊急避難場所との住所同一": "1",
        "その他市町村長が必要と認める事項": null,
        "受入対象者": null,
        "備考": ""
      }
    },
    {
      "type": "Feature",
      "geometry": {
        "type": "Point",
        "coordinates": [
          137.116449,
          35.098678
        ]
      },
      "properties": {
        "NO": 43819,
        "共通ID": "E2321100076111",
        "都道府県名及び市町村名": "愛知県豊田市",
        "施設・場所名": "愛知県立衣台高等学校",
        "住所": "愛知県豊田市太平町平山5",
        "指定緊急避難場所との住所同一": "1",
        "その他市町村長が必要と認める事項": "",
        "受入対象者": "",
        "備考": ""
      }
    },
    {
      "type": "Feature",
      "geometry": {
        "type": "Point",
        "coordinates": [
          137.380212,
          35.041625
        ]
      },
      "properties": {
        "NO": 43820,
        "共通ID": "E2321100077111",
        "都道府県名及び市町村名": "愛知県豊田市",
        "施設・場所名": "巴ケ丘小学校",
        "住所": "愛知県豊田市大桑町別当56",
        "指定緊急避難場所との住所同一": "1",
        "その他市町村長が必要と認める事項": null,
        "受入対象者": null,
        "備考": ""
      }
    },
    {
      "type": "Feature",
      "geometry": {
        "type": "Point",
        "coordinates": [
          137.314003,
          35.041192
        ]
      },
      "properties": {
        "NO": 43821,
        "共通ID": "E2321100078111",
        "都道府県名及び市町村名": "愛知県豊田市",
        "施設・場所名": "下山中学校",
        "住所": "愛知県豊田市大沼町青木1",
        "指定緊急避難場所との住所同一": "1",
        "その他市町村長が必要と認める事項": null,
        "受入対象者": null,
        "備考": ""
      }
    },
    {
      "type": "Feature",
      "geometry": {
        "type": "Point",
        "coordinates": [
          137.319417,
          35.04064
        ]
      },
      "properties": {
        "NO": 43822,
        "共通ID": "E2321100079111",
        "都道府県名及び市町村名": "愛知県豊田市",
        "施設・場所名": "下山基幹集落センター",
        "住所": "愛知県豊田市大沼町鳥下34-1",
        "指定緊急避難場所との住所同一": "1",
        "その他市町村長が必要と認める事項": null,
        "受入対象者": null,
        "備考": ""
      }
    },
    {
      "type": "Feature",
      "geometry": {
        "type": "Point",
        "coordinates": [
          137.149777,
          35.120662
        ]
      },
      "properties": {
        "NO": 43823,
        "共通ID": "E2321100080111",
        "都道府県名及び市町村名": "愛知県豊田市",
        "施設・場所名": "浄水中学校",
        "住所": "愛知県豊田市大清水町大清水12-1",
        "指定緊急避難場所との住所同一": "1",
        "その他市町村長が必要と認める事項": null,
        "受入対象者": null,
        "備考": ""
      }
    },
    {
      "type": "Feature",
      "geometry": {
        "type": "Point",
        "coordinates": [
          137.31525,
          35.165688
        ]
      },
      "properties": {
        "NO": 43824,
        "共通ID": "E2321100081111",
        "都道府県名及び市町村名": "愛知県豊田市",
        "施設・場所名": "大蔵小学校",
        "住所": "愛知県豊田市大蔵町本城9-2",
        "指定緊急避難場所との住所同一": "1",
        "その他市町村長が必要と認める事項": null,
        "受入対象者": null,
        "備考": ""
      }
    },
    {
      "type": "Feature",
      "geometry": {
        "type": "Point",
        "coordinates": [
          137.119568,
          35.162427
        ]
      },
      "properties": {
        "NO": 43825,
        "共通ID": "E2321100082111",
        "都道府県名及び市町村名": "愛知県豊田市",
        "施設・場所名": "大畑小学校",
        "住所": "愛知県豊田市大畑町神戸79-2",
        "指定緊急避難場所との住所同一": "1",
        "その他市町村長が必要と認める事項": null,
        "受入対象者": null,
        "備考": ""
      }
    },
    {
      "type": "Feature",
      "geometry": {
        "type": "Point",
        "coordinates": [
          137.144903,
          35.049154
        ]
      },
      "properties": {
        "NO": 43826,
        "共通ID": "E2321100083111",
        "都道府県名及び市町村名": "愛知県豊田市",
        "施設・場所名": "大林小学校",
        "住所": "愛知県豊田市大林町14-11-5",
        "指定緊急避難場所との住所同一": "1",
        "その他市町村長が必要と認める事項": null,
        "受入対象者": null,
        "備考": ""
      }
    },
    {
      "type": "Feature",
      "geometry": {
        "type": "Point",
        "coordinates": [
          137.244631,
          35.032407
        ]
      },
      "properties": {
        "NO": 43827,
        "共通ID": "E2321100084111",
        "都道府県名及び市町村名": "愛知県豊田市",
        "施設・場所名": "滝脇小学校",
        "住所": "愛知県豊田市滝脇町切石洞18-1",
        "指定緊急避難場所との住所同一": "1",
        "その他市町村長が必要と認める事項": null,
        "受入対象者": null,
        "備考": ""
      }
    },
    {
      "type": "Feature",
      "geometry": {
        "type": "Point",
        "coordinates": [
          137.27271,
          35.246265
        ]
      },
      "properties": {
        "NO": 43828,
        "共通ID": "E2321100085111",
        "都道府県名及び市町村名": "愛知県豊田市",
        "施設・場所名": "小原福祉センター",
        "住所": "愛知県豊田市沢田町梅ノ木574",
        "指定緊急避難場所との住所同一": "1",
        "その他市町村長が必要と認める事項": null,
        "受入対象者": null,
        "備考": ""
      }
    },
    {
      "type": "Feature",
      "geometry": {
        "type": "Point",
        "coordinates": [
          137.119098,
          35.022025
        ]
      },
      "properties": {
        "NO": 43829,
        "共通ID": "E2321100086111",
        "都道府県名及び市町村名": "愛知県豊田市",
        "施設・場所名": "愛知県立豊田工科高等学校",
        "住所": "愛知県豊田市竹元町南細畔3",
        "指定緊急避難場所との住所同一": "1",
        "その他市町村長が必要と認める事項": "",
        "受入対象者": "",
        "備考": ""
      }
    },
    {
      "type": "Feature",
      "geometry": {
        "type": "Point",
        "coordinates": [
          137.253267,
          35.13869
        ]
      },
      "properties": {
        "NO": 43830,
        "共通ID": "E2321100087111",
        "都道府県名及び市町村名": "愛知県豊田市",
        "施設・場所名": "中金小学校",
        "住所": "愛知県豊田市中金町塚ノ本124",
        "指定緊急避難場所との住所同一": "",
        "その他市町村長が必要と認める事項": null,
        "受入対象者": null,
        "備考": ""
      }
    },
    {
      "type": "Feature",
      "geometry": {
        "type": "Point",
        "coordinates": [
          137.08982,
          35.024531
        ]
      },
      "properties": {
        "NO": 43831,
        "共通ID": "E2321100088111",
        "都道府県名及び市町村名": "愛知県豊田市",
        "施設・場所名": "若園小学校",
        "住所": "愛知県豊田市中根町永池200",
        "指定緊急避難場所との住所同一": "1",
        "その他市町村長が必要と認める事項": null,
        "受入対象者": null,
        "備考": ""
      }
    },
    {
      "type": "Feature",
      "geometry": {
        "type": "Point",
        "coordinates": [
          137.145986,
          35.07824
        ]
      },
      "properties": {
        "NO": 43832,
        "共通ID": "E2321100089111",
        "都道府県名及び市町村名": "愛知県豊田市",
        "施設・場所名": "朝日丘中学校",
        "住所": "愛知県豊田市朝日ケ丘5-34",
        "指定緊急避難場所との住所同一": "1",
        "その他市町村長が必要と認める事項": null,
        "受入対象者": null,
        "備考": ""
      }
    },
    {
      "type": "Feature",
      "geometry": {
        "type": "Point",
        "coordinates": [
          137.146186,
          35.097266
        ]
      },
      "properties": {
        "NO": 43833,
        "共通ID": "E2321100090111",
        "都道府県名及び市町村名": "愛知県豊田市",
        "施設・場所名": "朝日小学校",
        "住所": "愛知県豊田市朝日町6-1",
        "指定緊急避難場所との住所同一": "1",
        "その他市町村長が必要と認める事項": null,
        "受入対象者": null,
        "備考": ""
      }
    },
    {
      "type": "Feature",
      "geometry": {
        "type": "Point",
        "coordinates": [
          137.085678,
          35.055137
        ]
      },
      "properties": {
        "NO": 43834,
        "共通ID": "E2321100091111",
        "都道府県名及び市町村名": "愛知県豊田市",
        "施設・場所名": "堤ケ丘こども園",
        "住所": "愛知県豊田市堤町道仙65",
        "指定緊急避難場所との住所同一": "1",
        "その他市町村長が必要と認める事項": null,
        "受入対象者": null,
        "備考": ""
      }
    },
    {
      "type": "Feature",
      "geometry": {
        "type": "Point",
        "coordinates": [
          137.07754,
          35.048085
        ]
      },
      "properties": {
        "NO": 43835,
        "共通ID": "E2321100092111",
        "都道府県名及び市町村名": "愛知県豊田市",
        "施設・場所名": "堤小学校",
        "住所": "愛知県豊田市堤本町流28",
        "指定緊急避難場所との住所同一": "1",
        "その他市町村長が必要と認める事項": null,
        "受入対象者": null,
        "備考": ""
      }
    },
    {
      "type": "Feature",
      "geometry": {
        "type": "Point",
        "coordinates": [
          137.122656,
          35.086046
        ]
      },
      "properties": {
        "NO": 43836,
        "共通ID": "E2321100093111",
        "都道府県名及び市町村名": "愛知県豊田市",
        "施設・場所名": "小清水小学校",
        "住所": "愛知県豊田市田町2-81",
        "指定緊急避難場所との住所同一": "1",
        "その他市町村長が必要と認める事項": null,
        "受入対象者": null,
        "備考": ""
      }
    },
    {
      "type": "Feature",
      "geometry": {
        "type": "Point",
        "coordinates": [
          137.15641,
          35.036724
        ]
      },
      "properties": {
        "NO": 43837,
        "共通ID": "E2321100094111",
        "都道府県名及び市町村名": "愛知県豊田市",
        "施設・場所名": "豊野高等学校",
        "住所": "愛知県豊田市渡刈町3-3-1",
        "指定緊急避難場所との住所同一": "1",
        "その他市町村長が必要と認める事項": "",
        "受入対象者": "",
        "備考": ""
      }
    },
    {
      "type": "Feature",
      "geometry": {
        "type": "Point",
        "coordinates": [
          137.123225,
          35.060228
        ]
      },
      "properties": {
        "NO": 43838,
        "共通ID": "E2321100095111",
        "都道府県名及び市町村名": "愛知県豊田市",
        "施設・場所名": "土橋小学校",
        "住所": "愛知県豊田市土橋町6-117",
        "指定緊急避難場所との住所同一": "1",
        "その他市町村長が必要と認める事項": null,
        "受入対象者": null,
        "備考": ""
      }
    },
    {
      "type": "Feature",
      "geometry": {
        "type": "Point",
        "coordinates": [
          137.227457,
          35.153872
        ]
      },
      "properties": {
        "NO": 43839,
        "共通ID": "E2321100096111",
        "都道府県名及び市町村名": "愛知県豊田市",
        "施設・場所名": "東広瀬小学校",
        "住所": "愛知県豊田市東広瀬町大根坂8",
        "指定緊急避難場所との住所同一": "1",
        "その他市町村長が必要と認める事項": null,
        "受入対象者": null,
        "備考": ""
      }
    },
    {
      "type": "Feature",
      "geometry": {
        "type": "Point",
        "coordinates": [
          137.223574,
          35.195622
        ]
      },
      "properties": {
        "NO": 43840,
        "共通ID": "E2321100097111",
        "都道府県名及び市町村名": "愛知県豊田市",
        "施設・場所名": "愛知県立加茂丘高等学校",
        "住所": "愛知県豊田市藤岡飯野町太田代1137-30",
        "指定緊急避難場所との住所同一": "1",
        "その他市町村長が必要と認める事項": "",
        "受入対象者": "",
        "備考": ""
      }
    },
    {
      "type": "Feature",
      "geometry": {
        "type": "Point",
        "coordinates": [
          137.20838,
          35.19929
        ]
      },
      "properties": {
        "NO": 43841,
        "共通ID": "E2321100098111",
        "都道府県名及び市町村名": "愛知県豊田市",
        "施設・場所名": "藤岡体育センター",
        "住所": "愛知県豊田市藤岡飯野町仲ノ下501",
        "指定緊急避難場所との住所同一": "1",
        "その他市町村長が必要と認める事項": null,
        "受入対象者": null,
        "備考": ""
      }
    },
    {
      "type": "Feature",
      "geometry": {
        "type": "Point",
        "coordinates": [
          137.252691,
          35.166591
        ]
      },
      "properties": {
        "NO": 43842,
        "共通ID": "E2321100099111",
        "都道府県名及び市町村名": "愛知県豊田市",
        "施設・場所名": "ルネサンス豊田高等学校",
        "住所": "愛知県豊田市藤沢町丸竹182",
        "指定緊急避難場所との住所同一": "",
        "その他市町村長が必要と認める事項": "",
        "受入対象者": "",
        "備考": ""
      }
    },
    {
      "type": "Feature",
      "geometry": {
        "type": "Point",
        "coordinates": [
          137.159431,
          35.10699
        ]
      },
      "properties": {
        "NO": 43843,
        "共通ID": "E2321100100111",
        "都道府県名及び市町村名": "愛知県豊田市",
        "施設・場所名": "梅坪小学校",
        "住所": "愛知県豊田市梅坪町1-5-1",
        "指定緊急避難場所との住所同一": "1",
        "その他市町村長が必要と認める事項": null,
        "受入対象者": null,
        "備考": ""
      }
    },
    {
      "type": "Feature",
      "geometry": {
        "type": "Point",
        "coordinates": [
          137.16433,
          35.079957
        ]
      },
      "properties": {
        "NO": 43844,
        "共通ID": "E2321100101111",
        "都道府県名及び市町村名": "愛知県豊田市",
        "施設・場所名": "元城小学校",
        "住所": "愛知県豊田市八幡町3-30",
        "指定緊急避難場所との住所同一": "1",
        "その他市町村長が必要と認める事項": null,
        "受入対象者": null,
        "備考": ""
      }
    },
    {
      "type": "Feature",
      "geometry": {
        "type": "Point",
        "coordinates": [
          137.117483,
          35.067953
        ]
      },
      "properties": {
        "NO": 43845,
        "共通ID": "E2321100102111",
        "都道府県名及び市町村名": "愛知県豊田市",
        "施設・場所名": "美山小学校",
        "住所": "愛知県豊田市美山町4-1",
        "指定緊急避難場所との住所同一": "1",
        "その他市町村長が必要と認める事項": null,
        "受入対象者": null,
        "備考": ""
      }
    },
    {
      "type": "Feature",
      "geometry": {
        "type": "Point",
        "coordinates": [
          137.184254,
          35.078256
        ]
      },
      "properties": {
        "NO": 43846,
        "共通ID": "E2321100103111",
        "都道府県名及び市町村名": "愛知県豊田市",
        "施設・場所名": "美里中学校",
        "住所": "愛知県豊田市美里4-5-1",
        "指定緊急避難場所との住所同一": "1",
        "その他市町村長が必要と認める事項": null,
        "受入対象者": null,
        "備考": ""
      }
    },
    {
      "type": "Feature",
      "geometry": {
        "type": "Point",
        "coordinates": [
          137.194739,
          35.104091
        ]
      },
      "properties": {
        "NO": 43847,
        "共通ID": "E2321100104111",
        "都道府県名及び市町村名": "愛知県豊田市",
        "施設・場所名": "平井小学校",
        "住所": "愛知県豊田市百々町5-60",
        "指定緊急避難場所との住所同一": "1",
        "その他市町村長が必要と認める事項": null,
        "受入対象者": null,
        "備考": ""
      }
    },
    {
      "type": "Feature",
      "geometry": {
        "type": "Point",
        "coordinates": [
          137.169395,
          35.1518
        ]
      },
      "properties": {
        "NO": 43848,
        "共通ID": "E2321100125111",
        "都道府県名及び市町村名": "愛知県豊田市",
        "施設・場所名": "広沢こども園",
        "住所": "愛知県豊田市舞木町焼山1102-23",
        "指定緊急避難場所との住所同一": "",
        "その他市町村長が必要と認める事項": "",
        "受入対象者": "",
        "備考": ""
      }
    },
    {
      "type": "Feature",
      "geometry": {
        "type": "Point",
        "coordinates": [
          137.15646,
          35.092862
        ]
      },
      "properties": {
        "NO": 43849,
        "共通ID": "E2321100105111",
        "都道府県名及び市町村名": "愛知県豊田市",
        "施設・場所名": "挙母小学校",
        "住所": "愛知県豊田市平芝町1-1-1",
        "指定緊急避難場所との住所同一": "1",
        "その他市町村長が必要と認める事項": null,
        "受入対象者": null,
        "備考": ""
      }
    },
    {
      "type": "Feature",
      "geometry": {
        "type": "Point",
        "coordinates": [
          137.176582,
          35.05243
        ]
      },
      "properties": {
        "NO": 43850,
        "共通ID": "E2321100106111",
        "都道府県名及び市町村名": "愛知県豊田市",
        "施設・場所名": "平和小学校",
        "住所": "愛知県豊田市平和町6-70",
        "指定緊急避難場所との住所同一": "1",
        "その他市町村長が必要と認める事項": null,
        "受入対象者": null,
        "備考": ""
      }
    },
    {
      "type": "Feature",
      "geometry": {
        "type": "Point",
        "coordinates": [
          137.133063,
          35.1483
        ]
      },
      "properties": {
        "NO": 43851,
        "共通ID": "E2321100107111",
        "都道府県名及び市町村名": "愛知県豊田市",
        "施設・場所名": "西保見小学校",
        "住所": "愛知県豊田市保見ケ丘2-185",
        "指定緊急避難場所との住所同一": "1",
        "その他市町村長が必要と認める事項": null,
        "受入対象者": null,
        "備考": ""
      }
    },
    {
      "type": "Feature",
      "geometry": {
        "type": "Point",
        "coordinates": [
          137.139257,
          35.148927
        ]
      },
      "properties": {
        "NO": 43852,
        "共通ID": "E2321100108111",
        "都道府県名及び市町村名": "愛知県豊田市",
        "施設・場所名": "東保見小学校",
        "住所": "愛知県豊田市保見ケ丘4-5",
        "指定緊急避難場所との住所同一": "1",
        "その他市町村長が必要と認める事項": null,
        "受入対象者": null,
        "備考": ""
      }
    },
    {
      "type": "Feature",
      "geometry": {
        "type": "Point",
        "coordinates": [
          137.111518,
          35.133324
        ]
      },
      "properties": {
        "NO": 43853,
        "共通ID": "E2321100109111",
        "都道府県名及び市町村名": "愛知県豊田市",
        "施設・場所名": "トヨタスポーツセンター",
        "住所": "愛知県豊田市保見町井ノ向57-230",
        "指定緊急避難場所との住所同一": "1",
        "その他市町村長が必要と認める事項": null,
        "受入対象者": null,
        "備考": ""
      }
    },
    {
      "type": "Feature",
      "geometry": {
        "type": "Point",
        "coordinates": [
          137.132777,
          35.136652
        ]
      },
      "properties": {
        "NO": 43854,
        "共通ID": "E2321100111111",
        "都道府県名及び市町村名": "愛知県豊田市",
        "施設・場所名": "伊保小学校",
        "住所": "愛知県豊田市保見町権堂防1",
        "指定緊急避難場所との住所同一": "",
        "その他市町村長が必要と認める事項": null,
        "受入対象者": null,
        "備考": ""
      }
    },
    {
      "type": "Feature",
      "geometry": {
        "type": "Point",
        "coordinates": [
          137.13122,
          35.142285
        ]
      },
      "properties": {
        "NO": 43855,
        "共通ID": "E2321100112111",
        "都道府県名及び市町村名": "愛知県豊田市",
        "施設・場所名": "保見中学校",
        "住所": "愛知県豊田市保見町北山18",
        "指定緊急避難場所との住所同一": "1",
        "その他市町村長が必要と認める事項": null,
        "受入対象者": null,
        "備考": ""
      }
    },
    {
      "type": "Feature",
      "geometry": {
        "type": "Point",
        "coordinates": [
          137.144515,
          35.041363
        ]
      },
      "properties": {
        "NO": 43856,
        "共通ID": "E2321100113111",
        "都道府県名及び市町村名": "愛知県豊田市",
        "施設・場所名": "末野原中学校",
        "住所": "愛知県豊田市豊栄町11-1-1",
        "指定緊急避難場所との住所同一": "1",
        "その他市町村長が必要と認める事項": null,
        "受入対象者": null,
        "備考": ""
      }
    },
    {
      "type": "Feature",
      "geometry": {
        "type": "Point",
        "coordinates": [
          137.068719,
          35.047264
        ]
      },
      "properties": {
        "NO": 43857,
        "共通ID": "E2321100114111",
        "都道府県名及び市町村名": "愛知県豊田市",
        "施設・場所名": "堤こども園",
        "住所": "愛知県豊田市本田町本田1",
        "指定緊急避難場所との住所同一": "1",
        "その他市町村長が必要と認める事項": null,
        "受入対象者": null,
        "備考": ""
      }
    },
    {
      "type": "Feature",
      "geometry": {
        "type": "Point",
        "coordinates": [
          137.401889,
          35.199148
        ]
      },
      "properties": {
        "NO": 43858,
        "共通ID": "E2321100115111",
        "都道府県名及び市町村名": "愛知県豊田市",
        "施設・場所名": "築羽会館",
        "住所": "愛知県豊田市槙本町落合11",
        "指定緊急避難場所との住所同一": "1",
        "その他市町村長が必要と認める事項": null,
        "受入対象者": null,
        "備考": ""
      }
    },
    {
      "type": "Feature",
      "geometry": {
        "type": "Point",
        "coordinates": [
          137.247464,
          35.093322
        ]
      },
      "properties": {
        "NO": 43859,
        "共通ID": "E2321100116111",
        "都道府県名及び市町村名": "愛知県豊田市",
        "施設・場所名": "霧山多目的集会所",
        "住所": "愛知県豊田市霧山町替田5-4",
        "指定緊急避難場所との住所同一": "1",
        "その他市町村長が必要と認める事項": null,
        "受入対象者": null,
        "備考": ""
      }
    },
    {
      "type": "Feature",
      "geometry": {
        "type": "Point",
        "coordinates": [
          137.21708,
          35.201373
        ]
      },
      "properties": {
        "NO": 43860,
        "共通ID": "E2321100117111",
        "都道府県名及び市町村名": "愛知県豊田市",
        "施設・場所名": "藤岡中学校",
        "住所": "愛知県豊田市木瀬町稽古屋1163-3",
        "指定緊急避難場所との住所同一": "1",
        "その他市町村長が必要と認める事項": null,
        "受入対象者": null,
        "備考": ""
      }
    },
    {
      "type": "Feature",
      "geometry": {
        "type": "Point",
        "coordinates": [
          137.179217,
          35.073876
        ]
      },
      "properties": {
        "NO": 43861,
        "共通ID": "E2321100118111",
        "都道府県名及び市町村名": "愛知県豊田市",
        "施設・場所名": "野見小学校",
        "住所": "愛知県豊田市野見町12-1",
        "指定緊急避難場所との住所同一": "1",
        "その他市町村長が必要と認める事項": null,
        "受入対象者": null,
        "備考": ""
      }
    },
    {
      "type": "Feature",
      "geometry": {
        "type": "Point",
        "coordinates": [
          137.54084,
          35.229484
        ]
      },
      "properties": {
        "NO": 43862,
        "共通ID": "E2321100119111",
        "都道府県名及び市町村名": "愛知県豊田市",
        "施設・場所名": "野入集会所",
        "住所": "愛知県豊田市野入町椴木平11-8",
        "指定緊急避難場所との住所同一": "1",
        "その他市町村長が必要と認める事項": null,
        "受入対象者": null,
        "備考": ""
      }
    },
    {
      "type": "Feature",
      "geometry": {
        "type": "Point",
        "coordinates": [
          137.230492,
          35.0991
        ]
      },
      "properties": {
        "NO": 43863,
        "共通ID": "E2321100120111",
        "都道府県名及び市町村名": "愛知県豊田市",
        "施設・場所名": "矢並小学校",
        "住所": "愛知県豊田市矢並町大坪901-7",
        "指定緊急避難場所との住所同一": "1",
        "その他市町村長が必要と認める事項": null,
        "受入対象者": null,
        "備考": ""
      }
    },
    {
      "type": "Feature",
      "geometry": {
        "type": "Point",
        "coordinates": [
          137.129455,
          35.050395
        ]
      },
      "properties": {
        "NO": 43864,
        "共通ID": "E2321100121111",
        "都道府県名及び市町村名": "愛知県豊田市",
        "施設・場所名": "竜神中学校",
        "住所": "愛知県豊田市竜神町竜神16",
        "指定緊急避難場所との住所同一": "1",
        "その他市町村長が必要と認める事項": null,
        "受入対象者": null,
        "備考": ""
      }
    },
    {
      "type": "Feature",
      "geometry": {
        "type": "Point",
        "coordinates": [
          137.228087,
          35.142579
        ]
      },
      "properties": {
        "NO": 43865,
        "共通ID": "E2321100122111",
        "都道府県名及び市町村名": "愛知県豊田市",
        "施設・場所名": "石野中学校",
        "住所": "愛知県豊田市力石町井ノ上600-1",
        "指定緊急避難場所との住所同一": "1",
        "その他市町村長が必要と認める事項": null,
        "受入対象者": null,
        "備考": ""
      }
    }
  ]
}