{
  "type": "FeatureCollection",
  "name": "232190",
  "features": [
    {
      "type": "Feature",
      "geometry": {
        "type": "Point",
        "coordinates": [
          136.91852,
          35.297486
        ]
      },
      "properties": {
        "NO": 44185,
        "共通ID": "E2321900001111",
        "都道府県名及び市町村名": "愛知県小牧市",
        "施設・場所名": "安田会館",
        "住所": "愛知県小牧市安田町5",
        "指定緊急避難場所との住所同一": "",
        "その他市町村長が必要と認める事項": null,
        "受入対象者": null,
        "備考": ""
      }
    },
    {
      "type": "Feature",
      "geometry": {
        "type": "Point",
        "coordinates": [
          136.915699,
          35.298938
        ]
      },
      "properties": {
        "NO": 44186,
        "共通ID": "E2321900002111",
        "都道府県名及び市町村名": "愛知県小牧市",
        "施設・場所名": "山北保育園",
        "住所": "愛知県小牧市安田町98",
        "指定緊急避難場所との住所同一": "",
        "その他市町村長が必要と認める事項": null,
        "受入対象者": null,
        "備考": ""
      }
    },
    {
      "type": "Feature",
      "geometry": {
        "type": "Point",
        "coordinates": [
          136.93268,
          35.283747
        ]
      },
      "properties": {
        "NO": 44187,
        "共通ID": "E2321900003111",
        "都道府県名及び市町村名": "愛知県小牧市",
        "施設・場所名": "応時中学校",
        "住所": "愛知県小牧市応時1-130",
        "指定緊急避難場所との住所同一": "1",
        "その他市町村長が必要と認める事項": "",
        "受入対象者": "",
        "備考": ""
      }
    },
    {
      "type": "Feature",
      "geometry": {
        "type": "Point",
        "coordinates": [
          136.933631,
          35.282546
        ]
      },
      "properties": {
        "NO": 44188,
        "共通ID": "E2321900004111",
        "都道府県名及び市町村名": "愛知県小牧市",
        "施設・場所名": "大山保育園",
        "住所": "愛知県小牧市応時1-265",
        "指定緊急避難場所との住所同一": "",
        "その他市町村長が必要と認める事項": null,
        "受入対象者": null,
        "備考": ""
      }
    },
    {
      "type": "Feature",
      "geometry": {
        "type": "Point",
        "coordinates": [
          136.931274,
          35.280895
        ]
      },
      "properties": {
        "NO": 44189,
        "共通ID": "E2321900005111",
        "都道府県名及び市町村名": "愛知県小牧市",
        "施設・場所名": "小牧大山会館",
        "住所": "愛知県小牧市応時4-163",
        "指定緊急避難場所との住所同一": "",
        "その他市町村長が必要と認める事項": null,
        "受入対象者": null,
        "備考": ""
      }
    },
    {
      "type": "Feature",
      "geometry": {
        "type": "Point",
        "coordinates": [
          136.914038,
          35.318141
        ]
      },
      "properties": {
        "NO": 44190,
        "共通ID": "E2321900006111",
        "都道府県名及び市町村名": "愛知県小牧市",
        "施設・場所名": "横内会館",
        "住所": "愛知県小牧市横内39",
        "指定緊急避難場所との住所同一": "",
        "その他市町村長が必要と認める事項": null,
        "受入対象者": null,
        "備考": ""
      }
    },
    {
      "type": "Feature",
      "geometry": {
        "type": "Point",
        "coordinates": [
          136.905306,
          35.269364
        ]
      },
      "properties": {
        "NO": 44191,
        "共通ID": "E2321900007111",
        "都道府県名及び市町村名": "愛知県小牧市",
        "施設・場所名": "北里市民センター",
        "住所": "愛知県小牧市下小針中島2-130",
        "指定緊急避難場所との住所同一": "",
        "その他市町村長が必要と認める事項": null,
        "受入対象者": null,
        "備考": ""
      }
    },
    {
      "type": "Feature",
      "geometry": {
        "type": "Point",
        "coordinates": [
          136.903513,
          35.269254
        ]
      },
      "properties": {
        "NO": 44192,
        "共通ID": "E2321900008111",
        "都道府県名及び市町村名": "愛知県小牧市",
        "施設・場所名": "北里中学校",
        "住所": "愛知県小牧市下小針中島2-170",
        "指定緊急避難場所との住所同一": "1",
        "その他市町村長が必要と認める事項": "",
        "受入対象者": "",
        "備考": ""
      }
    },
    {
      "type": "Feature",
      "geometry": {
        "type": "Point",
        "coordinates": [
          136.905189,
          35.270543
        ]
      },
      "properties": {
        "NO": 44193,
        "共通ID": "E2321900009111",
        "都道府県名及び市町村名": "愛知県小牧市",
        "施設・場所名": "北里小学校",
        "住所": "愛知県小牧市下小針中島2-50",
        "指定緊急避難場所との住所同一": "1",
        "その他市町村長が必要と認める事項": null,
        "受入対象者": null,
        "備考": ""
      }
    },
    {
      "type": "Feature",
      "geometry": {
        "type": "Point",
        "coordinates": [
          136.906313,
          35.270101
        ]
      },
      "properties": {
        "NO": 44194,
        "共通ID": "E2321900010111",
        "都道府県名及び市町村名": "愛知県小牧市",
        "施設・場所名": "北里保育園",
        "住所": "愛知県小牧市下小針中島2-90",
        "指定緊急避難場所との住所同一": "",
        "その他市町村長が必要と認める事項": null,
        "受入対象者": null,
        "備考": ""
      }
    },
    {
      "type": "Feature",
      "geometry": {
        "type": "Point",
        "coordinates": [
          136.908143,
          35.269133
        ]
      },
      "properties": {
        "NO": 44195,
        "共通ID": "E2321900011111",
        "都道府県名及び市町村名": "愛知県小牧市",
        "施設・場所名": "下小針会館",
        "住所": "愛知県小牧市下小針天神3-23",
        "指定緊急避難場所との住所同一": "",
        "その他市町村長が必要と認める事項": null,
        "受入対象者": null,
        "備考": ""
      }
    },
    {
      "type": "Feature",
      "geometry": {
        "type": "Point",
        "coordinates": [
          136.959313,
          35.284426
        ]
      },
      "properties": {
        "NO": 44196,
        "共通ID": "E2321900012111",
        "都道府県名及び市町村名": "愛知県小牧市",
        "施設・場所名": "下末参集殿",
        "住所": "愛知県小牧市下末1475",
        "指定緊急避難場所との住所同一": "",
        "その他市町村長が必要と認める事項": null,
        "受入対象者": null,
        "備考": ""
      }
    },
    {
      "type": "Feature",
      "geometry": {
        "type": "Point",
        "coordinates": [
          136.911923,
          35.318641
        ]
      },
      "properties": {
        "NO": 44197,
        "共通ID": "E2321900013111",
        "都道府県名及び市町村名": "愛知県小牧市",
        "施設・場所名": "河内屋会館",
        "住所": "愛知県小牧市河内屋新田749",
        "指定緊急避難場所との住所同一": "",
        "その他市町村長が必要と認める事項": null,
        "受入対象者": null,
        "備考": ""
      }
    },
    {
      "type": "Feature",
      "geometry": {
        "type": "Point",
        "coordinates": [
          136.912454,
          35.281796
        ]
      },
      "properties": {
        "NO": 44198,
        "共通ID": "E2321900014111",
        "都道府県名及び市町村名": "愛知県小牧市",
        "施設・場所名": "御屋敷会館",
        "住所": "愛知県小牧市外堀1-103",
        "指定緊急避難場所との住所同一": "",
        "その他市町村長が必要と認める事項": null,
        "受入対象者": null,
        "備考": ""
      }
    },
    {
      "type": "Feature",
      "geometry": {
        "type": "Point",
        "coordinates": [
          136.91096,
          35.278959
        ]
      },
      "properties": {
        "NO": 44199,
        "共通ID": "E2321900015111",
        "都道府県名及び市町村名": "愛知県小牧市",
        "施設・場所名": "池新田会館",
        "住所": "愛知県小牧市外堀2-241",
        "指定緊急避難場所との住所同一": "",
        "その他市町村長が必要と認める事項": null,
        "受入対象者": null,
        "備考": ""
      }
    },
    {
      "type": "Feature",
      "geometry": {
        "type": "Point",
        "coordinates": [
          136.908871,
          35.276578
        ]
      },
      "properties": {
        "NO": 44200,
        "共通ID": "E2321900016111",
        "都道府県名及び市町村名": "愛知県小牧市",
        "施設・場所名": "小針入鹿新田会館",
        "住所": "愛知県小牧市外堀3-110",
        "指定緊急避難場所との住所同一": "",
        "その他市町村長が必要と認める事項": null,
        "受入対象者": null,
        "備考": ""
      }
    },
    {
      "type": "Feature",
      "geometry": {
        "type": "Point",
        "coordinates": [
          136.922222,
          35.304605
        ]
      },
      "properties": {
        "NO": 44201,
        "共通ID": "E2321900017111",
        "都道府県名及び市町村名": "愛知県小牧市",
        "施設・場所名": "小牧市スポーツ公園",
        "住所": "愛知県小牧市間々原新田737",
        "指定緊急避難場所との住所同一": "1",
        "その他市町村長が必要と認める事項": null,
        "受入対象者": null,
        "備考": ""
      }
    },
    {
      "type": "Feature",
      "geometry": {
        "type": "Point",
        "coordinates": [
          136.917161,
          35.302379
        ]
      },
      "properties": {
        "NO": 44202,
        "共通ID": "E2321900018111",
        "都道府県名及び市町村名": "愛知県小牧市",
        "施設・場所名": "間々原会館",
        "住所": "愛知県小牧市間々原新田917-1",
        "指定緊急避難場所との住所同一": "",
        "その他市町村長が必要と認める事項": null,
        "受入対象者": null,
        "備考": ""
      }
    },
    {
      "type": "Feature",
      "geometry": {
        "type": "Point",
        "coordinates": [
          136.911072,
          35.296834
        ]
      },
      "properties": {
        "NO": 44203,
        "共通ID": "E2321900019111",
        "都道府県名及び市町村名": "愛知県小牧市",
        "施設・場所名": "間々会館",
        "住所": "愛知県小牧市間々本町354",
        "指定緊急避難場所との住所同一": "1",
        "その他市町村長が必要と認める事項": null,
        "受入対象者": null,
        "備考": ""
      }
    },
    {
      "type": "Feature",
      "geometry": {
        "type": "Point",
        "coordinates": [
          136.928395,
          35.312444
        ]
      },
      "properties": {
        "NO": 44204,
        "共通ID": "E2321900020111",
        "都道府県名及び市町村名": "愛知県小牧市",
        "施設・場所名": "岩崎西区区会会館",
        "住所": "愛知県小牧市岩崎1-186-1",
        "指定緊急避難場所との住所同一": "",
        "その他市町村長が必要と認める事項": null,
        "受入対象者": null,
        "備考": ""
      }
    },
    {
      "type": "Feature",
      "geometry": {
        "type": "Point",
        "coordinates": [
          136.932264,
          35.312678
        ]
      },
      "properties": {
        "NO": 44205,
        "共通ID": "E2321900021111",
        "都道府県名及び市町村名": "愛知県小牧市",
        "施設・場所名": "岩崎中会館",
        "住所": "愛知県小牧市岩崎1337",
        "指定緊急避難場所との住所同一": "",
        "その他市町村長が必要と認める事項": null,
        "受入対象者": null,
        "備考": ""
      }
    },
    {
      "type": "Feature",
      "geometry": {
        "type": "Point",
        "coordinates": [
          136.928688,
          35.316553
        ]
      },
      "properties": {
        "NO": 44206,
        "共通ID": "E2321900022111",
        "都道府県名及び市町村名": "愛知県小牧市",
        "施設・場所名": "岩崎団地ふれあい会館",
        "住所": "愛知県小牧市岩崎1500",
        "指定緊急避難場所との住所同一": "",
        "その他市町村長が必要と認める事項": null,
        "受入対象者": null,
        "備考": ""
      }
    },
    {
      "type": "Feature",
      "geometry": {
        "type": "Point",
        "coordinates": [
          136.931248,
          35.317269
        ]
      },
      "properties": {
        "NO": 44207,
        "共通ID": "E2321900023111",
        "都道府県名及び市町村名": "愛知県小牧市",
        "施設・場所名": "岩崎保育園",
        "住所": "愛知県小牧市岩崎1533-4",
        "指定緊急避難場所との住所同一": "",
        "その他市町村長が必要と認める事項": null,
        "受入対象者": null,
        "備考": ""
      }
    },
    {
      "type": "Feature",
      "geometry": {
        "type": "Point",
        "coordinates": [
          136.922485,
          35.310831
        ]
      },
      "properties": {
        "NO": 44208,
        "共通ID": "E2321900024111",
        "都道府県名及び市町村名": "愛知県小牧市",
        "施設・場所名": "岩崎中学校",
        "住所": "愛知県小牧市岩崎2588",
        "指定緊急避難場所との住所同一": "1",
        "その他市町村長が必要と認める事項": "",
        "受入対象者": "",
        "備考": ""
      }
    },
    {
      "type": "Feature",
      "geometry": {
        "type": "Point",
        "coordinates": [
          136.925274,
          35.317285
        ]
      },
      "properties": {
        "NO": 44209,
        "共通ID": "E2321900025111",
        "都道府県名及び市町村名": "愛知県小牧市",
        "施設・場所名": "岩崎原会館",
        "住所": "愛知県小牧市岩崎原3-118",
        "指定緊急避難場所との住所同一": "",
        "その他市町村長が必要と認める事項": null,
        "受入対象者": null,
        "備考": ""
      }
    },
    {
      "type": "Feature",
      "geometry": {
        "type": "Point",
        "coordinates": [
          136.93983,
          35.31735
        ]
      },
      "properties": {
        "NO": 44210,
        "共通ID": "E2321900026111",
        "都道府県名及び市町村名": "愛知県小牧市",
        "施設・場所名": "小牧特別支援学校",
        "住所": "愛知県小牧市久保一色1129-2",
        "指定緊急避難場所との住所同一": "1",
        "その他市町村長が必要と認める事項": null,
        "受入対象者": null,
        "備考": ""
      }
    },
    {
      "type": "Feature",
      "geometry": {
        "type": "Point",
        "coordinates": [
          136.938012,
          35.318399
        ]
      },
      "properties": {
        "NO": 44211,
        "共通ID": "E2321900027111",
        "都道府県名及び市町村名": "愛知県小牧市",
        "施設・場所名": "久保一色本田会館",
        "住所": "愛知県小牧市久保一色1781-1",
        "指定緊急避難場所との住所同一": "",
        "その他市町村長が必要と認める事項": null,
        "受入対象者": null,
        "備考": ""
      }
    },
    {
      "type": "Feature",
      "geometry": {
        "type": "Point",
        "coordinates": [
          136.945827,
          35.317736
        ]
      },
      "properties": {
        "NO": 44212,
        "共通ID": "E2321900028111",
        "都道府県名及び市町村名": "愛知県小牧市",
        "施設・場所名": "田県久保山会館",
        "住所": "愛知県小牧市久保一色237-7",
        "指定緊急避難場所との住所同一": "",
        "その他市町村長が必要と認める事項": null,
        "受入対象者": null,
        "備考": ""
      }
    },
    {
      "type": "Feature",
      "geometry": {
        "type": "Point",
        "coordinates": [
          136.932485,
          35.319782
        ]
      },
      "properties": {
        "NO": 44213,
        "共通ID": "E2321900029111",
        "都道府県名及び市町村名": "愛知県小牧市",
        "施設・場所名": "久保一色会館",
        "住所": "愛知県小牧市久保一色3179-4",
        "指定緊急避難場所との住所同一": "",
        "その他市町村長が必要と認める事項": null,
        "受入対象者": null,
        "備考": ""
      }
    },
    {
      "type": "Feature",
      "geometry": {
        "type": "Point",
        "coordinates": [
          136.933335,
          35.314963
        ]
      },
      "properties": {
        "NO": 44214,
        "共通ID": "E2321900030111",
        "都道府県名及び市町村名": "愛知県小牧市",
        "施設・場所名": "ガーデン岩崎会館",
        "住所": "愛知県小牧市久保一色3411-17",
        "指定緊急避難場所との住所同一": "",
        "その他市町村長が必要と認める事項": null,
        "受入対象者": null,
        "備考": ""
      }
    },
    {
      "type": "Feature",
      "geometry": {
        "type": "Point",
        "coordinates": [
          136.93215,
          35.316877
        ]
      },
      "properties": {
        "NO": 44215,
        "共通ID": "E2321900031111",
        "都道府県名及び市町村名": "愛知県小牧市",
        "施設・場所名": "一色小学校",
        "住所": "愛知県小牧市久保一色3500",
        "指定緊急避難場所との住所同一": "1",
        "その他市町村長が必要と認める事項": null,
        "受入対象者": null,
        "備考": ""
      }
    },
    {
      "type": "Feature",
      "geometry": {
        "type": "Point",
        "coordinates": [
          136.927231,
          35.320296
        ]
      },
      "properties": {
        "NO": 44216,
        "共通ID": "E2321900032111",
        "都道府県名及び市町村名": "愛知県小牧市",
        "施設・場所名": "小牧工科高校",
        "住所": "愛知県小牧市久保一色3737-1",
        "指定緊急避難場所との住所同一": "1",
        "その他市町村長が必要と認める事項": "",
        "受入対象者": "",
        "備考": ""
      }
    },
    {
      "type": "Feature",
      "geometry": {
        "type": "Point",
        "coordinates": [
          136.943653,
          35.319363
        ]
      },
      "properties": {
        "NO": 44217,
        "共通ID": "E2321900154121",
        "都道府県名及び市町村名": "愛知県小牧市",
        "施設・場所名": "第３老人福祉センター",
        "住所": "愛知県小牧市久保一色954-1",
        "指定緊急避難場所との住所同一": "",
        "その他市町村長が必要と認める事項": "",
        "受入対象者": "",
        "備考": ""
      }
    },
    {
      "type": "Feature",
      "geometry": {
        "type": "Point",
        "coordinates": [
          136.936654,
          35.318762
        ]
      },
      "properties": {
        "NO": 44218,
        "共通ID": "E2321900033111",
        "都道府県名及び市町村名": "愛知県小牧市",
        "施設・場所名": "一色保育園",
        "住所": "愛知県小牧市久保一色南2-8",
        "指定緊急避難場所との住所同一": "",
        "その他市町村長が必要と認める事項": null,
        "受入対象者": null,
        "備考": ""
      }
    },
    {
      "type": "Feature",
      "geometry": {
        "type": "Point",
        "coordinates": [
          136.939183,
          35.311082
        ]
      },
      "properties": {
        "NO": 44219,
        "共通ID": "E2321900034111",
        "都道府県名及び市町村名": "愛知県小牧市",
        "施設・場所名": "味岡市民センター",
        "住所": "愛知県小牧市久保新町60",
        "指定緊急避難場所との住所同一": "",
        "その他市町村長が必要と認める事項": null,
        "受入対象者": null,
        "備考": ""
      }
    },
    {
      "type": "Feature",
      "geometry": {
        "type": "Point",
        "coordinates": [
          136.940066,
          35.312744
        ]
      },
      "properties": {
        "NO": 44220,
        "共通ID": "E2321900035111",
        "都道府県名及び市町村名": "愛知県小牧市",
        "施設・場所名": "久保会館",
        "住所": "愛知県小牧市久保本町33-2",
        "指定緊急避難場所との住所同一": "",
        "その他市町村長が必要と認める事項": null,
        "受入対象者": null,
        "備考": ""
      }
    },
    {
      "type": "Feature",
      "geometry": {
        "type": "Point",
        "coordinates": [
          136.918962,
          35.276777
        ]
      },
      "properties": {
        "NO": 44221,
        "共通ID": "E2321900036111",
        "都道府県名及び市町村名": "愛知県小牧市",
        "施設・場所名": "郷中会館",
        "住所": "愛知県小牧市郷中2-186",
        "指定緊急避難場所との住所同一": "",
        "その他市町村長が必要と認める事項": null,
        "受入対象者": null,
        "備考": ""
      }
    },
    {
      "type": "Feature",
      "geometry": {
        "type": "Point",
        "coordinates": [
          136.92119,
          35.276632
        ]
      },
      "properties": {
        "NO": 44222,
        "共通ID": "E2321900037111",
        "都道府県名及び市町村名": "愛知県小牧市",
        "施設・場所名": "南スポーツセンター",
        "住所": "愛知県小牧市郷中2-201",
        "指定緊急避難場所との住所同一": "1",
        "その他市町村長が必要と認める事項": null,
        "受入対象者": null,
        "備考": ""
      }
    },
    {
      "type": "Feature",
      "geometry": {
        "type": "Point",
        "coordinates": [
          136.905168,
          35.290532
        ]
      },
      "properties": {
        "NO": 44223,
        "共通ID": "E2321900038111",
        "都道府県名及び市町村名": "愛知県小牧市",
        "施設・場所名": "元町会館",
        "住所": "愛知県小牧市元町1-120",
        "指定緊急避難場所との住所同一": "",
        "その他市町村長が必要と認める事項": null,
        "受入対象者": null,
        "備考": ""
      }
    },
    {
      "type": "Feature",
      "geometry": {
        "type": "Point",
        "coordinates": [
          136.978987,
          35.301646
        ]
      },
      "properties": {
        "NO": 44224,
        "共通ID": "E2321900039111",
        "都道府県名及び市町村名": "愛知県小牧市",
        "施設・場所名": "古雅集会所",
        "住所": "愛知県小牧市古雅2-25",
        "指定緊急避難場所との住所同一": "",
        "その他市町村長が必要と認める事項": "",
        "受入対象者": "",
        "備考": ""
      }
    },
    {
      "type": "Feature",
      "geometry": {
        "type": "Point",
        "coordinates": [
          136.97716,
          35.301939
        ]
      },
      "properties": {
        "NO": 44225,
        "共通ID": "E2321900040111",
        "都道府県名及び市町村名": "愛知県小牧市",
        "施設・場所名": "古雅保育園",
        "住所": "愛知県小牧市古雅3-54",
        "指定緊急避難場所との住所同一": "",
        "その他市町村長が必要と認める事項": null,
        "受入対象者": null,
        "備考": ""
      }
    },
    {
      "type": "Feature",
      "geometry": {
        "type": "Point",
        "coordinates": [
          136.977457,
          35.305728
        ]
      },
      "properties": {
        "NO": 44226,
        "共通ID": "E2321900041111",
        "都道府県名及び市町村名": "愛知県小牧市",
        "施設・場所名": "池之内川南集会場",
        "住所": "愛知県小牧市古雅4-83",
        "指定緊急避難場所との住所同一": "",
        "その他市町村長が必要と認める事項": null,
        "受入対象者": null,
        "備考": ""
      }
    },
    {
      "type": "Feature",
      "geometry": {
        "type": "Point",
        "coordinates": [
          136.992685,
          35.303352
        ]
      },
      "properties": {
        "NO": 44227,
        "共通ID": "E2321900042111",
        "都道府県名及び市町村名": "愛知県小牧市",
        "施設・場所名": "光ケ丘小学校",
        "住所": "愛知県小牧市光ケ丘3-50",
        "指定緊急避難場所との住所同一": "1",
        "その他市町村長が必要と認める事項": null,
        "受入対象者": null,
        "備考": ""
      }
    },
    {
      "type": "Feature",
      "geometry": {
        "type": "Point",
        "coordinates": [
          136.993759,
          35.302282
        ]
      },
      "properties": {
        "NO": 44228,
        "共通ID": "E2321900043111",
        "都道府県名及び市町村名": "愛知県小牧市",
        "施設・場所名": "光ケ丘中学校",
        "住所": "愛知県小牧市光ケ丘3-52",
        "指定緊急避難場所との住所同一": "1",
        "その他市町村長が必要と認める事項": "",
        "受入対象者": "",
        "備考": ""
      }
    },
    {
      "type": "Feature",
      "geometry": {
        "type": "Point",
        "coordinates": [
          136.991289,
          35.300435
        ]
      },
      "properties": {
        "NO": 44229,
        "共通ID": "E2321900044111",
        "都道府県名及び市町村名": "愛知県小牧市",
        "施設・場所名": "光ケ丘会館",
        "住所": "愛知県小牧市光ケ丘3-64",
        "指定緊急避難場所との住所同一": "",
        "その他市町村長が必要と認める事項": null,
        "受入対象者": null,
        "備考": ""
      }
    },
    {
      "type": "Feature",
      "geometry": {
        "type": "Point",
        "coordinates": [
          136.973715,
          35.288075
        ]
      },
      "properties": {
        "NO": 44230,
        "共通ID": "E2321900045111",
        "都道府県名及び市町村名": "愛知県小牧市",
        "施設・場所名": "高根会館",
        "住所": "愛知県小牧市高根3-401",
        "指定緊急避難場所との住所同一": "",
        "その他市町村長が必要と認める事項": null,
        "受入対象者": null,
        "備考": ""
      }
    },
    {
      "type": "Feature",
      "geometry": {
        "type": "Point",
        "coordinates": [
          136.921718,
          35.284009
        ]
      },
      "properties": {
        "NO": 44231,
        "共通ID": "E2321900046111",
        "都道府県名及び市町村名": "愛知県小牧市",
        "施設・場所名": "さくら保育園",
        "住所": "愛知県小牧市桜井40",
        "指定緊急避難場所との住所同一": "",
        "その他市町村長が必要と認める事項": null,
        "受入対象者": null,
        "備考": ""
      }
    },
    {
      "type": "Feature",
      "geometry": {
        "type": "Point",
        "coordinates": [
          136.893812,
          35.291617
        ]
      },
      "properties": {
        "NO": 44232,
        "共通ID": "E2321900047111",
        "都道府県名及び市町村名": "愛知県小牧市",
        "施設・場所名": "三ツ渕保育園",
        "住所": "愛知県小牧市三ツ渕1622",
        "指定緊急避難場所との住所同一": "",
        "その他市町村長が必要と認める事項": null,
        "受入対象者": null,
        "備考": ""
      }
    },
    {
      "type": "Feature",
      "geometry": {
        "type": "Point",
        "coordinates": [
          136.889272,
          35.30012
        ]
      },
      "properties": {
        "NO": 44233,
        "共通ID": "E2321900048111",
        "都道府県名及び市町村名": "愛知県小牧市",
        "施設・場所名": "三ツ渕北保育園",
        "住所": "愛知県小牧市三ツ渕2130-1",
        "指定緊急避難場所との住所同一": "",
        "その他市町村長が必要と認める事項": null,
        "受入対象者": null,
        "備考": ""
      }
    },
    {
      "type": "Feature",
      "geometry": {
        "type": "Point",
        "coordinates": [
          136.885816,
          35.299806
        ]
      },
      "properties": {
        "NO": 44234,
        "共通ID": "E2321900049111",
        "都道府県名及び市町村名": "愛知県小牧市",
        "施設・場所名": "三ツ渕原団地会館",
        "住所": "愛知県小牧市三ツ渕2350-198",
        "指定緊急避難場所との住所同一": "",
        "その他市町村長が必要と認める事項": null,
        "受入対象者": null,
        "備考": ""
      }
    },
    {
      "type": "Feature",
      "geometry": {
        "type": "Point",
        "coordinates": [
          136.892909,
          35.29198
        ]
      },
      "properties": {
        "NO": 44235,
        "共通ID": "E2321900050111",
        "都道府県名及び市町村名": "愛知県小牧市",
        "施設・場所名": "三ツ渕小学校",
        "住所": "愛知県小牧市三ツ渕480",
        "指定緊急避難場所との住所同一": "1",
        "その他市町村長が必要と認める事項": null,
        "受入対象者": null,
        "備考": ""
      }
    },
    {
      "type": "Feature",
      "geometry": {
        "type": "Point",
        "coordinates": [
          136.891602,
          35.292305
        ]
      },
      "properties": {
        "NO": 44236,
        "共通ID": "E2321900051111",
        "都道府県名及び市町村名": "愛知県小牧市",
        "施設・場所名": "三ツ渕会館",
        "住所": "愛知県小牧市三ツ渕534-4",
        "指定緊急避難場所との住所同一": "",
        "その他市町村長が必要と認める事項": null,
        "受入対象者": null,
        "備考": ""
      }
    },
    {
      "type": "Feature",
      "geometry": {
        "type": "Point",
        "coordinates": [
          136.920285,
          35.271443
        ]
      },
      "properties": {
        "NO": 44237,
        "共通ID": "E2321900052111",
        "都道府県名及び市町村名": "愛知県小牧市",
        "施設・場所名": "市之久田会館",
        "住所": "愛知県小牧市市之久田1-338-1",
        "指定緊急避難場所との住所同一": "",
        "その他市町村長が必要と認める事項": null,
        "受入対象者": null,
        "備考": ""
      }
    },
    {
      "type": "Feature",
      "geometry": {
        "type": "Point",
        "coordinates": [
          136.984605,
          35.305177
        ]
      },
      "properties": {
        "NO": 44238,
        "共通ID": "E2321900053111",
        "都道府県名及び市町村名": "愛知県小牧市",
        "施設・場所名": "篠岡会館",
        "住所": "愛知県小牧市篠岡1-36",
        "指定緊急避難場所との住所同一": "",
        "その他市町村長が必要と認める事項": null,
        "受入対象者": null,
        "備考": ""
      }
    },
    {
      "type": "Feature",
      "geometry": {
        "type": "Point",
        "coordinates": [
          136.982487,
          35.30271
        ]
      },
      "properties": {
        "NO": 44239,
        "共通ID": "E2321900054111",
        "都道府県名及び市町村名": "愛知県小牧市",
        "施設・場所名": "東部市民センター",
        "住所": "愛知県小牧市篠岡2-23",
        "指定緊急避難場所との住所同一": "",
        "その他市町村長が必要と認める事項": null,
        "受入対象者": null,
        "備考": ""
      }
    },
    {
      "type": "Feature",
      "geometry": {
        "type": "Point",
        "coordinates": [
          136.982276,
          35.304
        ]
      },
      "properties": {
        "NO": 44240,
        "共通ID": "E2321900055111",
        "都道府県名及び市町村名": "愛知県小牧市",
        "施設・場所名": "篠岡小学校",
        "住所": "愛知県小牧市篠岡2-25",
        "指定緊急避難場所との住所同一": "1",
        "その他市町村長が必要と認める事項": null,
        "受入対象者": null,
        "備考": ""
      }
    },
    {
      "type": "Feature",
      "geometry": {
        "type": "Point",
        "coordinates": [
          136.982343,
          35.30518
        ]
      },
      "properties": {
        "NO": 44241,
        "共通ID": "E2321900056111",
        "都道府県名及び市町村名": "愛知県小牧市",
        "施設・場所名": "篠岡中学校",
        "住所": "愛知県小牧市篠岡2-28",
        "指定緊急避難場所との住所同一": "1",
        "その他市町村長が必要と認める事項": "",
        "受入対象者": "",
        "備考": ""
      }
    },
    {
      "type": "Feature",
      "geometry": {
        "type": "Point",
        "coordinates": [
          136.981896,
          35.307818
        ]
      },
      "properties": {
        "NO": 44242,
        "共通ID": "E2321900057111",
        "都道府県名及び市町村名": "愛知県小牧市",
        "施設・場所名": "篠岡保育園",
        "住所": "愛知県小牧市篠岡2-30",
        "指定緊急避難場所との住所同一": "",
        "その他市町村長が必要と認める事項": null,
        "受入対象者": null,
        "備考": ""
      }
    },
    {
      "type": "Feature",
      "geometry": {
        "type": "Point",
        "coordinates": [
          136.923839,
          35.279896
        ]
      },
      "properties": {
        "NO": 44243,
        "共通ID": "E2321900058111",
        "都道府県名及び市町村名": "愛知県小牧市",
        "施設・場所名": "小牧南小学校",
        "住所": "愛知県小牧市若草町82",
        "指定緊急避難場所との住所同一": "1",
        "その他市町村長が必要と認める事項": null,
        "受入対象者": null,
        "備考": ""
      }
    },
    {
      "type": "Feature",
      "geometry": {
        "type": "Point",
        "coordinates": [
          136.896481,
          35.287597
        ]
      },
      "properties": {
        "NO": 44244,
        "共通ID": "E2321900059111",
        "都道府県名及び市町村名": "愛知県小牧市",
        "施設・場所名": "舟津会館",
        "住所": "愛知県小牧市舟津839-4",
        "指定緊急避難場所との住所同一": "",
        "その他市町村長が必要と認める事項": null,
        "受入対象者": null,
        "備考": ""
      }
    },
    {
      "type": "Feature",
      "geometry": {
        "type": "Point",
        "coordinates": [
          136.931901,
          35.256635
        ]
      },
      "properties": {
        "NO": 44245,
        "共通ID": "E2321900060111",
        "都道府県名及び市町村名": "愛知県小牧市",
        "施設・場所名": "春日寺会館",
        "住所": "愛知県小牧市春日寺1-137",
        "指定緊急避難場所との住所同一": "",
        "その他市町村長が必要と認める事項": null,
        "受入対象者": null,
        "備考": ""
      }
    },
    {
      "type": "Feature",
      "geometry": {
        "type": "Point",
        "coordinates": [
          136.949667,
          35.309792
        ]
      },
      "properties": {
        "NO": 44246,
        "共通ID": "E2321900061111",
        "都道府県名及び市町村名": "愛知県小牧市",
        "施設・場所名": "小松寺団地会館",
        "住所": "愛知県小牧市小松寺1118-296",
        "指定緊急避難場所との住所同一": "",
        "その他市町村長が必要と認める事項": null,
        "受入対象者": null,
        "備考": ""
      }
    },
    {
      "type": "Feature",
      "geometry": {
        "type": "Point",
        "coordinates": [
          136.944334,
          35.308507
        ]
      },
      "properties": {
        "NO": 44247,
        "共通ID": "E2321900062111",
        "都道府県名及び市町村名": "愛知県小牧市",
        "施設・場所名": "味岡中学校",
        "住所": "愛知県小牧市小松寺4-1",
        "指定緊急避難場所との住所同一": "1",
        "その他市町村長が必要と認める事項": "",
        "受入対象者": "",
        "備考": ""
      }
    },
    {
      "type": "Feature",
      "geometry": {
        "type": "Point",
        "coordinates": [
          136.943058,
          35.308368
        ]
      },
      "properties": {
        "NO": 44248,
        "共通ID": "E2321900063111",
        "都道府県名及び市町村名": "愛知県小牧市",
        "施設・場所名": "小松寺会館",
        "住所": "愛知県小牧市小松寺5-118",
        "指定緊急避難場所との住所同一": "",
        "その他市町村長が必要と認める事項": null,
        "受入対象者": null,
        "備考": ""
      }
    },
    {
      "type": "Feature",
      "geometry": {
        "type": "Point",
        "coordinates": [
          136.941192,
          35.307372
        ]
      },
      "properties": {
        "NO": 44249,
        "共通ID": "E2321900064111",
        "都道府県名及び市町村名": "愛知県小牧市",
        "施設・場所名": "味岡小学校",
        "住所": "愛知県小牧市小松寺5-150",
        "指定緊急避難場所との住所同一": "1",
        "その他市町村長が必要と認める事項": null,
        "受入対象者": null,
        "備考": ""
      }
    },
    {
      "type": "Feature",
      "geometry": {
        "type": "Point",
        "coordinates": [
          136.915941,
          35.274657
        ]
      },
      "properties": {
        "NO": 44250,
        "共通ID": "E2321900065111",
        "都道府県名及び市町村名": "愛知県小牧市",
        "施設・場所名": "小針会館",
        "住所": "愛知県小牧市小針2-228",
        "指定緊急避難場所との住所同一": "",
        "その他市町村長が必要と認める事項": null,
        "受入対象者": null,
        "備考": ""
      }
    },
    {
      "type": "Feature",
      "geometry": {
        "type": "Point",
        "coordinates": [
          136.916861,
          35.271512
        ]
      },
      "properties": {
        "NO": 44251,
        "共通ID": "E2321900066121",
        "都道府県名及び市町村名": "愛知県小牧市",
        "施設・場所名": "第２老人福祉センター",
        "住所": "愛知県小牧市小針2-572-2",
        "指定緊急避難場所との住所同一": "",
        "その他市町村長が必要と認める事項": null,
        "受入対象者": "避難行動要支援者",
        "備考": ""
      }
    },
    {
      "type": "Feature",
      "geometry": {
        "type": "Point",
        "coordinates": [
          136.919045,
          35.293763
        ]
      },
      "properties": {
        "NO": 44252,
        "共通ID": "E2321900067111",
        "都道府県名及び市町村名": "愛知県小牧市",
        "施設・場所名": "大輪体育館",
        "住所": "愛知県小牧市小牧1-114",
        "指定緊急避難場所との住所同一": "",
        "その他市町村長が必要と認める事項": null,
        "受入対象者": null,
        "備考": ""
      }
    },
    {
      "type": "Feature",
      "geometry": {
        "type": "Point",
        "coordinates": [
          136.919319,
          35.293699
        ]
      },
      "properties": {
        "NO": 44253,
        "共通ID": "E2321900068111",
        "都道府県名及び市町村名": "愛知県小牧市",
        "施設・場所名": "大輪井上会館",
        "住所": "愛知県小牧市小牧1-117",
        "指定緊急避難場所との住所同一": "",
        "その他市町村長が必要と認める事項": null,
        "受入対象者": null,
        "備考": ""
      }
    },
    {
      "type": "Feature",
      "geometry": {
        "type": "Point",
        "coordinates": [
          136.918563,
          35.292933
        ]
      },
      "properties": {
        "NO": 44254,
        "共通ID": "E2321900069111",
        "都道府県名及び市町村名": "愛知県小牧市",
        "施設・場所名": "小牧高校",
        "住所": "愛知県小牧市小牧1-321",
        "指定緊急避難場所との住所同一": "1",
        "その他市町村長が必要と認める事項": "",
        "受入対象者": "",
        "備考": ""
      }
    },
    {
      "type": "Feature",
      "geometry": {
        "type": "Point",
        "coordinates": [
          136.91911,
          35.291091
        ]
      },
      "properties": {
        "NO": 44255,
        "共通ID": "E2321900070111",
        "都道府県名及び市町村名": "愛知県小牧市",
        "施設・場所名": "寺浦会館",
        "住所": "愛知県小牧市小牧1-494",
        "指定緊急避難場所との住所同一": "",
        "その他市町村長が必要と認める事項": null,
        "受入対象者": null,
        "備考": ""
      }
    },
    {
      "type": "Feature",
      "geometry": {
        "type": "Point",
        "coordinates": [
          136.923459,
          35.293507
        ]
      },
      "properties": {
        "NO": 44256,
        "共通ID": "E2321900071111",
        "都道府県名及び市町村名": "愛知県小牧市",
        "施設・場所名": "市民会館",
        "住所": "愛知県小牧市小牧2-107",
        "指定緊急避難場所との住所同一": "1",
        "その他市町村長が必要と認める事項": null,
        "受入対象者": null,
        "備考": ""
      }
    },
    {
      "type": "Feature",
      "geometry": {
        "type": "Point",
        "coordinates": [
          136.924633,
          35.292495
        ]
      },
      "properties": {
        "NO": 44257,
        "共通ID": "E2321900072111",
        "都道府県名及び市町村名": "愛知県小牧市",
        "施設・場所名": "第二保育園",
        "住所": "愛知県小牧市小牧2-216",
        "指定緊急避難場所との住所同一": "",
        "その他市町村長が必要と認める事項": null,
        "受入対象者": null,
        "備考": ""
      }
    },
    {
      "type": "Feature",
      "geometry": {
        "type": "Point",
        "coordinates": [
          136.923485,
          35.291216
        ]
      },
      "properties": {
        "NO": 44258,
        "共通ID": "E2321900073111",
        "都道府県名及び市町村名": "愛知県小牧市",
        "施設・場所名": "小牧小学校",
        "住所": "愛知県小牧市小牧3-17",
        "指定緊急避難場所との住所同一": "1",
        "その他市町村長が必要と認める事項": null,
        "受入対象者": null,
        "備考": ""
      }
    },
    {
      "type": "Feature",
      "geometry": {
        "type": "Point",
        "coordinates": [
          136.923994,
          35.291226
        ]
      },
      "properties": {
        "NO": 44259,
        "共通ID": "E2321900074111",
        "都道府県名及び市町村名": "愛知県小牧市",
        "施設・場所名": "浦田五共会館",
        "住所": "愛知県小牧市小牧3-58",
        "指定緊急避難場所との住所同一": "",
        "その他市町村長が必要と認める事項": null,
        "受入対象者": null,
        "備考": ""
      }
    },
    {
      "type": "Feature",
      "geometry": {
        "type": "Point",
        "coordinates": [
          136.92382,
          35.287693
        ]
      },
      "properties": {
        "NO": 44260,
        "共通ID": "E2321900075111",
        "都道府県名及び市町村名": "愛知県小牧市",
        "施設・場所名": "東町会館",
        "住所": "愛知県小牧市小牧4-368",
        "指定緊急避難場所との住所同一": "",
        "その他市町村長が必要と認める事項": null,
        "受入対象者": null,
        "備考": ""
      }
    },
    {
      "type": "Feature",
      "geometry": {
        "type": "Point",
        "coordinates": [
          136.919179,
          35.288861
        ]
      },
      "properties": {
        "NO": 44261,
        "共通ID": "E2321900076111",
        "都道府県名及び市町村名": "愛知県小牧市",
        "施設・場所名": "小牧中部公民館",
        "住所": "愛知県小牧市小牧5-253",
        "指定緊急避難場所との住所同一": "",
        "その他市町村長が必要と認める事項": null,
        "受入対象者": null,
        "備考": ""
      }
    },
    {
      "type": "Feature",
      "geometry": {
        "type": "Point",
        "coordinates": [
          136.917453,
          35.288816
        ]
      },
      "properties": {
        "NO": 44262,
        "共通ID": "E2321900077111",
        "都道府県名及び市町村名": "愛知県小牧市",
        "施設・場所名": "西町会館",
        "住所": "愛知県小牧市小牧5-627",
        "指定緊急避難場所との住所同一": "",
        "その他市町村長が必要と認める事項": null,
        "受入対象者": null,
        "備考": ""
      }
    },
    {
      "type": "Feature",
      "geometry": {
        "type": "Point",
        "coordinates": [
          136.926748,
          35.307061
        ]
      },
      "properties": {
        "NO": 44263,
        "共通ID": "E2321900078111",
        "都道府県名及び市町村名": "愛知県小牧市",
        "施設・場所名": "南岩崎台会館",
        "住所": "愛知県小牧市小牧原1-45",
        "指定緊急避難場所との住所同一": "",
        "その他市町村長が必要と認める事項": null,
        "受入対象者": null,
        "備考": ""
      }
    },
    {
      "type": "Feature",
      "geometry": {
        "type": "Point",
        "coordinates": [
          136.924239,
          35.306957
        ]
      },
      "properties": {
        "NO": 44264,
        "共通ID": "E2321900079111",
        "都道府県名及び市町村名": "愛知県小牧市",
        "施設・場所名": "小牧原西部会館",
        "住所": "愛知県小牧市小牧原1-98",
        "指定緊急避難場所との住所同一": "",
        "その他市町村長が必要と認める事項": null,
        "受入対象者": null,
        "備考": ""
      }
    },
    {
      "type": "Feature",
      "geometry": {
        "type": "Point",
        "coordinates": [
          136.932077,
          35.306075
        ]
      },
      "properties": {
        "NO": 44265,
        "共通ID": "E2321900080111",
        "都道府県名及び市町村名": "愛知県小牧市",
        "施設・場所名": "小牧原北会館",
        "住所": "愛知県小牧市小牧原2-157",
        "指定緊急避難場所との住所同一": "",
        "その他市町村長が必要と認める事項": null,
        "受入対象者": null,
        "備考": ""
      }
    },
    {
      "type": "Feature",
      "geometry": {
        "type": "Point",
        "coordinates": [
          136.925389,
          35.301915
        ]
      },
      "properties": {
        "NO": 44266,
        "共通ID": "E2321900081111",
        "都道府県名及び市町村名": "愛知県小牧市",
        "施設・場所名": "小牧原西会館",
        "住所": "愛知県小牧市小牧原新田1031-1",
        "指定緊急避難場所との住所同一": "",
        "その他市町村長が必要と認める事項": null,
        "受入対象者": null,
        "備考": ""
      }
    },
    {
      "type": "Feature",
      "geometry": {
        "type": "Point",
        "coordinates": [
          136.922254,
          35.301312
        ]
      },
      "properties": {
        "NO": 44267,
        "共通ID": "E2321900082111",
        "都道府県名及び市町村名": "愛知県小牧市",
        "施設・場所名": "小牧原小学校",
        "住所": "愛知県小牧市小牧原新田1125",
        "指定緊急避難場所との住所同一": "1",
        "その他市町村長が必要と認める事項": null,
        "受入対象者": null,
        "備考": ""
      }
    },
    {
      "type": "Feature",
      "geometry": {
        "type": "Point",
        "coordinates": [
          136.929722,
          35.300976
        ]
      },
      "properties": {
        "NO": 44268,
        "共通ID": "E2321900083111",
        "都道府県名及び市町村名": "愛知県小牧市",
        "施設・場所名": "小牧原会館",
        "住所": "愛知県小牧市小牧原新田1672",
        "指定緊急避難場所との住所同一": "",
        "その他市町村長が必要と認める事項": null,
        "受入対象者": null,
        "備考": ""
      }
    },
    {
      "type": "Feature",
      "geometry": {
        "type": "Point",
        "coordinates": [
          136.933897,
          35.300409
        ]
      },
      "properties": {
        "NO": 44269,
        "共通ID": "E2321900084111",
        "都道府県名及び市町村名": "愛知県小牧市",
        "施設・場所名": "小牧原街道会館",
        "住所": "愛知県小牧市小牧原新田1850-1",
        "指定緊急避難場所との住所同一": "",
        "その他市町村長が必要と認める事項": null,
        "受入対象者": null,
        "備考": ""
      }
    },
    {
      "type": "Feature",
      "geometry": {
        "type": "Point",
        "coordinates": [
          136.9307,
          35.294093
        ]
      },
      "properties": {
        "NO": 44270,
        "共通ID": "E2321900085111",
        "都道府県名及び市町村名": "愛知県小牧市",
        "施設・場所名": "上新町会館",
        "住所": "愛知県小牧市小牧原新田442-1",
        "指定緊急避難場所との住所同一": "",
        "その他市町村長が必要と認める事項": null,
        "受入対象者": null,
        "備考": ""
      }
    },
    {
      "type": "Feature",
      "geometry": {
        "type": "Point",
        "coordinates": [
          136.930343,
          35.297555
        ]
      },
      "properties": {
        "NO": 44271,
        "共通ID": "E2321900086111",
        "都道府県名及び市町村名": "愛知県小牧市",
        "施設・場所名": "小牧原南会館",
        "住所": "愛知県小牧市小牧原新田745-104",
        "指定緊急避難場所との住所同一": "",
        "その他市町村長が必要と認める事項": null,
        "受入対象者": null,
        "備考": ""
      }
    },
    {
      "type": "Feature",
      "geometry": {
        "type": "Point",
        "coordinates": [
          136.900301,
          35.280583
        ]
      },
      "properties": {
        "NO": 44272,
        "共通ID": "E2321900087111",
        "都道府県名及び市町村名": "愛知県小牧市",
        "施設・場所名": "小木保育園",
        "住所": "愛知県小牧市小木2-350-1",
        "指定緊急避難場所との住所同一": "",
        "その他市町村長が必要と認める事項": null,
        "受入対象者": null,
        "備考": ""
      }
    },
    {
      "type": "Feature",
      "geometry": {
        "type": "Point",
        "coordinates": [
          136.899785,
          35.280314
        ]
      },
      "properties": {
        "NO": 44273,
        "共通ID": "E2321900088111",
        "都道府県名及び市町村名": "愛知県小牧市",
        "施設・場所名": "小木上会館",
        "住所": "愛知県小牧市小木2-361",
        "指定緊急避難場所との住所同一": "",
        "その他市町村長が必要と認める事項": null,
        "受入対象者": null,
        "備考": ""
      }
    },
    {
      "type": "Feature",
      "geometry": {
        "type": "Point",
        "coordinates": [
          136.898805,
          35.277841
        ]
      },
      "properties": {
        "NO": 44274,
        "共通ID": "E2321900089111",
        "都道府県名及び市町村名": "愛知県小牧市",
        "施設・場所名": "小木中会館",
        "住所": "愛知県小牧市小木3-321",
        "指定緊急避難場所との住所同一": "",
        "その他市町村長が必要と認める事項": null,
        "受入対象者": null,
        "備考": ""
      }
    },
    {
      "type": "Feature",
      "geometry": {
        "type": "Point",
        "coordinates": [
          136.894543,
          35.276403
        ]
      },
      "properties": {
        "NO": 44275,
        "共通ID": "E2321900090111",
        "都道府県名及び市町村名": "愛知県小牧市",
        "施設・場所名": "小木下会館",
        "住所": "愛知県小牧市小木4-143",
        "指定緊急避難場所との住所同一": "",
        "その他市町村長が必要と認める事項": null,
        "受入対象者": null,
        "備考": ""
      }
    },
    {
      "type": "Feature",
      "geometry": {
        "type": "Point",
        "coordinates": [
          136.89315,
          35.278133
        ]
      },
      "properties": {
        "NO": 44276,
        "共通ID": "E2321900091111",
        "都道府県名及び市町村名": "愛知県小牧市",
        "施設・場所名": "小木小学校",
        "住所": "愛知県小牧市小木西2-1",
        "指定緊急避難場所との住所同一": "1",
        "その他市町村長が必要と認める事項": null,
        "受入対象者": null,
        "備考": ""
      }
    },
    {
      "type": "Feature",
      "geometry": {
        "type": "Point",
        "coordinates": [
          136.901898,
          35.276303
        ]
      },
      "properties": {
        "NO": 44277,
        "共通ID": "E2321900092111",
        "都道府県名及び市町村名": "愛知県小牧市",
        "施設・場所名": "小牧南高校",
        "住所": "愛知県小牧市小木東2-183",
        "指定緊急避難場所との住所同一": "1",
        "その他市町村長が必要と認める事項": "",
        "受入対象者": "",
        "備考": ""
      }
    },
    {
      "type": "Feature",
      "geometry": {
        "type": "Point",
        "coordinates": [
          136.891885,
          35.270863
        ]
      },
      "properties": {
        "NO": 44278,
        "共通ID": "E2321900093111",
        "都道府県名及び市町村名": "愛知県小牧市",
        "施設・場所名": "とみづか会館",
        "住所": "愛知県小牧市小木南3-443",
        "指定緊急避難場所との住所同一": "",
        "その他市町村長が必要と認める事項": null,
        "受入対象者": null,
        "備考": ""
      }
    },
    {
      "type": "Feature",
      "geometry": {
        "type": "Point",
        "coordinates": [
          136.954778,
          35.292931
        ]
      },
      "properties": {
        "NO": 44279,
        "共通ID": "E2321900094111",
        "都道府県名及び市町村名": "愛知県小牧市",
        "施設・場所名": "小牧勤労センター",
        "住所": "愛知県小牧市上末2233-2",
        "指定緊急避難場所との住所同一": "1",
        "その他市町村長が必要と認める事項": null,
        "受入対象者": null,
        "備考": ""
      }
    },
    {
      "type": "Feature",
      "geometry": {
        "type": "Point",
        "coordinates": [
          136.963071,
          35.293976
        ]
      },
      "properties": {
        "NO": 44280,
        "共通ID": "E2321900095111",
        "都道府県名及び市町村名": "愛知県小牧市",
        "施設・場所名": "上末会館",
        "住所": "愛知県小牧市上末3158-9",
        "指定緊急避難場所との住所同一": "",
        "その他市町村長が必要と認める事項": null,
        "受入対象者": null,
        "備考": ""
      }
    },
    {
      "type": "Feature",
      "geometry": {
        "type": "Point",
        "coordinates": [
          136.964929,
          35.293885
        ]
      },
      "properties": {
        "NO": 44281,
        "共通ID": "E2321900096111",
        "都道府県名及び市町村名": "愛知県小牧市",
        "施設・場所名": "陶小学校",
        "住所": "愛知県小牧市上末3450-282",
        "指定緊急避難場所との住所同一": "1",
        "その他市町村長が必要と認める事項": null,
        "受入対象者": null,
        "備考": ""
      }
    },
    {
      "type": "Feature",
      "geometry": {
        "type": "Point",
        "coordinates": [
          136.960458,
          35.292589
        ]
      },
      "properties": {
        "NO": 44282,
        "共通ID": "E2321900098111",
        "都道府県名及び市町村名": "愛知県小牧市",
        "施設・場所名": "陶保育園",
        "住所": "愛知県小牧市上末字稲葉台1",
        "指定緊急避難場所との住所同一": "",
        "その他市町村長が必要と認める事項": null,
        "受入対象者": null,
        "備考": ""
      }
    },
    {
      "type": "Feature",
      "geometry": {
        "type": "Point",
        "coordinates": [
          136.988519,
          35.294694
        ]
      },
      "properties": {
        "NO": 44283,
        "共通ID": "E2321900100111",
        "都道府県名及び市町村名": "愛知県小牧市",
        "施設・場所名": "大城保育園",
        "住所": "愛知県小牧市城山3-2-1",
        "指定緊急避難場所との住所同一": "",
        "その他市町村長が必要と認める事項": null,
        "受入対象者": null,
        "備考": ""
      }
    },
    {
      "type": "Feature",
      "geometry": {
        "type": "Point",
        "coordinates": [
          136.989219,
          35.293494
        ]
      },
      "properties": {
        "NO": 44284,
        "共通ID": "E2321900101111",
        "都道府県名及び市町村名": "愛知県小牧市",
        "施設・場所名": "大城小学校",
        "住所": "愛知県小牧市城山3-8",
        "指定緊急避難場所との住所同一": "1",
        "その他市町村長が必要と認める事項": null,
        "受入対象者": null,
        "備考": ""
      }
    },
    {
      "type": "Feature",
      "geometry": {
        "type": "Point",
        "coordinates": [
          136.983869,
          35.295541
        ]
      },
      "properties": {
        "NO": 44285,
        "共通ID": "E2321900102111",
        "都道府県名及び市町村名": "愛知県小牧市",
        "施設・場所名": "城山会館",
        "住所": "愛知県小牧市城山5-117",
        "指定緊急避難場所との住所同一": "",
        "その他市町村長が必要と認める事項": null,
        "受入対象者": null,
        "備考": ""
      }
    },
    {
      "type": "Feature",
      "geometry": {
        "type": "Point",
        "coordinates": [
          136.917821,
          35.283926
        ]
      },
      "properties": {
        "NO": 44286,
        "共通ID": "E2321900103111",
        "都道府県名及び市町村名": "愛知県小牧市",
        "施設・場所名": "常普請会館",
        "住所": "愛知県小牧市常普請2-170",
        "指定緊急避難場所との住所同一": "",
        "その他市町村長が必要と認める事項": null,
        "受入対象者": null,
        "備考": ""
      }
    },
    {
      "type": "Feature",
      "geometry": {
        "type": "Point",
        "coordinates": [
          136.887027,
          35.282919
        ]
      },
      "properties": {
        "NO": 44287,
        "共通ID": "E2321900104111",
        "都道府県名及び市町村名": "愛知県小牧市",
        "施設・場所名": "トラックターミナル会館",
        "住所": "愛知県小牧市新小木1-72",
        "指定緊急避難場所との住所同一": "",
        "その他市町村長が必要と認める事項": null,
        "受入対象者": null,
        "備考": ""
      }
    },
    {
      "type": "Feature",
      "geometry": {
        "type": "Point",
        "coordinates": [
          136.92093,
          35.29802
        ]
      },
      "properties": {
        "NO": 44288,
        "共通ID": "E2321900106111",
        "都道府県名及び市町村名": "愛知県小牧市",
        "施設・場所名": "懐会館",
        "住所": "愛知県小牧市新町1-158",
        "指定緊急避難場所との住所同一": "",
        "その他市町村長が必要と認める事項": null,
        "受入対象者": null,
        "備考": ""
      }
    },
    {
      "type": "Feature",
      "geometry": {
        "type": "Point",
        "coordinates": [
          136.926133,
          35.294828
        ]
      },
      "properties": {
        "NO": 44289,
        "共通ID": "E2321900107111",
        "都道府県名及び市町村名": "愛知県小牧市",
        "施設・場所名": "大新田会館",
        "住所": "愛知県小牧市新町2-294",
        "指定緊急避難場所との住所同一": "",
        "その他市町村長が必要と認める事項": null,
        "受入対象者": null,
        "備考": ""
      }
    },
    {
      "type": "Feature",
      "geometry": {
        "type": "Point",
        "coordinates": [
          136.929616,
          35.296176
        ]
      },
      "properties": {
        "NO": 44290,
        "共通ID": "E2321900108111",
        "都道府県名及び市町村名": "愛知県小牧市",
        "施設・場所名": "レイモンド小牧保育園",
        "住所": "愛知県小牧市新町3-135",
        "指定緊急避難場所との住所同一": "",
        "その他市町村長が必要と認める事項": null,
        "受入対象者": null,
        "備考": ""
      }
    },
    {
      "type": "Feature",
      "geometry": {
        "type": "Point",
        "coordinates": [
          136.89688,
          35.291169
        ]
      },
      "properties": {
        "NO": 44291,
        "共通ID": "E2321900109111",
        "都道府県名及び市町村名": "愛知県小牧市",
        "施設・場所名": "小牧西中学校",
        "住所": "愛知県小牧市西之島2200",
        "指定緊急避難場所との住所同一": "1",
        "その他市町村長が必要と認める事項": "",
        "受入対象者": "",
        "備考": ""
      }
    },
    {
      "type": "Feature",
      "geometry": {
        "type": "Point",
        "coordinates": [
          136.897284,
          35.298801
        ]
      },
      "properties": {
        "NO": 44292,
        "共通ID": "E2321900110111",
        "都道府県名及び市町村名": "愛知県小牧市",
        "施設・場所名": "西部コミュニティセンター",
        "住所": "愛知県小牧市西之島528-1",
        "指定緊急避難場所との住所同一": "",
        "その他市町村長が必要と認める事項": null,
        "受入対象者": null,
        "備考": ""
      }
    },
    {
      "type": "Feature",
      "geometry": {
        "type": "Point",
        "coordinates": [
          136.901247,
          35.296581
        ]
      },
      "properties": {
        "NO": 44293,
        "共通ID": "E2321900111111",
        "都道府県名及び市町村名": "愛知県小牧市",
        "施設・場所名": "西之島会館",
        "住所": "愛知県小牧市西之島746-1",
        "指定緊急避難場所との住所同一": "",
        "その他市町村長が必要と認める事項": null,
        "受入対象者": null,
        "備考": ""
      }
    },
    {
      "type": "Feature",
      "geometry": {
        "type": "Point",
        "coordinates": [
          136.906727,
          35.306809
        ]
      },
      "properties": {
        "NO": 44294,
        "共通ID": "E2321900112111",
        "都道府県名及び市町村名": "愛知県小牧市",
        "施設・場所名": "村中小学校",
        "住所": "愛知県小牧市村中1045",
        "指定緊急避難場所との住所同一": "1",
        "その他市町村長が必要と認める事項": null,
        "受入対象者": null,
        "備考": ""
      }
    },
    {
      "type": "Feature",
      "geometry": {
        "type": "Point",
        "coordinates": [
          136.905096,
          35.298025
        ]
      },
      "properties": {
        "NO": 44295,
        "共通ID": "E2321900113111",
        "都道府県名及び市町村名": "愛知県小牧市",
        "施設・場所名": "村中会館",
        "住所": "愛知県小牧市村中388-1",
        "指定緊急避難場所との住所同一": "",
        "その他市町村長が必要と認める事項": null,
        "受入対象者": null,
        "備考": ""
      }
    },
    {
      "type": "Feature",
      "geometry": {
        "type": "Point",
        "coordinates": [
          136.900463,
          35.262604
        ]
      },
      "properties": {
        "NO": 44296,
        "共通ID": "E2321900114111",
        "都道府県名及び市町村名": "愛知県小牧市",
        "施設・場所名": "多気会館",
        "住所": "愛知県小牧市多気西町134-1",
        "指定緊急避難場所との住所同一": "",
        "その他市町村長が必要と認める事項": null,
        "受入対象者": null,
        "備考": ""
      }
    },
    {
      "type": "Feature",
      "geometry": {
        "type": "Point",
        "coordinates": [
          137.006222,
          35.308314
        ]
      },
      "properties": {
        "NO": 44297,
        "共通ID": "E2321900116111",
        "都道府県名及び市町村名": "愛知県小牧市",
        "施設・場所名": "リサイクルプラザ",
        "住所": "愛知県小牧市大草5786-83",
        "指定緊急避難場所との住所同一": "",
        "その他市町村長が必要と認める事項": null,
        "受入対象者": null,
        "備考": ""
      }
    },
    {
      "type": "Feature",
      "geometry": {
        "type": "Point",
        "coordinates": [
          137.008631,
          35.3061
        ]
      },
      "properties": {
        "NO": 44298,
        "共通ID": "E2321900117111",
        "都道府県名及び市町村名": "愛知県小牧市",
        "施設・場所名": "小牧ケ丘老人憩の家",
        "住所": "愛知県小牧市大草5962-3",
        "指定緊急避難場所との住所同一": "",
        "その他市町村長が必要と認める事項": "",
        "受入対象者": "",
        "備考": ""
      }
    },
    {
      "type": "Feature",
      "geometry": {
        "type": "Point",
        "coordinates": [
          136.992643,
          35.28955
        ]
      },
      "properties": {
        "NO": 44299,
        "共通ID": "E2321900118111",
        "都道府県名及び市町村名": "愛知県小牧市",
        "施設・場所名": "大草会館",
        "住所": "愛知県小牧市大草中27",
        "指定緊急避難場所との住所同一": "",
        "その他市町村長が必要と認める事項": null,
        "受入対象者": null,
        "備考": ""
      }
    },
    {
      "type": "Feature",
      "geometry": {
        "type": "Point",
        "coordinates": [
          136.975217,
          35.312113
        ]
      },
      "properties": {
        "NO": 44300,
        "共通ID": "E2321900119111",
        "都道府県名及び市町村名": "愛知県小牧市",
        "施設・場所名": "池之内会館",
        "住所": "愛知県小牧市池之内774",
        "指定緊急避難場所との住所同一": "",
        "その他市町村長が必要と認める事項": null,
        "受入対象者": null,
        "備考": ""
      }
    },
    {
      "type": "Feature",
      "geometry": {
        "type": "Point",
        "coordinates": [
          136.928221,
          35.291304
        ]
      },
      "properties": {
        "NO": 44301,
        "共通ID": "E2321900120111",
        "都道府県名及び市町村名": "愛知県小牧市",
        "施設・場所名": "朝日会館",
        "住所": "愛知県小牧市中央1-128",
        "指定緊急避難場所との住所同一": "",
        "その他市町村長が必要と認める事項": null,
        "受入対象者": null,
        "備考": ""
      }
    },
    {
      "type": "Feature",
      "geometry": {
        "type": "Point",
        "coordinates": [
          136.937054,
          35.285574
        ]
      },
      "properties": {
        "NO": 44302,
        "共通ID": "E2321900121111",
        "都道府県名及び市町村名": "愛知県小牧市",
        "施設・場所名": "米野小学校",
        "住所": "愛知県小牧市中央5-339",
        "指定緊急避難場所との住所同一": "1",
        "その他市町村長が必要と認める事項": null,
        "受入対象者": null,
        "備考": ""
      }
    },
    {
      "type": "Feature",
      "geometry": {
        "type": "Point",
        "coordinates": [
          136.931701,
          35.285442
        ]
      },
      "properties": {
        "NO": 44303,
        "共通ID": "E2321900122121",
        "都道府県名及び市町村名": "愛知県小牧市",
        "施設・場所名": "あさひ学園",
        "住所": "愛知県小牧市中央6-101",
        "指定緊急避難場所との住所同一": "",
        "その他市町村長が必要と認める事項": "",
        "受入対象者": "避難行動要支援者",
        "備考": ""
      }
    },
    {
      "type": "Feature",
      "geometry": {
        "type": "Point",
        "coordinates": [
          136.931648,
          35.285733
        ]
      },
      "properties": {
        "NO": 44304,
        "共通ID": "E2321900122111",
        "都道府県名及び市町村名": "愛知県小牧市",
        "施設・場所名": "第一幼稚園",
        "住所": "愛知県小牧市中央6-101",
        "指定緊急避難場所との住所同一": "",
        "その他市町村長が必要と認める事項": null,
        "受入対象者": null,
        "備考": ""
      }
    },
    {
      "type": "Feature",
      "geometry": {
        "type": "Point",
        "coordinates": [
          136.934775,
          35.284968
        ]
      },
      "properties": {
        "NO": 44305,
        "共通ID": "E2321900123111",
        "都道府県名及び市町村名": "愛知県小牧市",
        "施設・場所名": "米野会館",
        "住所": "愛知県小牧市中央6-271",
        "指定緊急避難場所との住所同一": "",
        "その他市町村長が必要と認める事項": null,
        "受入対象者": null,
        "備考": ""
      }
    },
    {
      "type": "Feature",
      "geometry": {
        "type": "Point",
        "coordinates": [
          136.942744,
          35.280248
        ]
      },
      "properties": {
        "NO": 44306,
        "共通ID": "E2321900124111",
        "都道府県名及び市町村名": "愛知県小牧市",
        "施設・場所名": "哥津会館",
        "住所": "愛知県小牧市東3-20",
        "指定緊急避難場所との住所同一": "",
        "その他市町村長が必要と認める事項": null,
        "受入対象者": null,
        "備考": ""
      }
    },
    {
      "type": "Feature",
      "geometry": {
        "type": "Point",
        "coordinates": [
          136.926177,
          35.284685
        ]
      },
      "properties": {
        "NO": 44307,
        "共通ID": "E2321900125111",
        "都道府県名及び市町村名": "愛知県小牧市",
        "施設・場所名": "東新会館",
        "住所": "愛知県小牧市東新町184",
        "指定緊急避難場所との住所同一": "",
        "その他市町村長が必要と認める事項": null,
        "受入対象者": null,
        "備考": ""
      }
    },
    {
      "type": "Feature",
      "geometry": {
        "type": "Point",
        "coordinates": [
          136.938797,
          35.302877
        ]
      },
      "properties": {
        "NO": 44308,
        "共通ID": "E2321900126111",
        "都道府県名及び市町村名": "愛知県小牧市",
        "施設・場所名": "東田中会館",
        "住所": "愛知県小牧市東田中227",
        "指定緊急避難場所との住所同一": "",
        "その他市町村長が必要と認める事項": null,
        "受入対象者": null,
        "備考": ""
      }
    },
    {
      "type": "Feature",
      "geometry": {
        "type": "Point",
        "coordinates": [
          136.939052,
          35.300316
        ]
      },
      "properties": {
        "NO": 44309,
        "共通ID": "E2321900127111",
        "都道府県名及び市町村名": "愛知県小牧市",
        "施設・場所名": "東田中老人憩の家",
        "住所": "愛知県小牧市東田中569-1",
        "指定緊急避難場所との住所同一": "",
        "その他市町村長が必要と認める事項": null,
        "受入対象者": null,
        "備考": ""
      }
    },
    {
      "type": "Feature",
      "geometry": {
        "type": "Point",
        "coordinates": [
          136.978865,
          35.298291
        ]
      },
      "properties": {
        "NO": 44310,
        "共通ID": "E2321900128111",
        "都道府県名及び市町村名": "愛知県小牧市",
        "施設・場所名": "桃ケ丘会館",
        "住所": "愛知県小牧市桃ケ丘1-47-1",
        "指定緊急避難場所との住所同一": "",
        "その他市町村長が必要と認める事項": null,
        "受入対象者": null,
        "備考": ""
      }
    },
    {
      "type": "Feature",
      "geometry": {
        "type": "Point",
        "coordinates": [
          136.979162,
          35.29727
        ]
      },
      "properties": {
        "NO": 44311,
        "共通ID": "E2321900129111",
        "都道府県名及び市町村名": "愛知県小牧市",
        "施設・場所名": "桃陵中学校",
        "住所": "愛知県小牧市桃ケ丘2-1",
        "指定緊急避難場所との住所同一": "1",
        "その他市町村長が必要と認める事項": "",
        "受入対象者": "",
        "備考": ""
      }
    },
    {
      "type": "Feature",
      "geometry": {
        "type": "Point",
        "coordinates": [
          136.977404,
          35.29806
        ]
      },
      "properties": {
        "NO": 44312,
        "共通ID": "E2321900130111",
        "都道府県名及び市町村名": "愛知県小牧市",
        "施設・場所名": "桃ケ丘小学校",
        "住所": "愛知県小牧市桃ケ丘2-3",
        "指定緊急避難場所との住所同一": "1",
        "その他市町村長が必要と認める事項": null,
        "受入対象者": null,
        "備考": ""
      }
    },
    {
      "type": "Feature",
      "geometry": {
        "type": "Point",
        "coordinates": [
          136.885799,
          35.271396
        ]
      },
      "properties": {
        "NO": 44313,
        "共通ID": "E2321900131111",
        "都道府県名及び市町村名": "愛知県小牧市",
        "施設・場所名": "藤島団地会館",
        "住所": "愛知県小牧市藤島1-79",
        "指定緊急避難場所との住所同一": "",
        "その他市町村長が必要と認める事項": null,
        "受入対象者": null,
        "備考": ""
      }
    },
    {
      "type": "Feature",
      "geometry": {
        "type": "Point",
        "coordinates": [
          136.884135,
          35.266829
        ]
      },
      "properties": {
        "NO": 44314,
        "共通ID": "E2321900132111",
        "都道府県名及び市町村名": "愛知県小牧市",
        "施設・場所名": "藤島会館",
        "住所": "愛知県小牧市藤島町居屋敷186",
        "指定緊急避難場所との住所同一": "",
        "その他市町村長が必要と認める事項": null,
        "受入対象者": null,
        "備考": ""
      }
    },
    {
      "type": "Feature",
      "geometry": {
        "type": "Point",
        "coordinates": [
          136.890259,
          35.270568
        ]
      },
      "properties": {
        "NO": 44315,
        "共通ID": "E2321900133111",
        "都道府県名及び市町村名": "愛知県小牧市",
        "施設・場所名": "梵天藤栄会館",
        "住所": "愛知県小牧市藤島町梵天110-2",
        "指定緊急避難場所との住所同一": "",
        "その他市町村長が必要と認める事項": null,
        "受入対象者": null,
        "備考": ""
      }
    },
    {
      "type": "Feature",
      "geometry": {
        "type": "Point",
        "coordinates": [
          136.891966,
          35.269034
        ]
      },
      "properties": {
        "NO": 44316,
        "共通ID": "E2321900134111",
        "都道府県名及び市町村名": "愛知県小牧市",
        "施設・場所名": "藤島保育園",
        "住所": "愛知県小牧市藤島町梵天110-35",
        "指定緊急避難場所との住所同一": "",
        "その他市町村長が必要と認める事項": null,
        "受入対象者": null,
        "備考": ""
      }
    },
    {
      "type": "Feature",
      "geometry": {
        "type": "Point",
        "coordinates": [
          136.926695,
          35.269864
        ]
      },
      "properties": {
        "NO": 44317,
        "共通ID": "E2321900135111",
        "都道府県名及び市町村名": "愛知県小牧市",
        "施設・場所名": "南外山会館",
        "住所": "愛知県小牧市南外山259-2",
        "指定緊急避難場所との住所同一": "",
        "その他市町村長が必要と認める事項": null,
        "受入対象者": null,
        "備考": ""
      }
    },
    {
      "type": "Feature",
      "geometry": {
        "type": "Point",
        "coordinates": [
          136.938124,
          35.291902
        ]
      },
      "properties": {
        "NO": 44318,
        "共通ID": "E2321900136111",
        "都道府県名及び市町村名": "愛知県小牧市",
        "施設・場所名": "二重堀会館",
        "住所": "愛知県小牧市二重堀491-1",
        "指定緊急避難場所との住所同一": "",
        "その他市町村長が必要と認める事項": null,
        "受入対象者": null,
        "備考": ""
      }
    },
    {
      "type": "Feature",
      "geometry": {
        "type": "Point",
        "coordinates": [
          136.904992,
          35.30897
        ]
      },
      "properties": {
        "NO": 44319,
        "共通ID": "E2321900137111",
        "都道府県名及び市町村名": "愛知県小牧市",
        "施設・場所名": "入鹿会館",
        "住所": "愛知県小牧市入鹿出新田483",
        "指定緊急避難場所との住所同一": "",
        "その他市町村長が必要と認める事項": null,
        "受入対象者": null,
        "備考": ""
      }
    },
    {
      "type": "Feature",
      "geometry": {
        "type": "Point",
        "coordinates": [
          136.946462,
          35.306123
        ]
      },
      "properties": {
        "NO": 44320,
        "共通ID": "E2321900138111",
        "都道府県名及び市町村名": "愛知県小牧市",
        "施設・場所名": "文津会館",
        "住所": "愛知県小牧市文津801-1",
        "指定緊急避難場所との住所同一": "",
        "その他市町村長が必要と認める事項": null,
        "受入対象者": null,
        "備考": ""
      }
    },
    {
      "type": "Feature",
      "geometry": {
        "type": "Point",
        "coordinates": [
          136.92874,
          35.274882
        ]
      },
      "properties": {
        "NO": 44321,
        "共通ID": "E2321900139111",
        "都道府県名及び市町村名": "愛知県小牧市",
        "施設・場所名": "南部コミュニティセンター",
        "住所": "愛知県小牧市北外山1187",
        "指定緊急避難場所との住所同一": "",
        "その他市町村長が必要と認める事項": null,
        "受入対象者": null,
        "備考": ""
      }
    },
    {
      "type": "Feature",
      "geometry": {
        "type": "Point",
        "coordinates": [
          136.927213,
          35.274104
        ]
      },
      "properties": {
        "NO": 44322,
        "共通ID": "E2321900140111",
        "都道府県名及び市町村名": "愛知県小牧市",
        "施設・場所名": "北外山会館",
        "住所": "愛知県小牧市北外山1337",
        "指定緊急避難場所との住所同一": "",
        "その他市町村長が必要と認める事項": null,
        "受入対象者": null,
        "備考": ""
      }
    },
    {
      "type": "Feature",
      "geometry": {
        "type": "Point",
        "coordinates": [
          136.928763,
          35.282512
        ]
      },
      "properties": {
        "NO": 44323,
        "共通ID": "E2321900141111",
        "都道府県名及び市町村名": "愛知県小牧市",
        "施設・場所名": "みどり台会館",
        "住所": "愛知県小牧市北外山1962-89",
        "指定緊急避難場所との住所同一": "",
        "その他市町村長が必要と認める事項": null,
        "受入対象者": null,
        "備考": ""
      }
    },
    {
      "type": "Feature",
      "geometry": {
        "type": "Point",
        "coordinates": [
          136.924046,
          35.284491
        ]
      },
      "properties": {
        "NO": 44324,
        "共通ID": "E2321900142111",
        "都道府県名及び市町村名": "愛知県小牧市",
        "施設・場所名": "桜井会館",
        "住所": "愛知県小牧市北外山610",
        "指定緊急避難場所との住所同一": "",
        "その他市町村長が必要と認める事項": null,
        "受入対象者": null,
        "備考": ""
      }
    },
    {
      "type": "Feature",
      "geometry": {
        "type": "Point",
        "coordinates": [
          136.907666,
          35.291128
        ]
      },
      "properties": {
        "NO": 44325,
        "共通ID": "E2321900144111",
        "都道府県名及び市町村名": "愛知県小牧市",
        "施設・場所名": "堀の内会館",
        "住所": "愛知県小牧市堀の内2-109",
        "指定緊急避難場所との住所同一": "",
        "その他市町村長が必要と認める事項": null,
        "受入対象者": null,
        "備考": ""
      }
    },
    {
      "type": "Feature",
      "geometry": {
        "type": "Point",
        "coordinates": [
          136.911986,
          35.287484
        ]
      },
      "properties": {
        "NO": 44326,
        "共通ID": "E2321900145111",
        "都道府県名及び市町村名": "愛知県小牧市",
        "施設・場所名": "小牧中学校",
        "住所": "愛知県小牧市堀の内4-30",
        "指定緊急避難場所との住所同一": "1",
        "その他市町村長が必要と認める事項": "",
        "受入対象者": "",
        "備考": ""
      }
    },
    {
      "type": "Feature",
      "geometry": {
        "type": "Point",
        "coordinates": [
          136.956749,
          35.307734
        ]
      },
      "properties": {
        "NO": 44327,
        "共通ID": "E2321900146111",
        "都道府県名及び市町村名": "愛知県小牧市",
        "施設・場所名": "本庄会館",
        "住所": "愛知県小牧市本庄2112-1",
        "指定緊急避難場所との住所同一": "",
        "その他市町村長が必要と認める事項": null,
        "受入対象者": null,
        "備考": ""
      }
    },
    {
      "type": "Feature",
      "geometry": {
        "type": "Point",
        "coordinates": [
          136.954046,
          35.310526
        ]
      },
      "properties": {
        "NO": 44328,
        "共通ID": "E2321900147111",
        "都道府県名及び市町村名": "愛知県小牧市",
        "施設・場所名": "タウン本庄会館",
        "住所": "愛知県小牧市本庄2588-214",
        "指定緊急避難場所との住所同一": "",
        "その他市町村長が必要と認める事項": null,
        "受入対象者": null,
        "備考": ""
      }
    },
    {
      "type": "Feature",
      "geometry": {
        "type": "Point",
        "coordinates": [
          136.953269,
          35.31208
        ]
      },
      "properties": {
        "NO": 44329,
        "共通ID": "E2321900148111",
        "都道府県名及び市町村名": "愛知県小牧市",
        "施設・場所名": "本庄小学校",
        "住所": "愛知県小牧市本庄2597-40",
        "指定緊急避難場所との住所同一": "1",
        "その他市町村長が必要と認める事項": null,
        "受入対象者": null,
        "備考": ""
      }
    },
    {
      "type": "Feature",
      "geometry": {
        "type": "Point",
        "coordinates": [
          136.951964,
          35.312163
        ]
      },
      "properties": {
        "NO": 44330,
        "共通ID": "E2321900149111",
        "都道府県名及び市町村名": "愛知県小牧市",
        "施設・場所名": "本庄保育園",
        "住所": "愛知県小牧市本庄2597-433",
        "指定緊急避難場所との住所同一": "",
        "その他市町村長が必要と認める事項": null,
        "受入対象者": null,
        "備考": ""
      }
    },
    {
      "type": "Feature",
      "geometry": {
        "type": "Point",
        "coordinates": [
          136.961401,
          35.311646
        ]
      },
      "properties": {
        "NO": 44331,
        "共通ID": "E2321900150111",
        "都道府県名及び市町村名": "愛知県小牧市",
        "施設・場所名": "本庄台老人憩の家",
        "住所": "愛知県小牧市本庄2613-304",
        "指定緊急避難場所との住所同一": "",
        "その他市町村長が必要と認める事項": null,
        "受入対象者": null,
        "備考": ""
      }
    },
    {
      "type": "Feature",
      "geometry": {
        "type": "Point",
        "coordinates": [
          136.992592,
          35.318179
        ]
      },
      "properties": {
        "NO": 44332,
        "共通ID": "E2321900151121",
        "都道府県名及び市町村名": "愛知県小牧市",
        "施設・場所名": "第１老人福祉センター",
        "住所": "愛知県小牧市野口2426-1",
        "指定緊急避難場所との住所同一": "",
        "その他市町村長が必要と認める事項": null,
        "受入対象者": "避難行動要支援者",
        "備考": ""
      }
    },
    {
      "type": "Feature",
      "geometry": {
        "type": "Point",
        "coordinates": [
          136.990343,
          35.313726
        ]
      },
      "properties": {
        "NO": 44333,
        "共通ID": "E2321900152111",
        "都道府県名及び市町村名": "愛知県小牧市",
        "施設・場所名": "野口会館",
        "住所": "愛知県小牧市野口柿花73",
        "指定緊急避難場所との住所同一": "",
        "その他市町村長が必要と認める事項": null,
        "受入対象者": null,
        "備考": ""
      }
    },
    {
      "type": "Feature",
      "geometry": {
        "type": "Point",
        "coordinates": [
          136.981512,
          35.316164
        ]
      },
      "properties": {
        "NO": 44334,
        "共通ID": "E2321900153111",
        "都道府県名及び市町村名": "愛知県小牧市",
        "施設・場所名": "林会館",
        "住所": "愛知県小牧市林北101-4",
        "指定緊急避難場所との住所同一": "",
        "その他市町村長が必要と認める事項": null,
        "受入対象者": null,
        "備考": ""
      }
    }
  ]
}