{
  "type": "FeatureCollection",
  "name": "232289",
  "features": [
    {
      "type": "Feature",
      "geometry": {
        "type": "Point",
        "coordinates": [
          136.871232,
          35.27679
        ]
      },
      "properties": {
        "NO": 44592,
        "共通ID": "E2322800001111",
        "都道府県名及び市町村名": "愛知県岩倉市",
        "施設・場所名": "保健センター",
        "住所": "愛知県岩倉市旭町1-20",
        "指定緊急避難場所との住所同一": "1",
        "その他市町村長が必要と認める事項": null,
        "受入対象者": null,
        "備考": ""
      }
    },
    {
      "type": "Feature",
      "geometry": {
        "type": "Point",
        "coordinates": [
          136.876426,
          35.299036
        ]
      },
      "properties": {
        "NO": 44593,
        "共通ID": "E2322800002111",
        "都道府県名及び市町村名": "愛知県岩倉市",
        "施設・場所名": "井上会館",
        "住所": "愛知県岩倉市井上町東畑田156-1",
        "指定緊急避難場所との住所同一": "1",
        "その他市町村長が必要と認める事項": null,
        "受入対象者": null,
        "備考": ""
      }
    },
    {
      "type": "Feature",
      "geometry": {
        "type": "Point",
        "coordinates": [
          136.871517,
          35.268758
        ]
      },
      "properties": {
        "NO": 44594,
        "共通ID": "E2322800004111",
        "都道府県名及び市町村名": "愛知県岩倉市",
        "施設・場所名": "第四児童館",
        "住所": "愛知県岩倉市稲荷町羽根24-3",
        "指定緊急避難場所との住所同一": "1",
        "その他市町村長が必要と認める事項": null,
        "受入対象者": null,
        "備考": ""
      }
    },
    {
      "type": "Feature",
      "geometry": {
        "type": "Point",
        "coordinates": [
          136.871441,
          35.279436
        ]
      },
      "properties": {
        "NO": 44595,
        "共通ID": "E2322800005111",
        "都道府県名及び市町村名": "愛知県岩倉市",
        "施設・場所名": "岩倉市役所",
        "住所": "愛知県岩倉市栄町1-66",
        "指定緊急避難場所との住所同一": "1",
        "その他市町村長が必要と認める事項": null,
        "受入対象者": null,
        "備考": ""
      }
    },
    {
      "type": "Feature",
      "geometry": {
        "type": "Point",
        "coordinates": [
          136.877024,
          35.278181
        ]
      },
      "properties": {
        "NO": 44596,
        "共通ID": "E2322800007111",
        "都道府県名及び市町村名": "愛知県岩倉市",
        "施設・場所名": "第三児童館",
        "住所": "愛知県岩倉市下本町下市場27",
        "指定緊急避難場所との住所同一": "",
        "その他市町村長が必要と認める事項": null,
        "受入対象者": null,
        "備考": ""
      }
    },
    {
      "type": "Feature",
      "geometry": {
        "type": "Point",
        "coordinates": [
          136.875389,
          35.273645
        ]
      },
      "properties": {
        "NO": 44597,
        "共通ID": "E2322800009121",
        "都道府県名及び市町村名": "愛知県岩倉市",
        "施設・場所名": "下寺保育園",
        "住所": "愛知県岩倉市下本町下寺廻107-1",
        "指定緊急避難場所との住所同一": "1",
        "その他市町村長が必要と認める事項": "左記のうち、避難生活において何らかの特別な配慮が必要であり、避難所での共同生活が困難な方",
        "受入対象者": "要配慮者（乳幼児、妊産婦）",
        "備考": ""
      }
    },
    {
      "type": "Feature",
      "geometry": {
        "type": "Point",
        "coordinates": [
          136.871021,
          35.283551
        ]
      },
      "properties": {
        "NO": 44598,
        "共通ID": "E2322800010111",
        "都道府県名及び市町村名": "愛知県岩倉市",
        "施設・場所名": "大上市場会館",
        "住所": "愛知県岩倉市宮前町1-2",
        "指定緊急避難場所との住所同一": "1",
        "その他市町村長が必要と認める事項": null,
        "受入対象者": null,
        "備考": ""
      }
    },
    {
      "type": "Feature",
      "geometry": {
        "type": "Point",
        "coordinates": [
          136.873793,
          35.273712
        ]
      },
      "properties": {
        "NO": 44599,
        "共通ID": "E2322800013111",
        "都道府県名及び市町村名": "愛知県岩倉市",
        "施設・場所名": "市民プラザ",
        "住所": "愛知県岩倉市昭和町2-17",
        "指定緊急避難場所との住所同一": "1",
        "その他市町村長が必要と認める事項": null,
        "受入対象者": null,
        "備考": ""
      }
    },
    {
      "type": "Feature",
      "geometry": {
        "type": "Point",
        "coordinates": [
          136.873547,
          35.273847
        ]
      },
      "properties": {
        "NO": 44600,
        "共通ID": "E2322800013112",
        "都道府県名及び市町村名": "愛知県岩倉市",
        "施設・場所名": "図書館",
        "住所": "愛知県岩倉市昭和町2-17",
        "指定緊急避難場所との住所同一": "1",
        "その他市町村長が必要と認める事項": null,
        "受入対象者": null,
        "備考": ""
      }
    },
    {
      "type": "Feature",
      "geometry": {
        "type": "Point",
        "coordinates": [
          136.874072,
          35.29525
        ]
      },
      "properties": {
        "NO": 44601,
        "共通ID": "E2322800015111",
        "都道府県名及び市町村名": "愛知県岩倉市",
        "施設・場所名": "五条川小学校",
        "住所": "愛知県岩倉市神野町郷浦18",
        "指定緊急避難場所との住所同一": "1",
        "その他市町村長が必要と認める事項": null,
        "受入対象者": null,
        "備考": ""
      }
    },
    {
      "type": "Feature",
      "geometry": {
        "type": "Point",
        "coordinates": [
          136.874699,
          35.295257
        ]
      },
      "properties": {
        "NO": 44602,
        "共通ID": "E2322800015121",
        "都道府県名及び市町村名": "愛知県岩倉市",
        "施設・場所名": "五条川小学校放課後児童クラブ施設",
        "住所": "愛知県岩倉市神野町郷浦18",
        "指定緊急避難場所との住所同一": "1",
        "その他市町村長が必要と認める事項": "左記のうち、避難生活において何らかの特別な配慮が必要であり、避難所での共同生活が困難な方",
        "受入対象者": "要配慮者（乳幼児、妊産婦）",
        "備考": ""
      }
    },
    {
      "type": "Feature",
      "geometry": {
        "type": "Point",
        "coordinates": [
          136.873,
          35.291762
        ]
      },
      "properties": {
        "NO": 44603,
        "共通ID": "E2322800016111",
        "都道府県名及び市町村名": "愛知県岩倉市",
        "施設・場所名": "神野会館",
        "住所": "愛知県岩倉市神野町平久田41",
        "指定緊急避難場所との住所同一": "1",
        "その他市町村長が必要と認める事項": null,
        "受入対象者": null,
        "備考": ""
      }
    },
    {
      "type": "Feature",
      "geometry": {
        "type": "Point",
        "coordinates": [
          136.862909,
          35.281234
        ]
      },
      "properties": {
        "NO": 44604,
        "共通ID": "E2322800017111",
        "都道府県名及び市町村名": "愛知県岩倉市",
        "施設・場所名": "岩倉中学校",
        "住所": "愛知県岩倉市西市町竹之宮24",
        "指定緊急避難場所との住所同一": "1",
        "その他市町村長が必要と認める事項": null,
        "受入対象者": null,
        "備考": ""
      }
    },
    {
      "type": "Feature",
      "geometry": {
        "type": "Point",
        "coordinates": [
          136.865716,
          35.281056
        ]
      },
      "properties": {
        "NO": 44605,
        "共通ID": "E2322800018111",
        "都道府県名及び市町村名": "愛知県岩倉市",
        "施設・場所名": "ふれあいセンター",
        "住所": "愛知県岩倉市西市町無量寺2-1",
        "指定緊急避難場所との住所同一": "1",
        "その他市町村長が必要と認める事項": null,
        "受入対象者": null,
        "備考": ""
      }
    },
    {
      "type": "Feature",
      "geometry": {
        "type": "Point",
        "coordinates": [
          136.870643,
          35.294518
        ]
      },
      "properties": {
        "NO": 44606,
        "共通ID": "E2322800020111",
        "都道府県名及び市町村名": "愛知県岩倉市",
        "施設・場所名": "石仏会館",
        "住所": "愛知県岩倉市石仏町中屋敷597-1",
        "指定緊急避難場所との住所同一": "1",
        "その他市町村長が必要と認める事項": null,
        "受入対象者": null,
        "備考": ""
      }
    },
    {
      "type": "Feature",
      "geometry": {
        "type": "Point",
        "coordinates": [
          136.863741,
          35.264031
        ]
      },
      "properties": {
        "NO": 44607,
        "共通ID": "E2322800022111",
        "都道府県名及び市町村名": "愛知県岩倉市",
        "施設・場所名": "川井町公会堂",
        "住所": "愛知県岩倉市川井町井上1308",
        "指定緊急避難場所との住所同一": "",
        "その他市町村長が必要と認める事項": "",
        "受入対象者": "",
        "備考": ""
      }
    },
    {
      "type": "Feature",
      "geometry": {
        "type": "Point",
        "coordinates": [
          136.867211,
          35.285643
        ]
      },
      "properties": {
        "NO": 44608,
        "共通ID": "E2322800024111",
        "都道府県名及び市町村名": "愛知県岩倉市",
        "施設・場所名": "泉会館",
        "住所": "愛知県岩倉市泉町西新溝廻間1-7",
        "指定緊急避難場所との住所同一": "1",
        "その他市町村長が必要と認める事項": null,
        "受入対象者": null,
        "備考": ""
      }
    },
    {
      "type": "Feature",
      "geometry": {
        "type": "Point",
        "coordinates": [
          136.879955,
          35.267433
        ]
      },
      "properties": {
        "NO": 44609,
        "共通ID": "E2322800025111",
        "都道府県名及び市町村名": "愛知県岩倉市",
        "施設・場所名": "曽野小学校",
        "住所": "愛知県岩倉市曽野町井森1",
        "指定緊急避難場所との住所同一": "1",
        "その他市町村長が必要と認める事項": null,
        "受入対象者": null,
        "備考": ""
      }
    },
    {
      "type": "Feature",
      "geometry": {
        "type": "Point",
        "coordinates": [
          136.879199,
          35.269652
        ]
      },
      "properties": {
        "NO": 44610,
        "共通ID": "E2322800026111",
        "都道府県名及び市町村名": "愛知県岩倉市",
        "施設・場所名": "曽野町公会堂",
        "住所": "愛知県岩倉市曽野町宮前1",
        "指定緊急避難場所との住所同一": "1",
        "その他市町村長が必要と認める事項": null,
        "受入対象者": null,
        "備考": ""
      }
    },
    {
      "type": "Feature",
      "geometry": {
        "type": "Point",
        "coordinates": [
          136.878328,
          35.268925
        ]
      },
      "properties": {
        "NO": 44611,
        "共通ID": "E2322800027121",
        "都道府県名及び市町村名": "愛知県岩倉市",
        "施設・場所名": "医療法人ようてい会るるどの泉",
        "住所": "愛知県岩倉市曽野町郷前3",
        "指定緊急避難場所との住所同一": "",
        "その他市町村長が必要と認める事項": "左記のうち、避難生活において何らかの特別な配慮が必要であり、避難所での共同生活が困難な方",
        "受入対象者": "要配慮者（高齢者）",
        "備考": ""
      }
    },
    {
      "type": "Feature",
      "geometry": {
        "type": "Point",
        "coordinates": [
          136.882652,
          35.270957
        ]
      },
      "properties": {
        "NO": 44612,
        "共通ID": "E2322800028111",
        "都道府県名及び市町村名": "愛知県岩倉市",
        "施設・場所名": "岩倉南部中学校",
        "住所": "愛知県岩倉市曽野町江毛1",
        "指定緊急避難場所との住所同一": "1",
        "その他市町村長が必要と認める事項": null,
        "受入対象者": null,
        "備考": ""
      }
    },
    {
      "type": "Feature",
      "geometry": {
        "type": "Point",
        "coordinates": [
          136.872116,
          35.265286
        ]
      },
      "properties": {
        "NO": 44613,
        "共通ID": "E2322800030111",
        "都道府県名及び市町村名": "愛知県岩倉市",
        "施設・場所名": "防災コミュニティセンター",
        "住所": "愛知県岩倉市大山寺元町8-7",
        "指定緊急避難場所との住所同一": "1",
        "その他市町村長が必要と認める事項": null,
        "受入対象者": null,
        "備考": ""
      }
    },
    {
      "type": "Feature",
      "geometry": {
        "type": "Point",
        "coordinates": [
          136.880085,
          35.27384
        ]
      },
      "properties": {
        "NO": 44614,
        "共通ID": "E2322800031111",
        "都道府県名及び市町村名": "愛知県岩倉市",
        "施設・場所名": "大市場町公会堂",
        "住所": "愛知県岩倉市大市場町郷廻184-3",
        "指定緊急避難場所との住所同一": "1",
        "その他市町村長が必要と認める事項": null,
        "受入対象者": null,
        "備考": ""
      }
    },
    {
      "type": "Feature",
      "geometry": {
        "type": "Point",
        "coordinates": [
          136.868171,
          35.271903
        ]
      },
      "properties": {
        "NO": 44615,
        "共通ID": "E2322800032111",
        "都道府県名及び市町村名": "愛知県岩倉市",
        "施設・場所名": "南部老人憩の家",
        "住所": "愛知県岩倉市大地町郷前32",
        "指定緊急避難場所との住所同一": "1",
        "その他市町村長が必要と認める事項": null,
        "受入対象者": null,
        "備考": ""
      }
    },
    {
      "type": "Feature",
      "geometry": {
        "type": "Point",
        "coordinates": [
          136.866581,
          35.27333
        ]
      },
      "properties": {
        "NO": 44616,
        "共通ID": "E2322800033121",
        "都道府県名及び市町村名": "愛知県岩倉市",
        "施設・場所名": "南部保育園",
        "住所": "愛知県岩倉市大地町小森5",
        "指定緊急避難場所との住所同一": "1",
        "その他市町村長が必要と認める事項": "左記のうち、避難生活において何らかの特別な配慮が必要であり、避難所での共同生活が困難な方",
        "受入対象者": "要配慮者（乳幼児、妊産婦）",
        "備考": ""
      }
    },
    {
      "type": "Feature",
      "geometry": {
        "type": "Point",
        "coordinates": [
          136.866135,
          35.273001
        ]
      },
      "properties": {
        "NO": 44617,
        "共通ID": "E2322800034111",
        "都道府県名及び市町村名": "愛知県岩倉市",
        "施設・場所名": "岩倉南小学校",
        "住所": "愛知県岩倉市大地町小森93-1",
        "指定緊急避難場所との住所同一": "1",
        "その他市町村長が必要と認める事項": null,
        "受入対象者": null,
        "備考": ""
      }
    },
    {
      "type": "Feature",
      "geometry": {
        "type": "Point",
        "coordinates": [
          136.867609,
          35.277877
        ]
      },
      "properties": {
        "NO": 44618,
        "共通ID": "E2322800036111",
        "都道府県名及び市町村名": "愛知県岩倉市",
        "施設・場所名": "みどりの家（地域交流センター）",
        "住所": "愛知県岩倉市中央町2-20",
        "指定緊急避難場所との住所同一": "1",
        "その他市町村長が必要と認める事項": null,
        "受入対象者": null,
        "備考": ""
      }
    },
    {
      "type": "Feature",
      "geometry": {
        "type": "Point",
        "coordinates": [
          136.875068,
          35.281674
        ]
      },
      "properties": {
        "NO": 44619,
        "共通ID": "E2322800038111",
        "都道府県名及び市町村名": "愛知県岩倉市",
        "施設・場所名": "くすのきの家（地域交流センター）",
        "住所": "愛知県岩倉市中本町西出口15-1",
        "指定緊急避難場所との住所同一": "1",
        "その他市町村長が必要と認める事項": null,
        "受入対象者": null,
        "備考": ""
      }
    },
    {
      "type": "Feature",
      "geometry": {
        "type": "Point",
        "coordinates": [
          136.883859,
          35.280785
        ]
      },
      "properties": {
        "NO": 44620,
        "共通ID": "E2322800040111",
        "都道府県名及び市町村名": "愛知県岩倉市",
        "施設・場所名": "東新町公会堂",
        "住所": "愛知県岩倉市東新町釜之口1-1",
        "指定緊急避難場所との住所同一": "",
        "その他市町村長が必要と認める事項": null,
        "受入対象者": null,
        "備考": ""
      }
    },
    {
      "type": "Feature",
      "geometry": {
        "type": "Point",
        "coordinates": [
          136.883952,
          35.281079
        ]
      },
      "properties": {
        "NO": 44621,
        "共通ID": "E2322800041121",
        "都道府県名及び市町村名": "愛知県岩倉市",
        "施設・場所名": "ポプラの家（地域交流センター）",
        "住所": "愛知県岩倉市東新町南江向24-5",
        "指定緊急避難場所との住所同一": "",
        "その他市町村長が必要と認める事項": "左記のうち、避難生活において何らかの特別な配慮が必要であり、避難所での共同生活が困難な方",
        "受入対象者": "要配慮者（乳幼児、妊産婦）",
        "備考": ""
      }
    },
    {
      "type": "Feature",
      "geometry": {
        "type": "Point",
        "coordinates": [
          136.883763,
          35.2851
        ]
      },
      "properties": {
        "NO": 44622,
        "共通ID": "E2322800042111",
        "都道府県名及び市町村名": "愛知県岩倉市",
        "施設・場所名": "岩倉東小学校",
        "住所": "愛知県岩倉市東町掛目1",
        "指定緊急避難場所との住所同一": "1",
        "その他市町村長が必要と認める事項": null,
        "受入対象者": null,
        "備考": ""
      }
    },
    {
      "type": "Feature",
      "geometry": {
        "type": "Point",
        "coordinates": [
          136.881712,
          35.285871
        ]
      },
      "properties": {
        "NO": 44623,
        "共通ID": "E2322800043121",
        "都道府県名及び市町村名": "愛知県岩倉市",
        "施設・場所名": "あゆみの家（子ども発達支援施設）",
        "住所": "愛知県岩倉市東町仙奈158",
        "指定緊急避難場所との住所同一": "",
        "その他市町村長が必要と認める事項": "左記のうち、避難生活において何らかの特別な配慮が必要であり、避難所での共同生活が困難な方",
        "受入対象者": "要配慮者（障がい児）",
        "備考": ""
      }
    },
    {
      "type": "Feature",
      "geometry": {
        "type": "Point",
        "coordinates": [
          136.882221,
          35.28612
        ]
      },
      "properties": {
        "NO": 44624,
        "共通ID": "E2322800044122",
        "都道府県名及び市町村名": "愛知県岩倉市",
        "施設・場所名": "岩倉福祉会　第２みのりの里",
        "住所": "愛知県岩倉市東町仙奈170",
        "指定緊急避難場所との住所同一": "",
        "その他市町村長が必要と認める事項": "",
        "受入対象者": "要配慮者（障がい児、障がい者）",
        "備考": ""
      }
    },
    {
      "type": "Feature",
      "geometry": {
        "type": "Point",
        "coordinates": [
          136.881044,
          35.286146
        ]
      },
      "properties": {
        "NO": 44625,
        "共通ID": "E2322800045121",
        "都道府県名及び市町村名": "愛知県岩倉市",
        "施設・場所名": "いわくら福祉会第１みのりの里",
        "住所": "愛知県岩倉市東町仙奈180",
        "指定緊急避難場所との住所同一": "",
        "その他市町村長が必要と認める事項": "左記のうち、避難生活において何らかの特別な配慮が必要であり、避難所での共同生活が困難な方",
        "受入対象者": "要配慮者（障がい児、障がい者）",
        "備考": ""
      }
    },
    {
      "type": "Feature",
      "geometry": {
        "type": "Point",
        "coordinates": [
          136.876946,
          35.284215
        ]
      },
      "properties": {
        "NO": 44626,
        "共通ID": "E2322800046111",
        "都道府県名及び市町村名": "愛知県岩倉市",
        "施設・場所名": "東町会館",
        "住所": "愛知県岩倉市東町東市場屋敷351-1",
        "指定緊急避難場所との住所同一": "1",
        "その他市町村長が必要と認める事項": null,
        "受入対象者": null,
        "備考": ""
      }
    },
    {
      "type": "Feature",
      "geometry": {
        "type": "Point",
        "coordinates": [
          136.872185,
          35.288971
        ]
      },
      "properties": {
        "NO": 44627,
        "共通ID": "E2322800048111",
        "都道府県名及び市町村名": "愛知県岩倉市",
        "施設・場所名": "中野会館",
        "住所": "愛知県岩倉市東町馬出58-2",
        "指定緊急避難場所との住所同一": "1",
        "その他市町村長が必要と認める事項": null,
        "受入対象者": null,
        "備考": ""
      }
    },
    {
      "type": "Feature",
      "geometry": {
        "type": "Point",
        "coordinates": [
          136.875852,
          35.287526
        ]
      },
      "properties": {
        "NO": 44628,
        "共通ID": "E2322800050121",
        "都道府県名及び市町村名": "愛知県岩倉市",
        "施設・場所名": "さくらの家（多世代交流センター）",
        "住所": "愛知県岩倉市八剱町下池田806-1",
        "指定緊急避難場所との住所同一": "1",
        "その他市町村長が必要と認める事項": "左記のうち、避難生活において何らかの特別な配慮が必要であり、避難所での共同生活が困難な方",
        "受入対象者": "（水害時）　一般避難所として開設 （地震時） 　要配慮者（高齢者）",
        "備考": ""
      }
    },
    {
      "type": "Feature",
      "geometry": {
        "type": "Point",
        "coordinates": [
          136.875946,
          35.287473
        ]
      },
      "properties": {
        "NO": 44629,
        "共通ID": "E2322800050111",
        "都道府県名及び市町村名": "愛知県岩倉市",
        "施設・場所名": "さくらの家（多世代交流センター）",
        "住所": "愛知県岩倉市八剱町下池田806-1",
        "指定緊急避難場所との住所同一": "1",
        "その他市町村長が必要と認める事項": "地震時は福祉避難所として使用",
        "受入対象者": null,
        "備考": ""
      }
    },
    {
      "type": "Feature",
      "geometry": {
        "type": "Point",
        "coordinates": [
          136.877083,
          35.293587
        ]
      },
      "properties": {
        "NO": 44630,
        "共通ID": "E2322800051111",
        "都道府県名及び市町村名": "愛知県岩倉市",
        "施設・場所名": "八剱会館",
        "住所": "愛知県岩倉市八剱町郷81-1",
        "指定緊急避難場所との住所同一": "1",
        "その他市町村長が必要と認める事項": null,
        "受入対象者": null,
        "備考": ""
      }
    },
    {
      "type": "Feature",
      "geometry": {
        "type": "Point",
        "coordinates": [
          136.848849,
          35.273625
        ]
      },
      "properties": {
        "NO": 44631,
        "共通ID": "E2322800053111",
        "都道府県名及び市町村名": "愛知県岩倉市",
        "施設・場所名": "北島町公会堂",
        "住所": "愛知県岩倉市北島町宮東1297",
        "指定緊急避難場所との住所同一": "1",
        "その他市町村長が必要と認める事項": null,
        "受入対象者": null,
        "備考": ""
      }
    },
    {
      "type": "Feature",
      "geometry": {
        "type": "Point",
        "coordinates": [
          136.85591,
          35.277835
        ]
      },
      "properties": {
        "NO": 44632,
        "共通ID": "E2322800063121",
        "都道府県名及び市町村名": "愛知県岩倉市",
        "施設・場所名": "一期一会福祉会岩倉一期一会荘花むすび",
        "住所": "愛知県岩倉市北島町七反田15",
        "指定緊急避難場所との住所同一": "",
        "その他市町村長が必要と認める事項": "左記のうち、避難生活において何らかの特別な配慮が必要であり、避難所での共同生活が困難な方",
        "受入対象者": "要配慮者（高齢者）",
        "備考": ""
      }
    },
    {
      "type": "Feature",
      "geometry": {
        "type": "Point",
        "coordinates": [
          136.854101,
          35.278086
        ]
      },
      "properties": {
        "NO": 44633,
        "共通ID": "E2322800054111",
        "都道府県名及び市町村名": "愛知県岩倉市",
        "施設・場所名": "岩倉総合高等学校",
        "住所": "愛知県岩倉市北島町川田1",
        "指定緊急避難場所との住所同一": "1",
        "その他市町村長が必要と認める事項": null,
        "受入対象者": null,
        "備考": ""
      }
    },
    {
      "type": "Feature",
      "geometry": {
        "type": "Point",
        "coordinates": [
          136.855717,
          35.276945
        ]
      },
      "properties": {
        "NO": 44634,
        "共通ID": "E2322800055121",
        "都道府県名及び市町村名": "愛知県岩倉市",
        "施設・場所名": "一期一会福祉会岩倉一期一会荘",
        "住所": "愛知県岩倉市北島町二本木7",
        "指定緊急避難場所との住所同一": "",
        "その他市町村長が必要と認める事項": "左記のうち、避難生活において何らかの特別な配慮が必要であり、避難所での共同生活が困難な方",
        "受入対象者": "要配慮者（高齢者）",
        "備考": ""
      }
    },
    {
      "type": "Feature",
      "geometry": {
        "type": "Point",
        "coordinates": [
          136.873151,
          35.280632
        ]
      },
      "properties": {
        "NO": 44635,
        "共通ID": "E2322800056111",
        "都道府県名及び市町村名": "愛知県岩倉市",
        "施設・場所名": "ＪＡ愛知北岩倉支店",
        "住所": "愛知県岩倉市本町神明西11",
        "指定緊急避難場所との住所同一": "",
        "その他市町村長が必要と認める事項": null,
        "受入対象者": null,
        "備考": ""
      }
    },
    {
      "type": "Feature",
      "geometry": {
        "type": "Point",
        "coordinates": [
          136.873577,
          35.279018
        ]
      },
      "properties": {
        "NO": 44636,
        "共通ID": "E2322800057111",
        "都道府県名及び市町村名": "愛知県岩倉市",
        "施設・場所名": "生涯学習センター",
        "住所": "愛知県岩倉市本町神明西20",
        "指定緊急避難場所との住所同一": "1",
        "その他市町村長が必要と認める事項": null,
        "受入対象者": null,
        "備考": ""
      }
    },
    {
      "type": "Feature",
      "geometry": {
        "type": "Point",
        "coordinates": [
          136.870291,
          35.285596
        ]
      },
      "properties": {
        "NO": 44637,
        "共通ID": "E2322800058111",
        "都道府県名及び市町村名": "愛知県岩倉市",
        "施設・場所名": "岩倉北小学校",
        "住所": "愛知県岩倉市本町南新溝廻間2",
        "指定緊急避難場所との住所同一": "1",
        "その他市町村長が必要と認める事項": "",
        "受入対象者": "",
        "備考": ""
      }
    },
    {
      "type": "Feature",
      "geometry": {
        "type": "Point",
        "coordinates": [
          136.872931,
          35.285526
        ]
      },
      "properties": {
        "NO": 44638,
        "共通ID": "E2322800059121",
        "都道府県名及び市町村名": "愛知県岩倉市",
        "施設・場所名": "中部保育園",
        "住所": "愛知県岩倉市本町畑中65",
        "指定緊急避難場所との住所同一": "1",
        "その他市町村長が必要と認める事項": "左記のうち、避難生活において何らかの特別な配慮が必要であり、避難所での共同生活が困難な方",
        "受入対象者": "要配慮者（乳幼児、妊産婦）",
        "備考": ""
      }
    },
    {
      "type": "Feature",
      "geometry": {
        "type": "Point",
        "coordinates": [
          136.856213,
          35.269413
        ]
      },
      "properties": {
        "NO": 44639,
        "共通ID": "E2322800060111",
        "都道府県名及び市町村名": "愛知県岩倉市",
        "施設・場所名": "野寄町公会堂",
        "住所": "愛知県岩倉市野寄町屋敷922",
        "指定緊急避難場所との住所同一": "",
        "その他市町村長が必要と認める事項": null,
        "受入対象者": null,
        "備考": ""
      }
    },
    {
      "type": "Feature",
      "geometry": {
        "type": "Point",
        "coordinates": [
          136.863748,
          35.284584
        ]
      },
      "properties": {
        "NO": 44640,
        "共通ID": "E2322800062111",
        "都道府県名及び市町村名": "愛知県岩倉市",
        "施設・場所名": "総合体育文化センター",
        "住所": "愛知県岩倉市鈴井町下新田123",
        "指定緊急避難場所との住所同一": "1",
        "その他市町村長が必要と認める事項": null,
        "受入対象者": null,
        "備考": ""
      }
    }
  ]
}