{
  "type": "FeatureCollection",
  "name": "233617",
  "features": [
    {
      "type": "Feature",
      "geometry": {
        "type": "Point",
        "coordinates": [
          136.908798,
          35.344458
        ]
      },
      "properties": {
        "NO": 45030,
        "共通ID": "E2336100001111",
        "都道府県名及び市町村名": "愛知県大口町",
        "施設・場所名": "さつきケ丘防災センター",
        "住所": "愛知県大口町さつきケ丘2-258",
        "指定緊急避難場所との住所同一": "1",
        "その他市町村長が必要と認める事項": null,
        "受入対象者": null,
        "備考": ""
      }
    },
    {
      "type": "Feature",
      "geometry": {
        "type": "Point",
        "coordinates": [
          136.905075,
          35.333052
        ]
      },
      "properties": {
        "NO": 45031,
        "共通ID": "E2336100004111",
        "都道府県名及び市町村名": "愛知県大口町",
        "施設・場所名": "大口町立大口中学校屋内運動場",
        "住所": "愛知県大口町丸1-38",
        "指定緊急避難場所との住所同一": "1",
        "その他市町村長が必要と認める事項": null,
        "受入対象者": null,
        "備考": ""
      }
    },
    {
      "type": "Feature",
      "geometry": {
        "type": "Point",
        "coordinates": [
          136.906211,
          35.33226
        ]
      },
      "properties": {
        "NO": 45032,
        "共通ID": "E2336100005111",
        "都道府県名及び市町村名": "愛知県大口町",
        "施設・場所名": "大口町民会館",
        "住所": "愛知県大口町丸2-8",
        "指定緊急避難場所との住所同一": "",
        "その他市町村長が必要と認める事項": null,
        "受入対象者": null,
        "備考": ""
      }
    },
    {
      "type": "Feature",
      "geometry": {
        "type": "Point",
        "coordinates": [
          136.91684,
          35.340756
        ]
      },
      "properties": {
        "NO": 45033,
        "共通ID": "E2336100008112",
        "都道府県名及び市町村名": "愛知県大口町",
        "施設・場所名": "大口町大口北防災センター",
        "住所": "愛知県大口町城屋敷1-308",
        "指定緊急避難場所との住所同一": "1",
        "その他市町村長が必要と認める事項": null,
        "受入対象者": null,
        "備考": ""
      }
    },
    {
      "type": "Feature",
      "geometry": {
        "type": "Point",
        "coordinates": [
          136.917224,
          35.346318
        ]
      },
      "properties": {
        "NO": 45034,
        "共通ID": "E2336100009111",
        "都道府県名及び市町村名": "愛知県大口町",
        "施設・場所名": "大口町立北保育園",
        "住所": "愛知県大口町中小口2-619",
        "指定緊急避難場所との住所同一": "",
        "その他市町村長が必要と認める事項": null,
        "受入対象者": null,
        "備考": ""
      }
    },
    {
      "type": "Feature",
      "geometry": {
        "type": "Point",
        "coordinates": [
          136.922503,
          35.339161
        ]
      },
      "properties": {
        "NO": 45035,
        "共通ID": "E2336100010111",
        "都道府県名及び市町村名": "愛知県大口町",
        "施設・場所名": "大口町立大口北小学校屋内運動場",
        "住所": "愛知県大口町中小口3-258",
        "指定緊急避難場所との住所同一": "1",
        "その他市町村長が必要と認める事項": null,
        "受入対象者": null,
        "備考": ""
      }
    },
    {
      "type": "Feature",
      "geometry": {
        "type": "Point",
        "coordinates": [
          136.910021,
          35.32849
        ]
      },
      "properties": {
        "NO": 45036,
        "共通ID": "E2336100011111",
        "都道府県名及び市町村名": "愛知県大口町",
        "施設・場所名": "大口町健康文化センター（ほほえみプラザ）",
        "住所": "愛知県大口町伝右1-35",
        "指定緊急避難場所との住所同一": "1",
        "その他市町村長が必要と認める事項": null,
        "受入対象者": null,
        "備考": ""
      }
    },
    {
      "type": "Feature",
      "geometry": {
        "type": "Point",
        "coordinates": [
          136.910016,
          35.328363
        ]
      },
      "properties": {
        "NO": 45037,
        "共通ID": "E2336100011121",
        "都道府県名及び市町村名": "愛知県大口町",
        "施設・場所名": "大口町健康文化センター（ほほえみプラザ）",
        "住所": "愛知県大口町伝右1-35",
        "指定緊急避難場所との住所同一": "1",
        "その他市町村長が必要と認める事項": null,
        "受入対象者": "要配慮者",
        "備考": ""
      }
    },
    {
      "type": "Feature",
      "geometry": {
        "type": "Point",
        "coordinates": [
          136.910874,
          35.328631
        ]
      },
      "properties": {
        "NO": 45038,
        "共通ID": "E2336100012111",
        "都道府県名及び市町村名": "愛知県大口町",
        "施設・場所名": "大口町中央公民館",
        "住所": "愛知県大口町伝右1-47",
        "指定緊急避難場所との住所同一": "1",
        "その他市町村長が必要と認める事項": null,
        "受入対象者": null,
        "備考": ""
      }
    },
    {
      "type": "Feature",
      "geometry": {
        "type": "Point",
        "coordinates": [
          136.895439,
          35.318996
        ]
      },
      "properties": {
        "NO": 45039,
        "共通ID": "E2336100013111",
        "都道府県名及び市町村名": "愛知県大口町",
        "施設・場所名": "大口町立大口南小学校屋内運動場",
        "住所": "愛知県大口町奈良子3-116",
        "指定緊急避難場所との住所同一": "1",
        "その他市町村長が必要と認める事項": null,
        "受入対象者": null,
        "備考": ""
      }
    },
    {
      "type": "Feature",
      "geometry": {
        "type": "Point",
        "coordinates": [
          136.905311,
          35.338851
        ]
      },
      "properties": {
        "NO": 45040,
        "共通ID": "E2336100014111",
        "都道府県名及び市町村名": "愛知県大口町",
        "施設・場所名": "大口町立大口西小学校屋内運動場",
        "住所": "愛知県大口町余野6-440",
        "指定緊急避難場所との住所同一": "1",
        "その他市町村長が必要と認める事項": null,
        "受入対象者": null,
        "備考": ""
      }
    }
  ]
}