{
  "type": "FeatureCollection",
  "name": "234419",
  "features": [
    {
      "type": "Feature",
      "geometry": {
        "type": "Point",
        "coordinates": [
          136.913515,
          34.939458
        ]
      },
      "properties": {
        "NO": 45107,
        "共通ID": "E2344100001111",
        "都道府県名及び市町村名": "愛知県阿久比町",
        "施設・場所名": "図書館",
        "住所": "愛知県阿久比町卯坂字栗之木谷32-4",
        "指定緊急避難場所との住所同一": "",
        "その他市町村長が必要と認める事項": null,
        "受入対象者": null,
        "備考": ""
      }
    },
    {
      "type": "Feature",
      "geometry": {
        "type": "Point",
        "coordinates": [
          136.914375,
          34.936559
        ]
      },
      "properties": {
        "NO": 45108,
        "共通ID": "E2344100002111",
        "都道府県名及び市町村名": "愛知県阿久比町",
        "施設・場所名": "卯之山児童館",
        "住所": "愛知県阿久比町卯坂字神田2-1",
        "指定緊急避難場所との住所同一": "",
        "その他市町村長が必要と認める事項": null,
        "受入対象者": null,
        "備考": ""
      }
    },
    {
      "type": "Feature",
      "geometry": {
        "type": "Point",
        "coordinates": [
          136.910808,
          34.938354
        ]
      },
      "properties": {
        "NO": 45109,
        "共通ID": "E2344100003111",
        "都道府県名及び市町村名": "愛知県阿久比町",
        "施設・場所名": "ほくぶ幼稚園",
        "住所": "愛知県阿久比町卯坂字西谷63",
        "指定緊急避難場所との住所同一": "",
        "その他市町村長が必要と認める事項": null,
        "受入対象者": null,
        "備考": ""
      }
    },
    {
      "type": "Feature",
      "geometry": {
        "type": "Point",
        "coordinates": [
          136.918244,
          34.942115
        ]
      },
      "properties": {
        "NO": 45110,
        "共通ID": "E2344100004111",
        "都道府県名及び市町村名": "愛知県阿久比町",
        "施設・場所名": "英比保育園",
        "住所": "愛知県阿久比町卯坂字大平18",
        "指定緊急避難場所との住所同一": "",
        "その他市町村長が必要と認める事項": null,
        "受入対象者": null,
        "備考": ""
      }
    },
    {
      "type": "Feature",
      "geometry": {
        "type": "Point",
        "coordinates": [
          136.9152,
          34.932568
        ]
      },
      "properties": {
        "NO": 45111,
        "共通ID": "E2344100005111",
        "都道府県名及び市町村名": "愛知県阿久比町",
        "施設・場所名": "アグピアホール",
        "住所": "愛知県阿久比町卯坂字殿越50",
        "指定緊急避難場所との住所同一": "",
        "その他市町村長が必要と認める事項": null,
        "受入対象者": null,
        "備考": ""
      }
    },
    {
      "type": "Feature",
      "geometry": {
        "type": "Point",
        "coordinates": [
          136.915126,
          34.933361
        ]
      },
      "properties": {
        "NO": 45112,
        "共通ID": "E2344100005112",
        "都道府県名及び市町村名": "愛知県阿久比町",
        "施設・場所名": "中央公民館",
        "住所": "愛知県阿久比町卯坂字殿越50",
        "指定緊急避難場所との住所同一": "",
        "その他市町村長が必要と認める事項": null,
        "受入対象者": null,
        "備考": ""
      }
    },
    {
      "type": "Feature",
      "geometry": {
        "type": "Point",
        "coordinates": [
          136.912536,
          34.941745
        ]
      },
      "properties": {
        "NO": 45113,
        "共通ID": "E2344100006111",
        "都道府県名及び市町村名": "愛知県阿久比町",
        "施設・場所名": "坂部公民館",
        "住所": "愛知県阿久比町卯坂字八神52",
        "指定緊急避難場所との住所同一": "",
        "その他市町村長が必要と認める事項": null,
        "受入対象者": null,
        "備考": ""
      }
    },
    {
      "type": "Feature",
      "geometry": {
        "type": "Point",
        "coordinates": [
          136.913166,
          34.933171
        ]
      },
      "properties": {
        "NO": 45114,
        "共通ID": "E2344100007111",
        "都道府県名及び市町村名": "愛知県阿久比町",
        "施設・場所名": "阿久比中学校",
        "住所": "愛知県阿久比町卯坂字半田ケ峯1",
        "指定緊急避難場所との住所同一": "",
        "その他市町村長が必要と認める事項": null,
        "受入対象者": null,
        "備考": ""
      }
    },
    {
      "type": "Feature",
      "geometry": {
        "type": "Point",
        "coordinates": [
          136.919115,
          34.943595
        ]
      },
      "properties": {
        "NO": 45115,
        "共通ID": "E2344100008111",
        "都道府県名及び市町村名": "愛知県阿久比町",
        "施設・場所名": "英比小学校",
        "住所": "愛知県阿久比町卯坂字北大平7",
        "指定緊急避難場所との住所同一": "",
        "その他市町村長が必要と認める事項": null,
        "受入対象者": null,
        "備考": ""
      }
    },
    {
      "type": "Feature",
      "geometry": {
        "type": "Point",
        "coordinates": [
          136.927346,
          34.924563
        ]
      },
      "properties": {
        "NO": 45116,
        "共通ID": "E2344100011111",
        "都道府県名及び市町村名": "愛知県阿久比町",
        "施設・場所名": "東部小学校",
        "住所": "愛知県阿久比町宮津字宮平柴15",
        "指定緊急避難場所との住所同一": "",
        "その他市町村長が必要と認める事項": null,
        "受入対象者": null,
        "備考": ""
      }
    },
    {
      "type": "Feature",
      "geometry": {
        "type": "Point",
        "coordinates": [
          136.924763,
          34.929944
        ]
      },
      "properties": {
        "NO": 45117,
        "共通ID": "E2344100012111",
        "都道府県名及び市町村名": "愛知県阿久比町",
        "施設・場所名": "宮津公民館",
        "住所": "愛知県阿久比町宮津字二子東16",
        "指定緊急避難場所との住所同一": "",
        "その他市町村長が必要と認める事項": null,
        "受入対象者": null,
        "備考": ""
      }
    },
    {
      "type": "Feature",
      "geometry": {
        "type": "Point",
        "coordinates": [
          136.920625,
          34.918251
        ]
      },
      "properties": {
        "NO": 45118,
        "共通ID": "E2344100013111",
        "都道府県名及び市町村名": "愛知県阿久比町",
        "施設・場所名": "大古根公民館",
        "住所": "愛知県阿久比町植大字柿崎9-1",
        "指定緊急避難場所との住所同一": "",
        "その他市町村長が必要と認める事項": null,
        "受入対象者": null,
        "備考": ""
      }
    },
    {
      "type": "Feature",
      "geometry": {
        "type": "Point",
        "coordinates": [
          136.917401,
          34.9169
        ]
      },
      "properties": {
        "NO": 45119,
        "共通ID": "E2344100014111",
        "都道府県名及び市町村名": "愛知県阿久比町",
        "施設・場所名": "植公民館",
        "住所": "愛知県阿久比町植大字寒行坊37",
        "指定緊急避難場所との住所同一": "",
        "その他市町村長が必要と認める事項": null,
        "受入対象者": null,
        "備考": ""
      }
    },
    {
      "type": "Feature",
      "geometry": {
        "type": "Point",
        "coordinates": [
          136.917905,
          34.918924
        ]
      },
      "properties": {
        "NO": 45120,
        "共通ID": "E2344100015111",
        "都道府県名及び市町村名": "愛知県阿久比町",
        "施設・場所名": "南部小学校",
        "住所": "愛知県阿久比町植大字北後24",
        "指定緊急避難場所との住所同一": "",
        "その他市町村長が必要と認める事項": null,
        "受入対象者": null,
        "備考": ""
      }
    },
    {
      "type": "Feature",
      "geometry": {
        "type": "Point",
        "coordinates": [
          136.893974,
          34.948588
        ]
      },
      "properties": {
        "NO": 45121,
        "共通ID": "E2344100016111",
        "都道府県名及び市町村名": "愛知県阿久比町",
        "施設・場所名": "草木小学校",
        "住所": "愛知県阿久比町草木字中郷77",
        "指定緊急避難場所との住所同一": "",
        "その他市町村長が必要と認める事項": null,
        "受入対象者": null,
        "備考": ""
      }
    },
    {
      "type": "Feature",
      "geometry": {
        "type": "Point",
        "coordinates": [
          136.899141,
          34.948152
        ]
      },
      "properties": {
        "NO": 45122,
        "共通ID": "E2344100017111",
        "都道府県名及び市町村名": "愛知県阿久比町",
        "施設・場所名": "草木老人憩の家",
        "住所": "愛知県阿久比町草木字平井堀35-1",
        "指定緊急避難場所との住所同一": "",
        "その他市町村長が必要と認める事項": null,
        "受入対象者": null,
        "備考": ""
      }
    },
    {
      "type": "Feature",
      "geometry": {
        "type": "Point",
        "coordinates": [
          136.896131,
          34.944651
        ]
      },
      "properties": {
        "NO": 45123,
        "共通ID": "E2344100018111",
        "都道府県名及び市町村名": "愛知県阿久比町",
        "施設・場所名": "草木保育園",
        "住所": "愛知県阿久比町草木字平井林1-3",
        "指定緊急避難場所との住所同一": "",
        "その他市町村長が必要と認める事項": null,
        "受入対象者": null,
        "備考": ""
      }
    },
    {
      "type": "Feature",
      "geometry": {
        "type": "Point",
        "coordinates": [
          136.898659,
          34.948051
        ]
      },
      "properties": {
        "NO": 45124,
        "共通ID": "E2344100019111",
        "都道府県名及び市町村名": "愛知県阿久比町",
        "施設・場所名": "草木公民館",
        "住所": "愛知県阿久比町草木字堀田25-1",
        "指定緊急避難場所との住所同一": "",
        "その他市町村長が必要と認める事項": null,
        "受入対象者": null,
        "備考": ""
      }
    },
    {
      "type": "Feature",
      "geometry": {
        "type": "Point",
        "coordinates": [
          136.905294,
          34.93035
        ]
      },
      "properties": {
        "NO": 45125,
        "共通ID": "E2344100061111",
        "都道府県名及び市町村名": "愛知県阿久比町",
        "施設・場所名": "愛知県立阿久比高等学校",
        "住所": "愛知県阿久比町大字阿久比",
        "指定緊急避難場所との住所同一": "",
        "その他市町村長が必要と認める事項": "",
        "受入対象者": "",
        "備考": ""
      }
    },
    {
      "type": "Feature",
      "geometry": {
        "type": "Point",
        "coordinates": [
          136.909611,
          34.939194
        ]
      },
      "properties": {
        "NO": 45126,
        "共通ID": "E2344100025111",
        "都道府県名及び市町村名": "愛知県阿久比町",
        "施設・場所名": "阿久比スポーツ村交流センター",
        "住所": "愛知県阿久比町大字卯坂字浅間裏3-2",
        "指定緊急避難場所との住所同一": "1",
        "その他市町村長が必要と認める事項": "",
        "受入対象者": "",
        "備考": ""
      }
    },
    {
      "type": "Feature",
      "geometry": {
        "type": "Point",
        "coordinates": [
          136.913828,
          34.953374
        ]
      },
      "properties": {
        "NO": 45127,
        "共通ID": "E2344100049111",
        "都道府県名及び市町村名": "愛知県阿久比町",
        "施設・場所名": "白沢区民館",
        "住所": "愛知県阿久比町白沢字天神前54-2",
        "指定緊急避難場所との住所同一": "",
        "その他市町村長が必要と認める事項": null,
        "受入対象者": null,
        "備考": ""
      }
    },
    {
      "type": "Feature",
      "geometry": {
        "type": "Point",
        "coordinates": [
          136.928902,
          34.940041
        ]
      },
      "properties": {
        "NO": 45128,
        "共通ID": "E2344100050111",
        "都道府県名及び市町村名": "愛知県阿久比町",
        "施設・場所名": "ふれあいの森",
        "住所": "愛知県阿久比町板山字比沙田78",
        "指定緊急避難場所との住所同一": "",
        "その他市町村長が必要と認める事項": null,
        "受入対象者": null,
        "備考": ""
      }
    },
    {
      "type": "Feature",
      "geometry": {
        "type": "Point",
        "coordinates": [
          136.931132,
          34.945372
        ]
      },
      "properties": {
        "NO": 45129,
        "共通ID": "E2344100051111",
        "都道府県名及び市町村名": "愛知県阿久比町",
        "施設・場所名": "板山公民館",
        "住所": "愛知県阿久比町板山字本郷75-1",
        "指定緊急避難場所との住所同一": "",
        "その他市町村長が必要と認める事項": null,
        "受入対象者": null,
        "備考": ""
      }
    },
    {
      "type": "Feature",
      "geometry": {
        "type": "Point",
        "coordinates": [
          136.924113,
          34.955469
        ]
      },
      "properties": {
        "NO": 45130,
        "共通ID": "E2344100052111",
        "都道府県名及び市町村名": "愛知県阿久比町",
        "施設・場所名": "高根台集会所",
        "住所": "愛知県阿久比町福住字高根台70",
        "指定緊急避難場所との住所同一": "",
        "その他市町村長が必要と認める事項": null,
        "受入対象者": null,
        "備考": ""
      }
    },
    {
      "type": "Feature",
      "geometry": {
        "type": "Point",
        "coordinates": [
          136.917029,
          34.925722
        ]
      },
      "properties": {
        "NO": 45131,
        "共通ID": "E2344100053111",
        "都道府県名及び市町村名": "愛知県阿久比町",
        "施設・場所名": "勤労福祉センター",
        "住所": "愛知県阿久比町椋岡字丸山14-1",
        "指定緊急避難場所との住所同一": "",
        "その他市町村長が必要と認める事項": null,
        "受入対象者": null,
        "備考": ""
      }
    },
    {
      "type": "Feature",
      "geometry": {
        "type": "Point",
        "coordinates": [
          136.919296,
          34.925575
        ]
      },
      "properties": {
        "NO": 45132,
        "共通ID": "E2344100054111",
        "都道府県名及び市町村名": "愛知県阿久比町",
        "施設・場所名": "中部公民館",
        "住所": "愛知県阿久比町椋岡字南畑9-1",
        "指定緊急避難場所との住所同一": "",
        "その他市町村長が必要と認める事項": null,
        "受入対象者": null,
        "備考": ""
      }
    },
    {
      "type": "Feature",
      "geometry": {
        "type": "Point",
        "coordinates": [
          136.927725,
          34.935878
        ]
      },
      "properties": {
        "NO": 45133,
        "共通ID": "E2344100055111",
        "都道府県名及び市町村名": "愛知県阿久比町",
        "施設・場所名": "宮津保育園",
        "住所": "愛知県阿久比町陽なたの丘1-9",
        "指定緊急避難場所との住所同一": "",
        "その他市町村長が必要と認める事項": null,
        "受入対象者": null,
        "備考": ""
      }
    },
    {
      "type": "Feature",
      "geometry": {
        "type": "Point",
        "coordinates": [
          136.931973,
          34.937566
        ]
      },
      "properties": {
        "NO": 45134,
        "共通ID": "E2344100056111",
        "都道府県名及び市町村名": "愛知県阿久比町",
        "施設・場所名": "陽なたの丘集会所",
        "住所": "愛知県阿久比町陽なたの丘2-104",
        "指定緊急避難場所との住所同一": "",
        "その他市町村長が必要と認める事項": null,
        "受入対象者": null,
        "備考": ""
      }
    }
  ]
}