{
  "type": "FeatureCollection",
  "name": "235610",
  "features": [
    {
      "type": "Feature",
      "geometry": {
        "type": "Point",
        "coordinates": [
          137.590472,
          35.089658
        ]
      },
      "properties": {
        "NO": 45306,
        "共通ID": "E2356100001121",
        "都道府県名及び市町村名": "愛知県設楽町",
        "施設・場所名": "老人福祉施設やすらぎの里",
        "住所": "愛知県設楽町荒尾字宝ノ久保9",
        "指定緊急避難場所との住所同一": "",
        "その他市町村長が必要と認める事項": null,
        "受入対象者": "要配慮者",
        "備考": ""
      }
    },
    {
      "type": "Feature",
      "geometry": {
        "type": "Point",
        "coordinates": [
          137.549474,
          35.063042
        ]
      },
      "properties": {
        "NO": 45307,
        "共通ID": "E2356100007121",
        "都道府県名及び市町村名": "愛知県設楽町",
        "施設・場所名": "愛厚清嶺の風",
        "住所": "愛知県設楽町清崎字沖13-4",
        "指定緊急避難場所との住所同一": "",
        "その他市町村長が必要と認める事項": "",
        "受入対象者": "要配慮者",
        "備考": ""
      }
    },
    {
      "type": "Feature",
      "geometry": {
        "type": "Point",
        "coordinates": [
          137.548539,
          35.063366
        ]
      },
      "properties": {
        "NO": 45308,
        "共通ID": "E2356100054111",
        "都道府県名及び市町村名": "愛知県設楽町",
        "施設・場所名": "清嶺保育園",
        "住所": "愛知県設楽町清崎字沖23-1",
        "指定緊急避難場所との住所同一": "",
        "その他市町村長が必要と認める事項": "",
        "受入対象者": "",
        "備考": ""
      }
    },
    {
      "type": "Feature",
      "geometry": {
        "type": "Point",
        "coordinates": [
          137.55296,
          35.067048
        ]
      },
      "properties": {
        "NO": 45309,
        "共通ID": "E2356100010111",
        "都道府県名及び市町村名": "愛知県設楽町",
        "施設・場所名": "清嶺小学校",
        "住所": "愛知県設楽町清崎字箱上24",
        "指定緊急避難場所との住所同一": "1",
        "その他市町村長が必要と認める事項": "",
        "受入対象者": "",
        "備考": ""
      }
    },
    {
      "type": "Feature",
      "geometry": {
        "type": "Point",
        "coordinates": [
          137.568173,
          35.092921
        ]
      },
      "properties": {
        "NO": 45310,
        "共通ID": "E2356100012111",
        "都道府県名及び市町村名": "愛知県設楽町",
        "施設・場所名": "愛知県立田口高等学校",
        "住所": "愛知県設楽町清崎字林ノ後5-2",
        "指定緊急避難場所との住所同一": "1",
        "その他市町村長が必要と認める事項": "",
        "受入対象者": "",
        "備考": ""
      }
    },
    {
      "type": "Feature",
      "geometry": {
        "type": "Point",
        "coordinates": [
          137.621846,
          35.16555
        ]
      },
      "properties": {
        "NO": 45311,
        "共通ID": "E2356100023111",
        "都道府県名及び市町村名": "愛知県設楽町",
        "施設・場所名": "つぐグリーンプラザ",
        "住所": "愛知県設楽町津具字下川原6-1",
        "指定緊急避難場所との住所同一": "1",
        "その他市町村長が必要と認める事項": "",
        "受入対象者": "",
        "備考": ""
      }
    },
    {
      "type": "Feature",
      "geometry": {
        "type": "Point",
        "coordinates": [
          137.633799,
          35.161
        ]
      },
      "properties": {
        "NO": 45312,
        "共通ID": "E2356100029111",
        "都道府県名及び市町村名": "愛知県設楽町",
        "施設・場所名": "農業構造改善センター",
        "住所": "愛知県設楽町津具字本間7",
        "指定緊急避難場所との住所同一": "1",
        "その他市町村長が必要と認める事項": "",
        "受入対象者": "",
        "備考": ""
      }
    },
    {
      "type": "Feature",
      "geometry": {
        "type": "Point",
        "coordinates": [
          137.572296,
          35.096263
        ]
      },
      "properties": {
        "NO": 45313,
        "共通ID": "E2356100033111",
        "都道府県名及び市町村名": "愛知県設楽町",
        "施設・場所名": "田口特産物振興センター",
        "住所": "愛知県設楽町田口字向木屋3-1",
        "指定緊急避難場所との住所同一": "",
        "その他市町村長が必要と認める事項": "",
        "受入対象者": "",
        "備考": ""
      }
    },
    {
      "type": "Feature",
      "geometry": {
        "type": "Point",
        "coordinates": [
          137.573164,
          35.100412
        ]
      },
      "properties": {
        "NO": 45314,
        "共通ID": "E2356100034111",
        "都道府県名及び市町村名": "愛知県設楽町",
        "施設・場所名": "設楽中学校",
        "住所": "愛知県設楽町田口字大西8-1",
        "指定緊急避難場所との住所同一": "1",
        "その他市町村長が必要と認める事項": "",
        "受入対象者": "",
        "備考": ""
      }
    },
    {
      "type": "Feature",
      "geometry": {
        "type": "Point",
        "coordinates": [
          137.57644,
          35.099608
        ]
      },
      "properties": {
        "NO": 45315,
        "共通ID": "E2356100035111",
        "都道府県名及び市町村名": "愛知県設楽町",
        "施設・場所名": "田口小学校",
        "住所": "愛知県設楽町田口字白根土1-1",
        "指定緊急避難場所との住所同一": "1",
        "その他市町村長が必要と認める事項": "",
        "受入対象者": "",
        "備考": ""
      }
    },
    {
      "type": "Feature",
      "geometry": {
        "type": "Point",
        "coordinates": [
          137.532207,
          35.057339
        ]
      },
      "properties": {
        "NO": 45316,
        "共通ID": "E2356100039111",
        "都道府県名及び市町村名": "愛知県設楽町",
        "施設・場所名": "旧田峯小学校",
        "住所": "愛知県設楽町田峯字下畑9",
        "指定緊急避難場所との住所同一": "1",
        "その他市町村長が必要と認める事項": "",
        "受入対象者": "",
        "備考": ""
      }
    },
    {
      "type": "Feature",
      "geometry": {
        "type": "Point",
        "coordinates": [
          137.531896,
          35.059176
        ]
      },
      "properties": {
        "NO": 45317,
        "共通ID": "E2356100040111",
        "都道府県名及び市町村名": "愛知県設楽町",
        "施設・場所名": "田峯農村環境改善センター",
        "住所": "愛知県設楽町田峯字手籠前37",
        "指定緊急避難場所との住所同一": "",
        "その他市町村長が必要と認める事項": "",
        "受入対象者": "",
        "備考": ""
      }
    },
    {
      "type": "Feature",
      "geometry": {
        "type": "Point",
        "coordinates": [
          137.533652,
          35.154417
        ]
      },
      "properties": {
        "NO": 45318,
        "共通ID": "E2356100055111",
        "都道府県名及び市町村名": "愛知県設楽町",
        "施設・場所名": "名倉体育館",
        "住所": "愛知県設楽町東納庫字ヲトシ山1-68",
        "指定緊急避難場所との住所同一": "",
        "その他市町村長が必要と認める事項": "",
        "受入対象者": "",
        "備考": ""
      }
    },
    {
      "type": "Feature",
      "geometry": {
        "type": "Point",
        "coordinates": [
          137.535223,
          35.15389
        ]
      },
      "properties": {
        "NO": 45319,
        "共通ID": "E2356100045111",
        "都道府県名及び市町村名": "愛知県設楽町",
        "施設・場所名": "名倉小学校",
        "住所": "愛知県設楽町東納庫字丸根2-6",
        "指定緊急避難場所との住所同一": "1",
        "その他市町村長が必要と認める事項": "",
        "受入対象者": "",
        "備考": ""
      }
    },
    {
      "type": "Feature",
      "geometry": {
        "type": "Point",
        "coordinates": [
          137.554102,
          35.142501
        ]
      },
      "properties": {
        "NO": 45320,
        "共通ID": "E2356100047121",
        "都道府県名及び市町村名": "愛知県設楽町",
        "施設・場所名": "設楽福祉村キラリンとーぷ",
        "住所": "愛知県設楽町東納庫字松山6-2",
        "指定緊急避難場所との住所同一": "1",
        "その他市町村長が必要と認める事項": null,
        "受入対象者": "要配慮者",
        "備考": ""
      }
    }
  ]
}