{
  "type": "FeatureCollection",
  "name": "242110",
  "features": [
    {
      "type": "Feature",
      "geometry": {
        "type": "Point",
        "coordinates": [
          136.85167,
          34.478933
        ]
      },
      "properties": {
        "NO": 46320,
        "共通ID": "E2421100001111",
        "都道府県名及び市町村名": "三重県鳥羽市",
        "施設・場所名": "鳥羽シーサイドホテル",
        "住所": "三重県鳥羽市安楽島町1084",
        "指定緊急避難場所との住所同一": "1",
        "その他市町村長が必要と認める事項": "",
        "受入対象者": "",
        "備考": ""
      }
    },
    {
      "type": "Feature",
      "geometry": {
        "type": "Point",
        "coordinates": [
          136.851017,
          34.474737
        ]
      },
      "properties": {
        "NO": 46321,
        "共通ID": "E2421100002111",
        "都道府県名及び市町村名": "三重県鳥羽市",
        "施設・場所名": "亀の井ホテル　鳥羽",
        "住所": "三重県鳥羽市安楽島町1200-7",
        "指定緊急避難場所との住所同一": "1",
        "その他市町村長が必要と認める事項": "",
        "受入対象者": "",
        "備考": ""
      }
    },
    {
      "type": "Feature",
      "geometry": {
        "type": "Point",
        "coordinates": [
          136.849392,
          34.464142
        ]
      },
      "properties": {
        "NO": 46322,
        "共通ID": "E2421100004111",
        "都道府県名及び市町村名": "三重県鳥羽市",
        "施設・場所名": "鳥羽東中学校",
        "住所": "三重県鳥羽市安楽島町1451-19",
        "指定緊急避難場所との住所同一": "1",
        "その他市町村長が必要と認める事項": "",
        "受入対象者": "",
        "備考": ""
      }
    },
    {
      "type": "Feature",
      "geometry": {
        "type": "Point",
        "coordinates": [
          136.84878,
          34.466111
        ]
      },
      "properties": {
        "NO": 46323,
        "共通ID": "E2421100005111",
        "都道府県名及び市町村名": "三重県鳥羽市",
        "施設・場所名": "鳥羽高校体育館",
        "住所": "三重県鳥羽市安楽島町1459",
        "指定緊急避難場所との住所同一": "1",
        "その他市町村長が必要と認める事項": "",
        "受入対象者": "",
        "備考": ""
      }
    },
    {
      "type": "Feature",
      "geometry": {
        "type": "Point",
        "coordinates": [
          136.84837,
          34.465559
        ]
      },
      "properties": {
        "NO": 46324,
        "共通ID": "E2421100005112",
        "都道府県名及び市町村名": "三重県鳥羽市",
        "施設・場所名": "鳥羽高校武道場",
        "住所": "三重県鳥羽市安楽島町1459",
        "指定緊急避難場所との住所同一": "1",
        "その他市町村長が必要と認める事項": "",
        "受入対象者": "",
        "備考": ""
      }
    },
    {
      "type": "Feature",
      "geometry": {
        "type": "Point",
        "coordinates": [
          136.848765,
          34.464238
        ]
      },
      "properties": {
        "NO": 46325,
        "共通ID": "E2421100006111",
        "都道府県名及び市町村名": "三重県鳥羽市",
        "施設・場所名": "安楽島保育所",
        "住所": "三重県鳥羽市安楽島町1459-1",
        "指定緊急避難場所との住所同一": "1",
        "その他市町村長が必要と認める事項": "",
        "受入対象者": "",
        "備考": ""
      }
    },
    {
      "type": "Feature",
      "geometry": {
        "type": "Point",
        "coordinates": [
          136.859025,
          34.462964
        ]
      },
      "properties": {
        "NO": 46326,
        "共通ID": "E2421100008111",
        "都道府県名及び市町村名": "三重県鳥羽市",
        "施設・場所名": "安楽島小学校",
        "住所": "三重県鳥羽市安楽島町377",
        "指定緊急避難場所との住所同一": "1",
        "その他市町村長が必要と認める事項": "",
        "受入対象者": "",
        "備考": ""
      }
    },
    {
      "type": "Feature",
      "geometry": {
        "type": "Point",
        "coordinates": [
          136.870352,
          34.463876
        ]
      },
      "properties": {
        "NO": 46327,
        "共通ID": "E2421100010111",
        "都道府県名及び市町村名": "三重県鳥羽市",
        "施設・場所名": "安楽島公民館２階",
        "住所": "三重県鳥羽市安楽島町844-4",
        "指定緊急避難場所との住所同一": "1",
        "その他市町村長が必要と認める事項": "",
        "受入対象者": "",
        "備考": ""
      }
    },
    {
      "type": "Feature",
      "geometry": {
        "type": "Point",
        "coordinates": [
          136.858591,
          34.474897
        ]
      },
      "properties": {
        "NO": 46328,
        "共通ID": "E2421100011121",
        "都道府県名及び市町村名": "三重県鳥羽市",
        "施設・場所名": "特別養護老人ホームあらしま苑",
        "住所": "三重県鳥羽市安楽島町字高山1075-58",
        "指定緊急避難場所との住所同一": "",
        "その他市町村長が必要と認める事項": "左記について、施設の受け入れ体制が整い次第、各避難所で避難生活が困難で支援が必要な被災者がいる場合に開設します。",
        "受入対象者": "高齢者",
        "備考": ""
      }
    },
    {
      "type": "Feature",
      "geometry": {
        "type": "Point",
        "coordinates": [
          136.88895,
          34.44431
        ]
      },
      "properties": {
        "NO": 46329,
        "共通ID": "E2421100014111",
        "都道府県名及び市町村名": "三重県鳥羽市",
        "施設・場所名": "本浦公民館",
        "住所": "三重県鳥羽市浦村町1237",
        "指定緊急避難場所との住所同一": "1",
        "その他市町村長が必要と認める事項": "",
        "受入対象者": "",
        "備考": ""
      }
    },
    {
      "type": "Feature",
      "geometry": {
        "type": "Point",
        "coordinates": [
          136.900246,
          34.446235
        ]
      },
      "properties": {
        "NO": 46330,
        "共通ID": "E2421100017111",
        "都道府県名及び市町村名": "三重県鳥羽市",
        "施設・場所名": "旧鏡浦小学校",
        "住所": "三重県鳥羽市浦村町1744-1",
        "指定緊急避難場所との住所同一": "1",
        "その他市町村長が必要と認める事項": null,
        "受入対象者": null,
        "備考": ""
      }
    },
    {
      "type": "Feature",
      "geometry": {
        "type": "Point",
        "coordinates": [
          136.879915,
          34.440829
        ]
      },
      "properties": {
        "NO": 46331,
        "共通ID": "E2421100019111",
        "都道府県名及び市町村名": "三重県鳥羽市",
        "施設・場所名": "今浦老人憩の家",
        "住所": "三重県鳥羽市浦村町240",
        "指定緊急避難場所との住所同一": "1",
        "その他市町村長が必要と認める事項": null,
        "受入対象者": null,
        "備考": ""
      }
    },
    {
      "type": "Feature",
      "geometry": {
        "type": "Point",
        "coordinates": [
          136.83573,
          34.445206
        ]
      },
      "properties": {
        "NO": 46332,
        "共通ID": "E2421100020111",
        "都道府県名及び市町村名": "三重県鳥羽市",
        "施設・場所名": "河内公民館",
        "住所": "三重県鳥羽市河内町75-1",
        "指定緊急避難場所との住所同一": "1",
        "その他市町村長が必要と認める事項": "",
        "受入対象者": "",
        "備考": ""
      }
    },
    {
      "type": "Feature",
      "geometry": {
        "type": "Point",
        "coordinates": [
          136.840754,
          34.44819
        ]
      },
      "properties": {
        "NO": 46333,
        "共通ID": "E2421100021111",
        "都道府県名及び市町村名": "三重県鳥羽市",
        "施設・場所名": "加茂中学校",
        "住所": "三重県鳥羽市岩倉町105",
        "指定緊急避難場所との住所同一": "1",
        "その他市町村長が必要と認める事項": "",
        "受入対象者": "",
        "備考": ""
      }
    },
    {
      "type": "Feature",
      "geometry": {
        "type": "Point",
        "coordinates": [
          136.842996,
          34.450536
        ]
      },
      "properties": {
        "NO": 46334,
        "共通ID": "E2421100022111",
        "都道府県名及び市町村名": "三重県鳥羽市",
        "施設・場所名": "みどりが丘集会所",
        "住所": "三重県鳥羽市岩倉町1144-120",
        "指定緊急避難場所との住所同一": "1",
        "その他市町村長が必要と認める事項": null,
        "受入対象者": null,
        "備考": ""
      }
    },
    {
      "type": "Feature",
      "geometry": {
        "type": "Point",
        "coordinates": [
          136.844354,
          34.444895
        ]
      },
      "properties": {
        "NO": 46335,
        "共通ID": "E2421100023111",
        "都道府県名及び市町村名": "三重県鳥羽市",
        "施設・場所名": "加茂小学校",
        "住所": "三重県鳥羽市岩倉町27-1",
        "指定緊急避難場所との住所同一": "1",
        "その他市町村長が必要と認める事項": "",
        "受入対象者": "",
        "備考": ""
      }
    },
    {
      "type": "Feature",
      "geometry": {
        "type": "Point",
        "coordinates": [
          136.848426,
          34.442754
        ]
      },
      "properties": {
        "NO": 46336,
        "共通ID": "E2421100024121",
        "都道府県名及び市町村名": "三重県鳥羽市",
        "施設・場所名": "特別養護老人ホーム鳥羽陽光苑",
        "住所": "三重県鳥羽市岩倉町609",
        "指定緊急避難場所との住所同一": "1",
        "その他市町村長が必要と認める事項": "左記について、施設の受け入れ体制が整い次第、各避難所で避難生活が困難で支援が必要な被災者がいる場合に開設します。",
        "受入対象者": "高齢者",
        "備考": ""
      }
    },
    {
      "type": "Feature",
      "geometry": {
        "type": "Point",
        "coordinates": [
          136.873086,
          34.384999
        ]
      },
      "properties": {
        "NO": 46337,
        "共通ID": "E2421100025111",
        "都道府県名及び市町村名": "三重県鳥羽市",
        "施設・場所名": "旧堅子公民館２階",
        "住所": "三重県鳥羽市堅子町124",
        "指定緊急避難場所との住所同一": "1",
        "その他市町村長が必要と認める事項": "",
        "受入対象者": "",
        "備考": ""
      }
    },
    {
      "type": "Feature",
      "geometry": {
        "type": "Point",
        "coordinates": [
          136.819833,
          34.47893
        ]
      },
      "properties": {
        "NO": 46338,
        "共通ID": "E2421100026111",
        "都道府県名及び市町村名": "三重県鳥羽市",
        "施設・場所名": "鳥羽小学校",
        "住所": "三重県鳥羽市堅神町805-2",
        "指定緊急避難場所との住所同一": "1",
        "その他市町村長が必要と認める事項": "",
        "受入対象者": "",
        "備考": ""
      }
    },
    {
      "type": "Feature",
      "geometry": {
        "type": "Point",
        "coordinates": [
          136.820768,
          34.479788
        ]
      },
      "properties": {
        "NO": 46339,
        "共通ID": "E2421100027111",
        "都道府県名及び市町村名": "三重県鳥羽市",
        "施設・場所名": "堅神公民館",
        "住所": "三重県鳥羽市堅神町815",
        "指定緊急避難場所との住所同一": "1",
        "その他市町村長が必要と認める事項": null,
        "受入対象者": null,
        "備考": ""
      }
    },
    {
      "type": "Feature",
      "geometry": {
        "type": "Point",
        "coordinates": [
          136.923685,
          34.415979
        ]
      },
      "properties": {
        "NO": 46340,
        "共通ID": "E2421100029111",
        "都道府県名及び市町村名": "三重県鳥羽市",
        "施設・場所名": "相差保育所",
        "住所": "三重県鳥羽市国崎町140",
        "指定緊急避難場所との住所同一": "1",
        "その他市町村長が必要と認める事項": "",
        "受入対象者": "",
        "備考": ""
      }
    },
    {
      "type": "Feature",
      "geometry": {
        "type": "Point",
        "coordinates": [
          136.860154,
          34.485626
        ]
      },
      "properties": {
        "NO": 46341,
        "共通ID": "E2421100032111",
        "都道府県名及び市町村名": "三重県鳥羽市",
        "施設・場所名": "坂手公民館",
        "住所": "三重県鳥羽市坂手町135",
        "指定緊急避難場所との住所同一": "1",
        "その他市町村長が必要と認める事項": "",
        "受入対象者": "",
        "備考": ""
      }
    },
    {
      "type": "Feature",
      "geometry": {
        "type": "Point",
        "coordinates": [
          136.860953,
          34.486362
        ]
      },
      "properties": {
        "NO": 46342,
        "共通ID": "E2421100036111",
        "都道府県名及び市町村名": "三重県鳥羽市",
        "施設・場所名": "坂手コミュニティアリーナ",
        "住所": "三重県鳥羽市坂手町935",
        "指定緊急避難場所との住所同一": "1",
        "その他市町村長が必要と認める事項": "",
        "受入対象者": "",
        "備考": ""
      }
    },
    {
      "type": "Feature",
      "geometry": {
        "type": "Point",
        "coordinates": [
          136.842253,
          34.452778
        ]
      },
      "properties": {
        "NO": 46343,
        "共通ID": "E2421100037111",
        "都道府県名及び市町村名": "三重県鳥羽市",
        "施設・場所名": "若杉公民館",
        "住所": "三重県鳥羽市若杉町10-40",
        "指定緊急避難場所との住所同一": "1",
        "その他市町村長が必要と認める事項": "",
        "受入対象者": "",
        "備考": ""
      }
    },
    {
      "type": "Feature",
      "geometry": {
        "type": "Point",
        "coordinates": [
          136.834655,
          34.501189
        ]
      },
      "properties": {
        "NO": 46344,
        "共通ID": "E2421100041111",
        "都道府県名及び市町村名": "三重県鳥羽市",
        "施設・場所名": "湯快リゾート　鳥羽彩朝楽",
        "住所": "三重県鳥羽市小浜町610",
        "指定緊急避難場所との住所同一": "1",
        "その他市町村長が必要と認める事項": "",
        "受入対象者": "",
        "備考": ""
      }
    },
    {
      "type": "Feature",
      "geometry": {
        "type": "Point",
        "coordinates": [
          136.833493,
          34.498374
        ]
      },
      "properties": {
        "NO": 46345,
        "共通ID": "E2421100042111",
        "都道府県名及び市町村名": "三重県鳥羽市",
        "施設・場所名": "旧小浜小学校２階以上",
        "住所": "三重県鳥羽市小浜町97",
        "指定緊急避難場所との住所同一": "1",
        "その他市町村長が必要と認める事項": "",
        "受入対象者": "",
        "備考": ""
      }
    },
    {
      "type": "Feature",
      "geometry": {
        "type": "Point",
        "coordinates": [
          136.841798,
          34.431906
        ]
      },
      "properties": {
        "NO": 46346,
        "共通ID": "E2421100044111",
        "都道府県名及び市町村名": "三重県鳥羽市",
        "施設・場所名": "松尾公民館",
        "住所": "三重県鳥羽市松尾町644-3",
        "指定緊急避難場所との住所同一": "1",
        "その他市町村長が必要と認める事項": "",
        "受入対象者": "",
        "備考": ""
      }
    },
    {
      "type": "Feature",
      "geometry": {
        "type": "Point",
        "coordinates": [
          136.841755,
          34.432088
        ]
      },
      "properties": {
        "NO": 46347,
        "共通ID": "E2421100045111",
        "都道府県名及び市町村名": "三重県鳥羽市",
        "施設・場所名": "なごみ",
        "住所": "三重県鳥羽市松尾町651-2",
        "指定緊急避難場所との住所同一": "1",
        "その他市町村長が必要と認める事項": "",
        "受入対象者": "",
        "備考": ""
      }
    },
    {
      "type": "Feature",
      "geometry": {
        "type": "Point",
        "coordinates": [
          136.980499,
          34.549983
        ]
      },
      "properties": {
        "NO": 46348,
        "共通ID": "E2421100049111",
        "都道府県名及び市町村名": "三重県鳥羽市",
        "施設・場所名": "神島開発総合センター２階以上",
        "住所": "三重県鳥羽市神島町85-2",
        "指定緊急避難場所との住所同一": "1",
        "その他市町村長が必要と認める事項": "",
        "受入対象者": "",
        "備考": ""
      }
    },
    {
      "type": "Feature",
      "geometry": {
        "type": "Point",
        "coordinates": [
          136.899538,
          34.498524
        ]
      },
      "properties": {
        "NO": 46349,
        "共通ID": "E2421100050111",
        "都道府県名及び市町村名": "三重県鳥羽市",
        "施設・場所名": "菅島小学校",
        "住所": "三重県鳥羽市菅島町1-2",
        "指定緊急避難場所との住所同一": "1",
        "その他市町村長が必要と認める事項": "",
        "受入対象者": "",
        "備考": ""
      }
    },
    {
      "type": "Feature",
      "geometry": {
        "type": "Point",
        "coordinates": [
          136.900096,
          34.498816
        ]
      },
      "properties": {
        "NO": 46350,
        "共通ID": "E2421100050112",
        "都道府県名及び市町村名": "三重県鳥羽市",
        "施設・場所名": "菅島コミュニティアリーナ",
        "住所": "三重県鳥羽市菅島町1-2",
        "指定緊急避難場所との住所同一": "1",
        "その他市町村長が必要と認める事項": "",
        "受入対象者": "",
        "備考": ""
      }
    },
    {
      "type": "Feature",
      "geometry": {
        "type": "Point",
        "coordinates": [
          136.917339,
          34.447326
        ]
      },
      "properties": {
        "NO": 46351,
        "共通ID": "E2421100052111",
        "都道府県名及び市町村名": "三重県鳥羽市",
        "施設・場所名": "石鏡公民館",
        "住所": "三重県鳥羽市石鏡町151-1",
        "指定緊急避難場所との住所同一": "1",
        "その他市町村長が必要と認める事項": "",
        "受入対象者": "",
        "備考": ""
      }
    },
    {
      "type": "Feature",
      "geometry": {
        "type": "Point",
        "coordinates": [
          136.881808,
          34.386287
        ]
      },
      "properties": {
        "NO": 46352,
        "共通ID": "E2421100056111",
        "都道府県名及び市町村名": "三重県鳥羽市",
        "施設・場所名": "千賀公民館２階",
        "住所": "三重県鳥羽市千賀町140",
        "指定緊急避難場所との住所同一": "1",
        "その他市町村長が必要と認める事項": "",
        "受入対象者": "",
        "備考": ""
      }
    },
    {
      "type": "Feature",
      "geometry": {
        "type": "Point",
        "coordinates": [
          136.84042,
          34.455908
        ]
      },
      "properties": {
        "NO": 46353,
        "共通ID": "E2421100059111",
        "都道府県名及び市町村名": "三重県鳥羽市",
        "施設・場所名": "船津コミュニティセンター",
        "住所": "三重県鳥羽市船津町690",
        "指定緊急避難場所との住所同一": "1",
        "その他市町村長が必要と認める事項": "",
        "受入対象者": "",
        "備考": ""
      }
    },
    {
      "type": "Feature",
      "geometry": {
        "type": "Point",
        "coordinates": [
          136.902772,
          34.38914
        ]
      },
      "properties": {
        "NO": 46354,
        "共通ID": "E2421100061111",
        "都道府県名及び市町村名": "三重県鳥羽市",
        "施設・場所名": "弘道小学校",
        "住所": "三重県鳥羽市相差町1014",
        "指定緊急避難場所との住所同一": "1",
        "その他市町村長が必要と認める事項": "",
        "受入対象者": "",
        "備考": ""
      }
    },
    {
      "type": "Feature",
      "geometry": {
        "type": "Point",
        "coordinates": [
          136.906959,
          34.391041
        ]
      },
      "properties": {
        "NO": 46355,
        "共通ID": "E2421100063111",
        "都道府県名及び市町村名": "三重県鳥羽市",
        "施設・場所名": "鳥羽磯部漁協相差支所女性等活動拠点施設",
        "住所": "三重県鳥羽市相差町1240-1",
        "指定緊急避難場所との住所同一": "1",
        "その他市町村長が必要と認める事項": "",
        "受入対象者": "",
        "備考": ""
      }
    },
    {
      "type": "Feature",
      "geometry": {
        "type": "Point",
        "coordinates": [
          136.900804,
          34.390132
        ]
      },
      "properties": {
        "NO": 46356,
        "共通ID": "E2421100067111",
        "都道府県名及び市町村名": "三重県鳥羽市",
        "施設・場所名": "旧長岡中学校",
        "住所": "三重県鳥羽市相差町1910",
        "指定緊急避難場所との住所同一": "1",
        "その他市町村長が必要と認める事項": "",
        "受入対象者": "",
        "備考": ""
      }
    },
    {
      "type": "Feature",
      "geometry": {
        "type": "Point",
        "coordinates": [
          136.851467,
          34.468464
        ]
      },
      "properties": {
        "NO": 46357,
        "共通ID": "E2421100069111",
        "都道府県名及び市町村名": "三重県鳥羽市",
        "施設・場所名": "鳥羽市民体育館２階",
        "住所": "三重県鳥羽市大明東町4-8",
        "指定緊急避難場所との住所同一": "1",
        "その他市町村長が必要と認める事項": "",
        "受入対象者": "",
        "備考": ""
      }
    },
    {
      "type": "Feature",
      "geometry": {
        "type": "Point",
        "coordinates": [
          136.854469,
          34.46811
        ]
      },
      "properties": {
        "NO": 46358,
        "共通ID": "E2421100070111",
        "都道府県名及び市町村名": "三重県鳥羽市",
        "施設・場所名": "鳥羽市武道館",
        "住所": "三重県鳥羽市大明東町8-2",
        "指定緊急避難場所との住所同一": "1",
        "その他市町村長が必要と認める事項": "",
        "受入対象者": "",
        "備考": ""
      }
    },
    {
      "type": "Feature",
      "geometry": {
        "type": "Point",
        "coordinates": [
          136.825273,
          34.480251
        ]
      },
      "properties": {
        "NO": 46359,
        "共通ID": "E2421100071111",
        "都道府県名及び市町村名": "三重県鳥羽市",
        "施設・場所名": "鳥羽商船高専第２体育館",
        "住所": "三重県鳥羽市池上町1-1",
        "指定緊急避難場所との住所同一": "1",
        "その他市町村長が必要と認める事項": "",
        "受入対象者": "",
        "備考": ""
      }
    },
    {
      "type": "Feature",
      "geometry": {
        "type": "Point",
        "coordinates": [
          136.827828,
          34.481362
        ]
      },
      "properties": {
        "NO": 46360,
        "共通ID": "E2421100073111",
        "都道府県名及び市町村名": "三重県鳥羽市",
        "施設・場所名": "あおぞら保育所",
        "住所": "三重県鳥羽市池上町9-24",
        "指定緊急避難場所との住所同一": "1",
        "その他市町村長が必要と認める事項": "",
        "受入対象者": "",
        "備考": ""
      }
    },
    {
      "type": "Feature",
      "geometry": {
        "type": "Point",
        "coordinates": [
          136.830444,
          34.485452
        ]
      },
      "properties": {
        "NO": 46361,
        "共通ID": "E2421100076111",
        "都道府県名及び市町村名": "三重県鳥羽市",
        "施設・場所名": "美台集会所",
        "住所": "三重県鳥羽市鳥羽1-20-104",
        "指定緊急避難場所との住所同一": "1",
        "その他市町村長が必要と認める事項": null,
        "受入対象者": null,
        "備考": ""
      }
    },
    {
      "type": "Feature",
      "geometry": {
        "type": "Point",
        "coordinates": [
          136.84152,
          34.488538
        ]
      },
      "properties": {
        "NO": 46362,
        "共通ID": "E2421100078111",
        "都道府県名及び市町村名": "三重県鳥羽市",
        "施設・場所名": "戸田家",
        "住所": "三重県鳥羽市鳥羽1-24-26",
        "指定緊急避難場所との住所同一": "1",
        "その他市町村長が必要と認める事項": "",
        "受入対象者": "",
        "備考": ""
      }
    },
    {
      "type": "Feature",
      "geometry": {
        "type": "Point",
        "coordinates": [
          136.843378,
          34.48138
        ]
      },
      "properties": {
        "NO": 46363,
        "共通ID": "E2421100082111",
        "都道府県名及び市町村名": "三重県鳥羽市",
        "施設・場所名": "鳥羽市役所西庁舎",
        "住所": "三重県鳥羽市鳥羽3-1-1",
        "指定緊急避難場所との住所同一": "1",
        "その他市町村長が必要と認める事項": "",
        "受入対象者": "",
        "備考": ""
      }
    },
    {
      "type": "Feature",
      "geometry": {
        "type": "Point",
        "coordinates": [
          136.842178,
          34.482805
        ]
      },
      "properties": {
        "NO": 46364,
        "共通ID": "E2421100085111",
        "都道府県名及び市町村名": "三重県鳥羽市",
        "施設・場所名": "ＮＴＴ西日本鳥羽ビル",
        "住所": "三重県鳥羽市鳥羽3-7-7",
        "指定緊急避難場所との住所同一": "1",
        "その他市町村長が必要と認める事項": null,
        "受入対象者": null,
        "備考": ""
      }
    },
    {
      "type": "Feature",
      "geometry": {
        "type": "Point",
        "coordinates": [
          136.840098,
          34.469733
        ]
      },
      "properties": {
        "NO": 46365,
        "共通ID": "E2421100087111",
        "都道府県名及び市町村名": "三重県鳥羽市",
        "施設・場所名": "若竹集会所",
        "住所": "三重県鳥羽市鳥羽5-8-37",
        "指定緊急避難場所との住所同一": "1",
        "その他市町村長が必要と認める事項": "",
        "受入対象者": "",
        "備考": ""
      }
    },
    {
      "type": "Feature",
      "geometry": {
        "type": "Point",
        "coordinates": [
          136.83839,
          34.469627
        ]
      },
      "properties": {
        "NO": 46366,
        "共通ID": "E2421100088111",
        "都道府県名及び市町村名": "三重県鳥羽市",
        "施設・場所名": "あしたば作業所",
        "住所": "三重県鳥羽市鳥羽5-8-62",
        "指定緊急避難場所との住所同一": "1",
        "その他市町村長が必要と認める事項": "",
        "受入対象者": "",
        "備考": ""
      }
    },
    {
      "type": "Feature",
      "geometry": {
        "type": "Point",
        "coordinates": [
          136.850246,
          34.511663
        ]
      },
      "properties": {
        "NO": 46367,
        "共通ID": "E2421100089111",
        "都道府県名及び市町村名": "三重県鳥羽市",
        "施設・場所名": "旧桃取小学校校舎２階（保育所側）",
        "住所": "三重県鳥羽市桃取町21-2",
        "指定緊急避難場所との住所同一": "1",
        "その他市町村長が必要と認める事項": "",
        "受入対象者": "",
        "備考": ""
      }
    },
    {
      "type": "Feature",
      "geometry": {
        "type": "Point",
        "coordinates": [
          136.854051,
          34.515028
        ]
      },
      "properties": {
        "NO": 46368,
        "共通ID": "E2421100092111",
        "都道府県名及び市町村名": "三重県鳥羽市",
        "施設・場所名": "桃取コミュニティセンター",
        "住所": "三重県鳥羽市桃取町284",
        "指定緊急避難場所との住所同一": "1",
        "その他市町村長が必要と認める事項": "",
        "受入対象者": "",
        "備考": ""
      }
    },
    {
      "type": "Feature",
      "geometry": {
        "type": "Point",
        "coordinates": [
          136.85309,
          34.514962
        ]
      },
      "properties": {
        "NO": 46369,
        "共通ID": "E2421100093111",
        "都道府県名及び市町村名": "三重県鳥羽市",
        "施設・場所名": "桃取健康管理センター",
        "住所": "三重県鳥羽市桃取町93-4",
        "指定緊急避難場所との住所同一": "1",
        "その他市町村長が必要と認める事項": "",
        "受入対象者": "",
        "備考": ""
      }
    },
    {
      "type": "Feature",
      "geometry": {
        "type": "Point",
        "coordinates": [
          136.887812,
          34.521673
        ]
      },
      "properties": {
        "NO": 46370,
        "共通ID": "E2421100094111",
        "都道府県名及び市町村名": "三重県鳥羽市",
        "施設・場所名": "答志中学校校舎２階（体育館側）",
        "住所": "三重県鳥羽市答志町2220-5",
        "指定緊急避難場所との住所同一": "1",
        "その他市町村長が必要と認める事項": "",
        "受入対象者": "",
        "備考": ""
      }
    },
    {
      "type": "Feature",
      "geometry": {
        "type": "Point",
        "coordinates": [
          136.901656,
          34.529153
        ]
      },
      "properties": {
        "NO": 46371,
        "共通ID": "E2421100095111",
        "都道府県名及び市町村名": "三重県鳥羽市",
        "施設・場所名": "答志コミュニティセンター",
        "住所": "三重県鳥羽市答志町386-2",
        "指定緊急避難場所との住所同一": "1",
        "その他市町村長が必要と認める事項": "",
        "受入対象者": "",
        "備考": ""
      }
    },
    {
      "type": "Feature",
      "geometry": {
        "type": "Point",
        "coordinates": [
          136.899713,
          34.527601
        ]
      },
      "properties": {
        "NO": 46372,
        "共通ID": "E2421100096111",
        "都道府県名及び市町村名": "三重県鳥羽市",
        "施設・場所名": "答志保育所",
        "住所": "三重県鳥羽市答志町494",
        "指定緊急避難場所との住所同一": "1",
        "その他市町村長が必要と認める事項": "",
        "受入対象者": "",
        "備考": ""
      }
    },
    {
      "type": "Feature",
      "geometry": {
        "type": "Point",
        "coordinates": [
          136.901527,
          34.521424
        ]
      },
      "properties": {
        "NO": 46373,
        "共通ID": "E2421100098111",
        "都道府県名及び市町村名": "三重県鳥羽市",
        "施設・場所名": "答志和具コミュニティセンター",
        "住所": "三重県鳥羽市答志町813",
        "指定緊急避難場所との住所同一": "1",
        "その他市町村長が必要と認める事項": "",
        "受入対象者": "",
        "備考": ""
      }
    },
    {
      "type": "Feature",
      "geometry": {
        "type": "Point",
        "coordinates": [
          136.899784,
          34.52483
        ]
      },
      "properties": {
        "NO": 46374,
        "共通ID": "E2421100099111",
        "都道府県名及び市町村名": "三重県鳥羽市",
        "施設・場所名": "答志小学校",
        "住所": "三重県鳥羽市答志町941-1",
        "指定緊急避難場所との住所同一": "1",
        "その他市町村長が必要と認める事項": "",
        "受入対象者": "",
        "備考": ""
      }
    },
    {
      "type": "Feature",
      "geometry": {
        "type": "Point",
        "coordinates": [
          136.899861,
          34.525148
        ]
      },
      "properties": {
        "NO": 46375,
        "共通ID": "E2421100100111",
        "都道府県名及び市町村名": "三重県鳥羽市",
        "施設・場所名": "答志コミュニティアリーナ２階",
        "住所": "三重県鳥羽市答志町943",
        "指定緊急避難場所との住所同一": "1",
        "その他市町村長が必要と認める事項": "",
        "受入対象者": "",
        "備考": ""
      }
    },
    {
      "type": "Feature",
      "geometry": {
        "type": "Point",
        "coordinates": [
          136.824476,
          34.427283
        ]
      },
      "properties": {
        "NO": 46376,
        "共通ID": "E2421100102111",
        "都道府県名及び市町村名": "三重県鳥羽市",
        "施設・場所名": "白木公民館",
        "住所": "三重県鳥羽市白木町196",
        "指定緊急避難場所との住所同一": "1",
        "その他市町村長が必要と認める事項": null,
        "受入対象者": null,
        "備考": ""
      }
    }
  ]
}