{
  "type": "FeatureCollection",
  "name": "243035",
  "features": [
    {
      "type": "Feature",
      "geometry": {
        "type": "Point",
        "coordinates": [
          136.552456,
          35.106121
        ]
      },
      "properties": {
        "NO": 46647,
        "共通ID": "E2430300023111",
        "都道府県名及び市町村名": "三重県木曽岬町",
        "施設・場所名": "三重県立いなべ総合学園高等学校",
        "住所": "三重県いなべ市員弁町御薗632",
        "指定緊急避難場所との住所同一": "",
        "その他市町村長が必要と認める事項": "広域避難に係る要配慮者等",
        "受入対象者": "",
        "備考": ""
      }
    },
    {
      "type": "Feature",
      "geometry": {
        "type": "Point",
        "coordinates": [
          136.721145,
          35.101241
        ]
      },
      "properties": {
        "NO": 46648,
        "共通ID": "E2430300003111",
        "都道府県名及び市町村名": "三重県木曽岬町",
        "施設・場所名": "加路戸集会所",
        "住所": "三重県木曽岬町大字加路戸39-2",
        "指定緊急避難場所との住所同一": "",
        "その他市町村長が必要と認める事項": null,
        "受入対象者": null,
        "備考": ""
      }
    },
    {
      "type": "Feature",
      "geometry": {
        "type": "Point",
        "coordinates": [
          136.728169,
          35.084715
        ]
      },
      "properties": {
        "NO": 46649,
        "共通ID": "E2430300005111",
        "都道府県名及び市町村名": "三重県木曽岬町",
        "施設・場所名": "北部公民館",
        "住所": "三重県木曽岬町大字外平喜846-2",
        "指定緊急避難場所との住所同一": "",
        "その他市町村長が必要と認める事項": null,
        "受入対象者": null,
        "備考": ""
      }
    },
    {
      "type": "Feature",
      "geometry": {
        "type": "Point",
        "coordinates": [
          136.732339,
          35.091987
        ]
      },
      "properties": {
        "NO": 46650,
        "共通ID": "E2430300006111",
        "都道府県名及び市町村名": "三重県木曽岬町",
        "施設・場所名": "農村集落多目的共同利用施設",
        "住所": "三重県木曽岬町大字見入145-2",
        "指定緊急避難場所との住所同一": "",
        "その他市町村長が必要と認める事項": null,
        "受入対象者": null,
        "備考": ""
      }
    },
    {
      "type": "Feature",
      "geometry": {
        "type": "Point",
        "coordinates": [
          136.746288,
          35.063763
        ]
      },
      "properties": {
        "NO": 46651,
        "共通ID": "E2430300010111",
        "都道府県名及び市町村名": "三重県木曽岬町",
        "施設・場所名": "ふれあいの里",
        "住所": "三重県木曽岬町大字三崎666",
        "指定緊急避難場所との住所同一": "",
        "その他市町村長が必要と認める事項": null,
        "受入対象者": null,
        "備考": ""
      }
    },
    {
      "type": "Feature",
      "geometry": {
        "type": "Point",
        "coordinates": [
          136.731404,
          35.075953
        ]
      },
      "properties": {
        "NO": 46652,
        "共通ID": "E2430300011112",
        "都道府県名及び市町村名": "三重県木曽岬町",
        "施設・場所名": "町民ホール",
        "住所": "三重県木曽岬町大字西対海地251",
        "指定緊急避難場所との住所同一": "1",
        "その他市町村長が必要と認める事項": null,
        "受入対象者": null,
        "備考": ""
      }
    },
    {
      "type": "Feature",
      "geometry": {
        "type": "Point",
        "coordinates": [
          136.730527,
          35.075677
        ]
      },
      "properties": {
        "NO": 46653,
        "共通ID": "E2430300011121",
        "都道府県名及び市町村名": "三重県木曽岬町",
        "施設・場所名": "町立保健センター",
        "住所": "三重県木曽岬町大字西対海地251",
        "指定緊急避難場所との住所同一": "1",
        "その他市町村長が必要と認める事項": null,
        "受入対象者": "要配慮者のうち妊婦、乳幼児、障害児者",
        "備考": ""
      }
    },
    {
      "type": "Feature",
      "geometry": {
        "type": "Point",
        "coordinates": [
          136.730916,
          35.07583
        ]
      },
      "properties": {
        "NO": 46654,
        "共通ID": "E2430300011111",
        "都道府県名及び市町村名": "三重県木曽岬町",
        "施設・場所名": "福祉・教育センター",
        "住所": "三重県木曽岬町大字西対海地251",
        "指定緊急避難場所との住所同一": "1",
        "その他市町村長が必要と認める事項": null,
        "受入対象者": null,
        "備考": ""
      }
    },
    {
      "type": "Feature",
      "geometry": {
        "type": "Point",
        "coordinates": [
          136.732009,
          35.075797
        ]
      },
      "properties": {
        "NO": 46655,
        "共通ID": "E2430300012111",
        "都道府県名及び市町村名": "三重県木曽岬町",
        "施設・場所名": "ふるさと創生ホール",
        "住所": "三重県木曽岬町大字西対海地47-4",
        "指定緊急避難場所との住所同一": "",
        "その他市町村長が必要と認める事項": null,
        "受入対象者": null,
        "備考": ""
      }
    },
    {
      "type": "Feature",
      "geometry": {
        "type": "Point",
        "coordinates": [
          136.744408,
          35.075361
        ]
      },
      "properties": {
        "NO": 46656,
        "共通ID": "E2430300013111",
        "都道府県名及び市町村名": "三重県木曽岬町",
        "施設・場所名": "木曽岬中学校",
        "住所": "三重県木曽岬町大字中和泉361",
        "指定緊急避難場所との住所同一": "1",
        "その他市町村長が必要と認める事項": null,
        "受入対象者": null,
        "備考": ""
      }
    },
    {
      "type": "Feature",
      "geometry": {
        "type": "Point",
        "coordinates": [
          136.731628,
          35.07465
        ]
      },
      "properties": {
        "NO": 46657,
        "共通ID": "E2430300014111",
        "都道府県名及び市町村名": "三重県木曽岬町",
        "施設・場所名": "木曽岬小学校",
        "住所": "三重県木曽岬町大字田代160",
        "指定緊急避難場所との住所同一": "1",
        "その他市町村長が必要と認める事項": null,
        "受入対象者": null,
        "備考": ""
      }
    },
    {
      "type": "Feature",
      "geometry": {
        "type": "Point",
        "coordinates": [
          136.731153,
          35.074084
        ]
      },
      "properties": {
        "NO": 46658,
        "共通ID": "E2430300015111",
        "都道府県名及び市町村名": "三重県木曽岬町",
        "施設・場所名": "木曽岬町体育館",
        "住所": "三重県木曽岬町大字田代168",
        "指定緊急避難場所との住所同一": "",
        "その他市町村長が必要と認める事項": null,
        "受入対象者": null,
        "備考": ""
      }
    },
    {
      "type": "Feature",
      "geometry": {
        "type": "Point",
        "coordinates": [
          136.749493,
          35.069762
        ]
      },
      "properties": {
        "NO": 46659,
        "共通ID": "E2430300016111",
        "都道府県名及び市町村名": "三重県木曽岬町",
        "施設・場所名": "町立東部公民館",
        "住所": "三重県木曽岬町大字富田子303-4",
        "指定緊急避難場所との住所同一": "",
        "その他市町村長が必要と認める事項": null,
        "受入対象者": null,
        "備考": ""
      }
    },
    {
      "type": "Feature",
      "geometry": {
        "type": "Point",
        "coordinates": [
          136.735717,
          35.084718
        ]
      },
      "properties": {
        "NO": 46660,
        "共通ID": "E2430300019111",
        "都道府県名及び市町村名": "三重県木曽岬町",
        "施設・場所名": "木曽岬こども園",
        "住所": "三重県木曽岬町大字和泉431-1",
        "指定緊急避難場所との住所同一": "",
        "その他市町村長が必要と認める事項": null,
        "受入対象者": null,
        "備考": ""
      }
    },
    {
      "type": "Feature",
      "geometry": {
        "type": "Point",
        "coordinates": [
          136.751196,
          35.066368
        ]
      },
      "properties": {
        "NO": 46661,
        "共通ID": "E2430300020121",
        "都道府県名及び市町村名": "三重県木曽岬町",
        "施設・場所名": "社会福祉法人　慈幸会特別養護老人ホームすいせんの里",
        "住所": "三重県木曽岬町大字和富10-8",
        "指定緊急避難場所との住所同一": "",
        "その他市町村長が必要と認める事項": null,
        "受入対象者": "要介護者",
        "備考": ""
      }
    }
  ]
}