{
  "type": "FeatureCollection",
  "name": "243442",
  "features": [
    {
      "type": "Feature",
      "geometry": {
        "type": "Point",
        "coordinates": [
          136.68334,
          35.01052
        ]
      },
      "properties": {
        "NO": 46699,
        "共通ID": "E2434400001111",
        "都道府県名及び市町村名": "三重県川越町",
        "施設・場所名": "川越町総合体育館",
        "住所": "三重県川越町亀崎新田77-546",
        "指定緊急避難場所との住所同一": "1",
        "その他市町村長が必要と認める事項": null,
        "受入対象者": null,
        "備考": ""
      }
    },
    {
      "type": "Feature",
      "geometry": {
        "type": "Point",
        "coordinates": [
          136.692183,
          35.022654
        ]
      },
      "properties": {
        "NO": 46700,
        "共通ID": "E2434400003111",
        "都道府県名及び市町村名": "三重県川越町",
        "施設・場所名": "亀崎地区公民館",
        "住所": "三重県川越町亀崎新田83-6",
        "指定緊急避難場所との住所同一": "1",
        "その他市町村長が必要と認める事項": null,
        "受入対象者": null,
        "備考": ""
      }
    },
    {
      "type": "Feature",
      "geometry": {
        "type": "Point",
        "coordinates": [
          136.689898,
          35.030664
        ]
      },
      "properties": {
        "NO": 46701,
        "共通ID": "E2434400005111",
        "都道府県名及び市町村名": "三重県川越町",
        "施設・場所名": "亀須地区公民館",
        "住所": "三重県川越町亀須新田278-5",
        "指定緊急避難場所との住所同一": "1",
        "その他市町村長が必要と認める事項": null,
        "受入対象者": null,
        "備考": ""
      }
    },
    {
      "type": "Feature",
      "geometry": {
        "type": "Point",
        "coordinates": [
          136.679188,
          35.012613
        ]
      },
      "properties": {
        "NO": 46702,
        "共通ID": "E2434400006111",
        "都道府県名及び市町村名": "三重県川越町",
        "施設・場所名": "上吉地区公民館",
        "住所": "三重県川越町高松1301",
        "指定緊急避難場所との住所同一": "1",
        "その他市町村長が必要と認める事項": null,
        "受入対象者": null,
        "備考": ""
      }
    },
    {
      "type": "Feature",
      "geometry": {
        "type": "Point",
        "coordinates": [
          136.666109,
          35.022322
        ]
      },
      "properties": {
        "NO": 46703,
        "共通ID": "E2434400008111",
        "都道府県名及び市町村名": "三重県川越町",
        "施設・場所名": "川越南小学校",
        "住所": "三重県川越町高松258",
        "指定緊急避難場所との住所同一": "1",
        "その他市町村長が必要と認める事項": null,
        "受入対象者": null,
        "備考": ""
      }
    },
    {
      "type": "Feature",
      "geometry": {
        "type": "Point",
        "coordinates": [
          136.671971,
          35.017888
        ]
      },
      "properties": {
        "NO": 46704,
        "共通ID": "E2434400009111",
        "都道府県名及び市町村名": "三重県川越町",
        "施設・場所名": "高松地区公民館",
        "住所": "三重県川越町高松380-1",
        "指定緊急避難場所との住所同一": "1",
        "その他市町村長が必要と認める事項": null,
        "受入対象者": null,
        "備考": ""
      }
    },
    {
      "type": "Feature",
      "geometry": {
        "type": "Point",
        "coordinates": [
          136.687073,
          35.023693
        ]
      },
      "properties": {
        "NO": 46705,
        "共通ID": "E2434400026121",
        "都道府県名及び市町村名": "三重県川越町",
        "施設・場所名": "よつばの里",
        "住所": "三重県川越町大字亀崎新田21-11",
        "指定緊急避難場所との住所同一": "",
        "その他市町村長が必要と認める事項": "町が受入調整した者",
        "受入対象者": "身体障害者、精神障害者、知的障害者",
        "備考": ""
      }
    },
    {
      "type": "Feature",
      "geometry": {
        "type": "Point",
        "coordinates": [
          136.687223,
          35.023539
        ]
      },
      "properties": {
        "NO": 46706,
        "共通ID": "E2434400025121",
        "都道府県名及び市町村名": "三重県川越町",
        "施設・場所名": "かわごえよつばの里",
        "住所": "三重県川越町大字亀崎新田21-12",
        "指定緊急避難場所との住所同一": "1",
        "その他市町村長が必要と認める事項": "町が受入調整した者",
        "受入対象者": "身体障害者、精神障害者、知的障害者",
        "備考": ""
      }
    },
    {
      "type": "Feature",
      "geometry": {
        "type": "Point",
        "coordinates": [
          136.678003,
          35.019632
        ]
      },
      "properties": {
        "NO": 46707,
        "共通ID": "E2434400013111",
        "都道府県名及び市町村名": "三重県川越町",
        "施設・場所名": "南福崎地区公民館",
        "住所": "三重県川越町南福崎405",
        "指定緊急避難場所との住所同一": "1",
        "その他市町村長が必要と認める事項": null,
        "受入対象者": null,
        "備考": ""
      }
    },
    {
      "type": "Feature",
      "geometry": {
        "type": "Point",
        "coordinates": [
          136.666284,
          35.027988
        ]
      },
      "properties": {
        "NO": 46708,
        "共通ID": "E2434400014111",
        "都道府県名及び市町村名": "三重県川越町",
        "施設・場所名": "三重県立川越高等学校",
        "住所": "三重県川越町豊田2303-1",
        "指定緊急避難場所との住所同一": "1",
        "その他市町村長が必要と認める事項": null,
        "受入対象者": null,
        "備考": ""
      }
    },
    {
      "type": "Feature",
      "geometry": {
        "type": "Point",
        "coordinates": [
          136.661686,
          35.013965
        ]
      },
      "properties": {
        "NO": 46709,
        "共通ID": "E2434400015111",
        "都道府県名及び市町村名": "三重県川越町",
        "施設・場所名": "天神地区公民館",
        "住所": "三重県川越町豊田373-2",
        "指定緊急避難場所との住所同一": "1",
        "その他市町村長が必要と認める事項": null,
        "受入対象者": null,
        "備考": ""
      }
    },
    {
      "type": "Feature",
      "geometry": {
        "type": "Point",
        "coordinates": [
          136.661217,
          35.022884
        ]
      },
      "properties": {
        "NO": 46710,
        "共通ID": "E2434400017111",
        "都道府県名及び市町村名": "三重県川越町",
        "施設・場所名": "豊田地区公民館",
        "住所": "三重県川越町豊田927-1",
        "指定緊急避難場所との住所同一": "1",
        "その他市町村長が必要と認める事項": null,
        "受入対象者": null,
        "備考": ""
      }
    },
    {
      "type": "Feature",
      "geometry": {
        "type": "Point",
        "coordinates": [
          136.671037,
          35.026021
        ]
      },
      "properties": {
        "NO": 46711,
        "共通ID": "E2434400010121",
        "都道府県名及び市町村名": "三重県川越町",
        "施設・場所名": "川越町いきいきセンター",
        "住所": "三重県川越町豊田一色314",
        "指定緊急避難場所との住所同一": "1",
        "その他市町村長が必要と認める事項": "",
        "受入対象者": "要配慮者",
        "備考": ""
      }
    },
    {
      "type": "Feature",
      "geometry": {
        "type": "Point",
        "coordinates": [
          136.670308,
          35.026333
        ]
      },
      "properties": {
        "NO": 46712,
        "共通ID": "E2434400010111",
        "都道府県名及び市町村名": "三重県川越町",
        "施設・場所名": "川越町あいあいセンター",
        "住所": "三重県川越町豊田一色314",
        "指定緊急避難場所との住所同一": "1",
        "その他市町村長が必要と認める事項": "",
        "受入対象者": "",
        "備考": ""
      }
    },
    {
      "type": "Feature",
      "geometry": {
        "type": "Point",
        "coordinates": [
          136.670257,
          35.025882
        ]
      },
      "properties": {
        "NO": 46713,
        "共通ID": "E2434400020111",
        "都道府県名及び市町村名": "三重県川越町",
        "施設・場所名": "豊田一色地区公民館",
        "住所": "三重県川越町豊田一色320",
        "指定緊急避難場所との住所同一": "1",
        "その他市町村長が必要と認める事項": null,
        "受入対象者": null,
        "備考": ""
      }
    },
    {
      "type": "Feature",
      "geometry": {
        "type": "Point",
        "coordinates": [
          136.670522,
          35.025279
        ]
      },
      "properties": {
        "NO": 46714,
        "共通ID": "E2434400021111",
        "都道府県名及び市町村名": "三重県川越町",
        "施設・場所名": "川越中学校",
        "住所": "三重県川越町豊田一色67",
        "指定緊急避難場所との住所同一": "1",
        "その他市町村長が必要と認める事項": null,
        "受入対象者": null,
        "備考": ""
      }
    },
    {
      "type": "Feature",
      "geometry": {
        "type": "Point",
        "coordinates": [
          136.669865,
          35.02365
        ]
      },
      "properties": {
        "NO": 46715,
        "共通ID": "E2434400022111",
        "都道府県名及び市町村名": "三重県川越町",
        "施設・場所名": "川越北小学校",
        "住所": "三重県川越町豊田一色69",
        "指定緊急避難場所との住所同一": "1",
        "その他市町村長が必要と認める事項": null,
        "受入対象者": null,
        "備考": ""
      }
    },
    {
      "type": "Feature",
      "geometry": {
        "type": "Point",
        "coordinates": [
          136.678234,
          35.03111
        ]
      },
      "properties": {
        "NO": 46716,
        "共通ID": "E2434400023111",
        "都道府県名及び市町村名": "三重県川越町",
        "施設・場所名": "北福崎地区公民館",
        "住所": "三重県川越町北福崎45-1",
        "指定緊急避難場所との住所同一": "1",
        "その他市町村長が必要と認める事項": null,
        "受入対象者": null,
        "備考": ""
      }
    },
    {
      "type": "Feature",
      "geometry": {
        "type": "Point",
        "coordinates": [
          136.681547,
          35.034432
        ]
      },
      "properties": {
        "NO": 46717,
        "共通ID": "E2434400024111",
        "都道府県名及び市町村名": "三重県川越町",
        "施設・場所名": "当新田地区公民館",
        "住所": "三重県朝日町縄生1142-1",
        "指定緊急避難場所との住所同一": "1",
        "その他市町村長が必要と認める事項": null,
        "受入対象者": null,
        "備考": ""
      }
    }
  ]
}