{
  "type": "FeatureCollection",
  "name": "244619",
  "features": [
    {
      "type": "Feature",
      "geometry": {
        "type": "Point",
        "coordinates": [
          136.626771,
          34.495517
        ]
      },
      "properties": {
        "NO": 46830,
        "共通ID": "E2446100001111",
        "都道府県名及び市町村名": "三重県玉城町",
        "施設・場所名": "玉城町中央公民館",
        "住所": "三重県玉城町下田辺800",
        "指定緊急避難場所との住所同一": "",
        "その他市町村長が必要と認める事項": null,
        "受入対象者": null,
        "備考": ""
      }
    },
    {
      "type": "Feature",
      "geometry": {
        "type": "Point",
        "coordinates": [
          136.601531,
          34.483371
        ]
      },
      "properties": {
        "NO": 46831,
        "共通ID": "E2446100002111",
        "都道府県名及び市町村名": "三重県玉城町",
        "施設・場所名": "玉城町立外城田小学校",
        "住所": "三重県玉城町蚊野2018",
        "指定緊急避難場所との住所同一": "",
        "その他市町村長が必要と認める事項": null,
        "受入対象者": null,
        "備考": ""
      }
    },
    {
      "type": "Feature",
      "geometry": {
        "type": "Point",
        "coordinates": [
          136.633477,
          34.493863
        ]
      },
      "properties": {
        "NO": 46832,
        "共通ID": "E2446100003111",
        "都道府県名及び市町村名": "三重県玉城町",
        "施設・場所名": "玉城町立田丸小学校",
        "住所": "三重県玉城町佐田1247",
        "指定緊急避難場所との住所同一": "",
        "その他市町村長が必要と認める事項": null,
        "受入対象者": null,
        "備考": ""
      }
    },
    {
      "type": "Feature",
      "geometry": {
        "type": "Point",
        "coordinates": [
          136.628649,
          34.487011
        ]
      },
      "properties": {
        "NO": 46833,
        "共通ID": "E2446100004111",
        "都道府県名及び市町村名": "三重県玉城町",
        "施設・場所名": "玉城町保健福祉会館",
        "住所": "三重県玉城町勝田4876-1",
        "指定緊急避難場所との住所同一": "1",
        "その他市町村長が必要と認める事項": "",
        "受入対象者": "",
        "備考": ""
      }
    },
    {
      "type": "Feature",
      "geometry": {
        "type": "Point",
        "coordinates": [
          136.628586,
          34.48709
        ]
      },
      "properties": {
        "NO": 46834,
        "共通ID": "E2446100004121",
        "都道府県名及び市町村名": "三重県玉城町",
        "施設・場所名": "保健福祉会館",
        "住所": "三重県玉城町勝田4876-1",
        "指定緊急避難場所との住所同一": "1",
        "その他市町村長が必要と認める事項": "",
        "受入対象者": "要配慮者",
        "備考": ""
      }
    },
    {
      "type": "Feature",
      "geometry": {
        "type": "Point",
        "coordinates": [
          136.650057,
          34.477385
        ]
      },
      "properties": {
        "NO": 46835,
        "共通ID": "E2446100005111",
        "都道府県名及び市町村名": "三重県玉城町",
        "施設・場所名": "玉城町立下外城田小学校",
        "住所": "三重県玉城町小社曽根776",
        "指定緊急避難場所との住所同一": "",
        "その他市町村長が必要と認める事項": null,
        "受入対象者": null,
        "備考": ""
      }
    },
    {
      "type": "Feature",
      "geometry": {
        "type": "Point",
        "coordinates": [
          136.639521,
          34.506823
        ]
      },
      "properties": {
        "NO": 46836,
        "共通ID": "E2446100006111",
        "都道府県名及び市町村名": "三重県玉城町",
        "施設・場所名": "玉城町立有田小学校",
        "住所": "三重県玉城町長更376",
        "指定緊急避難場所との住所同一": "",
        "その他市町村長が必要と認める事項": null,
        "受入対象者": null,
        "備考": ""
      }
    },
    {
      "type": "Feature",
      "geometry": {
        "type": "Point",
        "coordinates": [
          136.629574,
          34.490978
        ]
      },
      "properties": {
        "NO": 46837,
        "共通ID": "E2446100007111",
        "都道府県名及び市町村名": "三重県玉城町",
        "施設・場所名": "玉城町立玉城中学校",
        "住所": "三重県玉城町田丸114-1",
        "指定緊急避難場所との住所同一": "",
        "その他市町村長が必要と認める事項": null,
        "受入対象者": null,
        "備考": ""
      }
    }
  ]
}