{
  "type": "FeatureCollection",
  "name": "244708",
  "features": [
    {
      "type": "Feature",
      "geometry": {
        "type": "Point",
        "coordinates": [
          136.633992,
          34.476226
        ]
      },
      "properties": {
        "NO": 46838,
        "共通ID": "E2447000001121",
        "都道府県名及び市町村名": "三重県度会町",
        "施設・場所名": "指定障害者支援施設・指定生活介護事業所宮の里ミタスメモリアルホーム",
        "住所": "三重県玉城町宮古728-18",
        "指定緊急避難場所との住所同一": "",
        "その他市町村長が必要と認める事項": null,
        "受入対象者": "障がい者",
        "備考": ""
      }
    },
    {
      "type": "Feature",
      "geometry": {
        "type": "Point",
        "coordinates": [
          136.621539,
          34.438707
        ]
      },
      "properties": {
        "NO": 46839,
        "共通ID": "E2447000002121",
        "都道府県名及び市町村名": "三重県度会町",
        "施設・場所名": "指定介護老人福祉施設特別養護老人ホームわたらい綠清苑",
        "住所": "三重県度会町棚橋1202",
        "指定緊急避難場所との住所同一": "",
        "その他市町村長が必要と認める事項": null,
        "受入対象者": "高齢者",
        "備考": ""
      }
    },
    {
      "type": "Feature",
      "geometry": {
        "type": "Point",
        "coordinates": [
          136.621624,
          34.438317
        ]
      },
      "properties": {
        "NO": 46840,
        "共通ID": "E2447000002122",
        "都道府県名及び市町村名": "三重県度会町",
        "施設・場所名": "度会町地域福祉センター本所",
        "住所": "三重県度会町棚橋1202",
        "指定緊急避難場所との住所同一": "",
        "その他市町村長が必要と認める事項": null,
        "受入対象者": "高齢者・障がい者",
        "備考": ""
      }
    },
    {
      "type": "Feature",
      "geometry": {
        "type": "Point",
        "coordinates": [
          136.622432,
          34.43895
        ]
      },
      "properties": {
        "NO": 46841,
        "共通ID": "E2447000003111",
        "都道府県名及び市町村名": "三重県度会町",
        "施設・場所名": "保健センター",
        "住所": "三重県度会町棚橋1215-1",
        "指定緊急避難場所との住所同一": "1",
        "その他市町村長が必要と認める事項": null,
        "受入対象者": null,
        "備考": ""
      }
    },
    {
      "type": "Feature",
      "geometry": {
        "type": "Point",
        "coordinates": [
          136.618123,
          34.435393
        ]
      },
      "properties": {
        "NO": 46842,
        "共通ID": "E2447000005111",
        "都道府県名及び市町村名": "三重県度会町",
        "施設・場所名": "度会小学校体育館",
        "住所": "三重県度会町棚橋1679-1",
        "指定緊急避難場所との住所同一": "1",
        "その他市町村長が必要と認める事項": null,
        "受入対象者": null,
        "備考": ""
      }
    },
    {
      "type": "Feature",
      "geometry": {
        "type": "Point",
        "coordinates": [
          136.62724,
          34.431885
        ]
      },
      "properties": {
        "NO": 46843,
        "共通ID": "E2447000007111",
        "都道府県名及び市町村名": "三重県度会町",
        "施設・場所名": "度会中学校体育館",
        "住所": "三重県度会町棚橋300",
        "指定緊急避難場所との住所同一": "1",
        "その他市町村長が必要と認める事項": "",
        "受入対象者": "",
        "備考": ""
      }
    },
    {
      "type": "Feature",
      "geometry": {
        "type": "Point",
        "coordinates": [
          136.625883,
          34.432354
        ]
      },
      "properties": {
        "NO": 46844,
        "共通ID": "E2447000007112",
        "都道府県名及び市町村名": "三重県度会町",
        "施設・場所名": "町民体育館",
        "住所": "三重県度会町棚橋300",
        "指定緊急避難場所との住所同一": "1",
        "その他市町村長が必要と認める事項": "",
        "受入対象者": "",
        "備考": ""
      }
    },
    {
      "type": "Feature",
      "geometry": {
        "type": "Point",
        "coordinates": [
          136.625858,
          34.432687
        ]
      },
      "properties": {
        "NO": 46845,
        "共通ID": "E2447000008111",
        "都道府県名及び市町村名": "三重県度会町",
        "施設・場所名": "中央公民館",
        "住所": "三重県度会町棚橋314",
        "指定緊急避難場所との住所同一": "1",
        "その他市町村長が必要と認める事項": "",
        "受入対象者": "",
        "備考": ""
      }
    },
    {
      "type": "Feature",
      "geometry": {
        "type": "Point",
        "coordinates": [
          136.603555,
          34.405692
        ]
      },
      "properties": {
        "NO": 46846,
        "共通ID": "E2447000010111",
        "都道府県名及び市町村名": "三重県度会町",
        "施設・場所名": "小川郷体育館",
        "住所": "三重県度会町中之郷1025",
        "指定緊急避難場所との住所同一": "1",
        "その他市町村長が必要と認める事項": null,
        "受入対象者": null,
        "備考": ""
      }
    },
    {
      "type": "Feature",
      "geometry": {
        "type": "Point",
        "coordinates": [
          136.605852,
          34.405301
        ]
      },
      "properties": {
        "NO": 46847,
        "共通ID": "E2447000011111",
        "都道府県名及び市町村名": "三重県度会町",
        "施設・場所名": "中之郷生活改善センター",
        "住所": "三重県度会町中之郷1157-5",
        "指定緊急避難場所との住所同一": "1",
        "その他市町村長が必要と認める事項": null,
        "受入対象者": null,
        "備考": ""
      }
    },
    {
      "type": "Feature",
      "geometry": {
        "type": "Point",
        "coordinates": [
          136.600913,
          34.435692
        ]
      },
      "properties": {
        "NO": 46848,
        "共通ID": "E2447000013121",
        "都道府県名及び市町村名": "三重県度会町",
        "施設・場所名": "特別養護老人ホームかりん",
        "住所": "三重県度会町田間319-18",
        "指定緊急避難場所との住所同一": "",
        "その他市町村長が必要と認める事項": null,
        "受入対象者": "高齢者",
        "備考": ""
      }
    },
    {
      "type": "Feature",
      "geometry": {
        "type": "Point",
        "coordinates": [
          136.592482,
          34.344476
        ]
      },
      "properties": {
        "NO": 46849,
        "共通ID": "E2447000014121",
        "都道府県名及び市町村名": "三重県度会町",
        "施設・場所名": "度会町地域福祉センター一之瀬支所",
        "住所": "三重県度会町南中村1956",
        "指定緊急避難場所との住所同一": "",
        "その他市町村長が必要と認める事項": null,
        "受入対象者": "高齢者",
        "備考": ""
      }
    },
    {
      "type": "Feature",
      "geometry": {
        "type": "Point",
        "coordinates": [
          136.555982,
          34.437173
        ]
      },
      "properties": {
        "NO": 46850,
        "共通ID": "E2447000015111",
        "都道府県名及び市町村名": "三重県度会町",
        "施設・場所名": "中川体育館",
        "住所": "三重県度会町麻加江516-1",
        "指定緊急避難場所との住所同一": "1",
        "その他市町村長が必要と認める事項": null,
        "受入対象者": null,
        "備考": ""
      }
    },
    {
      "type": "Feature",
      "geometry": {
        "type": "Point",
        "coordinates": [
          136.55653,
          34.437381
        ]
      },
      "properties": {
        "NO": 46851,
        "共通ID": "E2447000015121",
        "都道府県名及び市町村名": "三重県度会町",
        "施設・場所名": "グループホームわたらい",
        "住所": "三重県度会町麻加江516-1",
        "指定緊急避難場所との住所同一": "1",
        "その他市町村長が必要と認める事項": null,
        "受入対象者": "高齢者",
        "備考": ""
      }
    },
    {
      "type": "Feature",
      "geometry": {
        "type": "Point",
        "coordinates": [
          136.556626,
          34.437368
        ]
      },
      "properties": {
        "NO": 46852,
        "共通ID": "E2447000015122",
        "都道府県名及び市町村名": "三重県度会町",
        "施設・場所名": "小規模多機能型居宅介護わたらい",
        "住所": "三重県度会町麻加江516-1",
        "指定緊急避難場所との住所同一": "1",
        "その他市町村長が必要と認める事項": null,
        "受入対象者": "高齢者",
        "備考": ""
      }
    },
    {
      "type": "Feature",
      "geometry": {
        "type": "Point",
        "coordinates": [
          136.557581,
          34.437869
        ]
      },
      "properties": {
        "NO": 46853,
        "共通ID": "E2447000016111",
        "都道府県名及び市町村名": "三重県度会町",
        "施設・場所名": "麻加江生活改善センター",
        "住所": "三重県度会町麻加江603-2",
        "指定緊急避難場所との住所同一": "1",
        "その他市町村長が必要と認める事項": null,
        "受入対象者": null,
        "備考": ""
      }
    },
    {
      "type": "Feature",
      "geometry": {
        "type": "Point",
        "coordinates": [
          136.587653,
          34.35095
        ]
      },
      "properties": {
        "NO": 46854,
        "共通ID": "E2447000017111",
        "都道府県名及び市町村名": "三重県度会町",
        "施設・場所名": "一之瀬公民館",
        "住所": "三重県度会町脇出329",
        "指定緊急避難場所との住所同一": "1",
        "その他市町村長が必要と認める事項": null,
        "受入対象者": null,
        "備考": ""
      }
    },
    {
      "type": "Feature",
      "geometry": {
        "type": "Point",
        "coordinates": [
          136.589726,
          34.351711
        ]
      },
      "properties": {
        "NO": 46855,
        "共通ID": "E2447000018111",
        "都道府県名及び市町村名": "三重県度会町",
        "施設・場所名": "一之瀬体育館",
        "住所": "三重県度会町脇出372",
        "指定緊急避難場所との住所同一": "1",
        "その他市町村長が必要と認める事項": null,
        "受入対象者": null,
        "備考": ""
      }
    }
  ]
}