{
  "type": "FeatureCollection",
  "name": "253847",
  "features": [
    {
      "type": "Feature",
      "geometry": {
        "type": "Point",
        "coordinates": [
          136.127068,
          35.066834
        ]
      },
      "properties": {
        "NO": 47995,
        "共通ID": "E2538400001111",
        "都道府県名及び市町村名": "滋賀県竜王町",
        "施設・場所名": "竜王小学校",
        "住所": "滋賀県竜王町大字綾戸275",
        "指定緊急避難場所との住所同一": "1",
        "その他市町村長が必要と認める事項": null,
        "受入対象者": null,
        "備考": ""
      }
    },
    {
      "type": "Feature",
      "geometry": {
        "type": "Point",
        "coordinates": [
          136.116463,
          35.051737
        ]
      },
      "properties": {
        "NO": 47996,
        "共通ID": "E2538400002111",
        "都道府県名及び市町村名": "滋賀県竜王町",
        "施設・場所名": "総合運動公園",
        "住所": "滋賀県竜王町大字岡屋3282",
        "指定緊急避難場所との住所同一": "1",
        "その他市町村長が必要と認める事項": null,
        "受入対象者": null,
        "備考": ""
      }
    },
    {
      "type": "Feature",
      "geometry": {
        "type": "Point",
        "coordinates": [
          136.124513,
          35.075886
        ]
      },
      "properties": {
        "NO": 47997,
        "共通ID": "E2538400003111",
        "都道府県名及び市町村名": "滋賀県竜王町",
        "施設・場所名": "竜王中学校",
        "住所": "滋賀県竜王町大字橋本15",
        "指定緊急避難場所との住所同一": "1",
        "その他市町村長が必要と認める事項": null,
        "受入対象者": null,
        "備考": ""
      }
    },
    {
      "type": "Feature",
      "geometry": {
        "type": "Point",
        "coordinates": [
          136.145389,
          35.043689
        ]
      },
      "properties": {
        "NO": 47998,
        "共通ID": "E2538400004111",
        "都道府県名及び市町村名": "滋賀県竜王町",
        "施設・場所名": "道の駅アグリパーク竜王",
        "住所": "滋賀県竜王町大字山之上6526",
        "指定緊急避難場所との住所同一": "1",
        "その他市町村長が必要と認める事項": null,
        "受入対象者": null,
        "備考": ""
      }
    },
    {
      "type": "Feature",
      "geometry": {
        "type": "Point",
        "coordinates": [
          136.099386,
          35.075525
        ]
      },
      "properties": {
        "NO": 47999,
        "共通ID": "E2538400005111",
        "都道府県名及び市町村名": "滋賀県竜王町",
        "施設・場所名": "竜王西小学校",
        "住所": "滋賀県竜王町大字山面1-1",
        "指定緊急避難場所との住所同一": "1",
        "その他市町村長が必要と認める事項": null,
        "受入対象者": null,
        "備考": ""
      }
    },
    {
      "type": "Feature",
      "geometry": {
        "type": "Point",
        "coordinates": [
          136.124424,
          35.062202
        ]
      },
      "properties": {
        "NO": 48000,
        "共通ID": "E2538400006111",
        "都道府県名及び市町村名": "滋賀県竜王町",
        "施設・場所名": "竜王町公民館",
        "住所": "滋賀県竜王町大字小口276-1",
        "指定緊急避難場所との住所同一": "1",
        "その他市町村長が必要と認める事項": null,
        "受入対象者": null,
        "備考": ""
      }
    }
  ]
}