{
  "type": "FeatureCollection",
  "name": "254436",
  "features": [
    {
      "type": "Feature",
      "geometry": {
        "type": "Point",
        "coordinates": [
          136.336028,
          35.175993
        ]
      },
      "properties": {
        "NO": 48022,
        "共通ID": "E2544300001111",
        "都道府県名及び市町村名": "滋賀県多賀町",
        "施設・場所名": "森林資源活用センター",
        "住所": "滋賀県多賀町萱原1309",
        "指定緊急避難場所との住所同一": "",
        "その他市町村長が必要と認める事項": null,
        "受入対象者": null,
        "備考": ""
      }
    },
    {
      "type": "Feature",
      "geometry": {
        "type": "Point",
        "coordinates": [
          136.297137,
          35.229526
        ]
      },
      "properties": {
        "NO": 48023,
        "共通ID": "E2544300003111",
        "都道府県名及び市町村名": "滋賀県多賀町",
        "施設・場所名": "多賀町中央公民館「多賀結いの森」",
        "住所": "滋賀県多賀町久徳160-2",
        "指定緊急避難場所との住所同一": "1",
        "その他市町村長が必要と認める事項": null,
        "受入対象者": null,
        "備考": ""
      }
    },
    {
      "type": "Feature",
      "geometry": {
        "type": "Point",
        "coordinates": [
          136.299968,
          35.232052
        ]
      },
      "properties": {
        "NO": 48024,
        "共通ID": "E2544300017111",
        "都道府県名及び市町村名": "滋賀県多賀町",
        "施設・場所名": "多賀町立久徳うぐいすこども園",
        "住所": "滋賀県多賀町久徳844-1",
        "指定緊急避難場所との住所同一": "",
        "その他市町村長が必要と認める事項": "",
        "受入対象者": "",
        "備考": ""
      }
    },
    {
      "type": "Feature",
      "geometry": {
        "type": "Point",
        "coordinates": [
          136.302849,
          35.221006
        ]
      },
      "properties": {
        "NO": 48025,
        "共通ID": "E2544300005111",
        "都道府県名及び市町村名": "滋賀県多賀町",
        "施設・場所名": "あけぼのパーク多賀",
        "住所": "滋賀県多賀町四手976-1",
        "指定緊急避難場所との住所同一": "1",
        "その他市町村長が必要と認める事項": null,
        "受入対象者": null,
        "備考": ""
      }
    },
    {
      "type": "Feature",
      "geometry": {
        "type": "Point",
        "coordinates": [
          136.313268,
          35.188023
        ]
      },
      "properties": {
        "NO": 48026,
        "共通ID": "E2544300007111",
        "都道府県名及び市町村名": "滋賀県多賀町",
        "施設・場所名": "大滝小学校",
        "住所": "滋賀県多賀町川相568",
        "指定緊急避難場所との住所同一": "1",
        "その他市町村長が必要と認める事項": null,
        "受入対象者": null,
        "備考": ""
      }
    },
    {
      "type": "Feature",
      "geometry": {
        "type": "Point",
        "coordinates": [
          136.295199,
          35.22338
        ]
      },
      "properties": {
        "NO": 48027,
        "共通ID": "E2544300008111",
        "都道府県名及び市町村名": "滋賀県多賀町",
        "施設・場所名": "多賀中学校",
        "住所": "滋賀県多賀町多賀210",
        "指定緊急避難場所との住所同一": "1",
        "その他市町村長が必要と認める事項": null,
        "受入対象者": null,
        "備考": ""
      }
    },
    {
      "type": "Feature",
      "geometry": {
        "type": "Point",
        "coordinates": [
          136.292453,
          35.22306
        ]
      },
      "properties": {
        "NO": 48028,
        "共通ID": "E2544300009121",
        "都道府県名及び市町村名": "滋賀県多賀町",
        "施設・場所名": "多賀町総合福祉保健センター「ふれあいの郷」",
        "住所": "滋賀県多賀町多賀221-1",
        "指定緊急避難場所との住所同一": "",
        "その他市町村長が必要と認める事項": null,
        "受入対象者": "要配慮者",
        "備考": ""
      }
    },
    {
      "type": "Feature",
      "geometry": {
        "type": "Point",
        "coordinates": [
          136.294161,
          35.21934
        ]
      },
      "properties": {
        "NO": 48029,
        "共通ID": "E2544300010111",
        "都道府県名及び市町村名": "滋賀県多賀町",
        "施設・場所名": "Ｂ＆Ｇ海洋センター",
        "住所": "滋賀県多賀町多賀245-2",
        "指定緊急避難場所との住所同一": "1",
        "その他市町村長が必要と認める事項": null,
        "受入対象者": null,
        "備考": ""
      }
    },
    {
      "type": "Feature",
      "geometry": {
        "type": "Point",
        "coordinates": [
          136.2871,
          35.224015
        ]
      },
      "properties": {
        "NO": 48030,
        "共通ID": "E2544300012111",
        "都道府県名及び市町村名": "滋賀県多賀町",
        "施設・場所名": "多賀小学校",
        "住所": "滋賀県多賀町多賀738",
        "指定緊急避難場所との住所同一": "1",
        "その他市町村長が必要と認める事項": null,
        "受入対象者": null,
        "備考": ""
      }
    },
    {
      "type": "Feature",
      "geometry": {
        "type": "Point",
        "coordinates": [
          136.372736,
          35.209743
        ]
      },
      "properties": {
        "NO": 48031,
        "共通ID": "E2544300013111",
        "都道府県名及び市町村名": "滋賀県多賀町",
        "施設・場所名": "大君ケ畑体育館",
        "住所": "滋賀県多賀町大君ケ畑558",
        "指定緊急避難場所との住所同一": "1",
        "その他市町村長が必要と認める事項": null,
        "受入対象者": null,
        "備考": ""
      }
    },
    {
      "type": "Feature",
      "geometry": {
        "type": "Point",
        "coordinates": [
          136.282456,
          35.215832
        ]
      },
      "properties": {
        "NO": 48032,
        "共通ID": "E2544300015111",
        "都道府県名及び市町村名": "滋賀県多賀町",
        "施設・場所名": "清涼文化センター",
        "住所": "滋賀県多賀町敏満寺214",
        "指定緊急避難場所との住所同一": "",
        "その他市町村長が必要と認める事項": null,
        "受入対象者": null,
        "備考": ""
      }
    },
    {
      "type": "Feature",
      "geometry": {
        "type": "Point",
        "coordinates": [
          136.296752,
          35.191733
        ]
      },
      "properties": {
        "NO": 48033,
        "共通ID": "E2544300016111",
        "都道府県名及び市町村名": "滋賀県多賀町",
        "施設・場所名": "滝の宮スポーツ公園",
        "住所": "滋賀県多賀町富之尾1586-5",
        "指定緊急避難場所との住所同一": "1",
        "その他市町村長が必要と認める事項": null,
        "受入対象者": null,
        "備考": ""
      }
    }
  ]
}