{
  "type": "FeatureCollection",
  "name": "262072",
  "features": [
    {
      "type": "Feature",
      "geometry": {
        "type": "Point",
        "coordinates": [
          135.79929,
          34.83439
        ]
      },
      "properties": {
        "NO": 48783,
        "共通ID": "E2620700001111",
        "都道府県名及び市町村名": "京都府城陽市",
        "施設・場所名": "城陽市立南城陽中学校",
        "住所": "京都府城陽市観音堂巽畑17-4",
        "指定緊急避難場所との住所同一": "1",
        "その他市町村長が必要と認める事項": null,
        "受入対象者": null,
        "備考": ""
      }
    },
    {
      "type": "Feature",
      "geometry": {
        "type": "Point",
        "coordinates": [
          135.78333,
          34.86102
        ]
      },
      "properties": {
        "NO": 48784,
        "共通ID": "E2620700002111",
        "都道府県名及び市町村名": "京都府城陽市",
        "施設・場所名": "城陽市立東部老人福祉センター（陽東苑）",
        "住所": "京都府城陽市久世芝ケ原131",
        "指定緊急避難場所との住所同一": "1",
        "その他市町村長が必要と認める事項": "",
        "受入対象者": "",
        "備考": ""
      }
    },
    {
      "type": "Feature",
      "geometry": {
        "type": "Point",
        "coordinates": [
          135.78033,
          34.86088
        ]
      },
      "properties": {
        "NO": 48785,
        "共通ID": "E2620700003111",
        "都道府県名及び市町村名": "京都府城陽市",
        "施設・場所名": "城陽市立久世小学校",
        "住所": "京都府城陽市久世芝ケ原143",
        "指定緊急避難場所との住所同一": "1",
        "その他市町村長が必要と認める事項": null,
        "受入対象者": null,
        "備考": ""
      }
    },
    {
      "type": "Feature",
      "geometry": {
        "type": "Point",
        "coordinates": [
          135.78106,
          34.86067
        ]
      },
      "properties": {
        "NO": 48786,
        "共通ID": "E2620700004111",
        "都道府県名及び市町村名": "京都府城陽市",
        "施設・場所名": "城陽市立久世保育園",
        "住所": "京都府城陽市久世芝ケ原74-1",
        "指定緊急避難場所との住所同一": "1",
        "その他市町村長が必要と認める事項": null,
        "受入対象者": null,
        "備考": ""
      }
    },
    {
      "type": "Feature",
      "geometry": {
        "type": "Point",
        "coordinates": [
          135.79469,
          34.86402
        ]
      },
      "properties": {
        "NO": 48787,
        "共通ID": "E2620700005111",
        "都道府県名及び市町村名": "京都府城陽市",
        "施設・場所名": "城陽市立東城陽中学校",
        "住所": "京都府城陽市久世上大谷24",
        "指定緊急避難場所との住所同一": "1",
        "その他市町村長が必要と認める事項": null,
        "受入対象者": null,
        "備考": ""
      }
    },
    {
      "type": "Feature",
      "geometry": {
        "type": "Point",
        "coordinates": [
          135.76821,
          34.85946
        ]
      },
      "properties": {
        "NO": 48788,
        "共通ID": "E2620700006111",
        "都道府県名及び市町村名": "京都府城陽市",
        "施設・場所名": "私立里の西保育園",
        "住所": "京都府城陽市久世里ノ西66-1",
        "指定緊急避難場所との住所同一": "1",
        "その他市町村長が必要と認める事項": null,
        "受入対象者": null,
        "備考": ""
      }
    },
    {
      "type": "Feature",
      "geometry": {
        "type": "Point",
        "coordinates": [
          135.80013,
          34.82834
        ]
      },
      "properties": {
        "NO": 48789,
        "共通ID": "E2620700007111",
        "都道府県名及び市町村名": "京都府城陽市",
        "施設・場所名": "城陽市立青谷コミュニティセンター",
        "住所": "京都府城陽市市辺五島7-1",
        "指定緊急避難場所との住所同一": "1",
        "その他市町村長が必要と認める事項": null,
        "受入対象者": null,
        "備考": ""
      }
    },
    {
      "type": "Feature",
      "geometry": {
        "type": "Point",
        "coordinates": [
          135.80164,
          34.85548
        ]
      },
      "properties": {
        "NO": 48790,
        "共通ID": "E2620700008111",
        "都道府県名及び市町村名": "京都府城陽市",
        "施設・場所名": "城陽市民体育館",
        "住所": "京都府城陽市寺田奥山1",
        "指定緊急避難場所との住所同一": "1",
        "その他市町村長が必要と認める事項": null,
        "受入対象者": null,
        "備考": ""
      }
    },
    {
      "type": "Feature",
      "geometry": {
        "type": "Point",
        "coordinates": [
          135.76886,
          34.85583
        ]
      },
      "properties": {
        "NO": 48791,
        "共通ID": "E2620700009111",
        "都道府県名及び市町村名": "京都府城陽市",
        "施設・場所名": "城陽市立西部老人福祉センター（陽幸苑）",
        "住所": "京都府城陽市寺田乾出北55",
        "指定緊急避難場所との住所同一": "1",
        "その他市町村長が必要と認める事項": "",
        "受入対象者": "",
        "備考": ""
      }
    },
    {
      "type": "Feature",
      "geometry": {
        "type": "Point",
        "coordinates": [
          135.76557,
          34.85626
        ]
      },
      "properties": {
        "NO": 48792,
        "共通ID": "E2620700010111",
        "都道府県名及び市町村名": "京都府城陽市",
        "施設・場所名": "城陽市立西城陽中学校",
        "住所": "京都府城陽市寺田乾出北82",
        "指定緊急避難場所との住所同一": "1",
        "その他市町村長が必要と認める事項": null,
        "受入対象者": null,
        "備考": ""
      }
    },
    {
      "type": "Feature",
      "geometry": {
        "type": "Point",
        "coordinates": [
          135.78919,
          34.85284
        ]
      },
      "properties": {
        "NO": 48793,
        "共通ID": "E2620700011111",
        "都道府県名及び市町村名": "京都府城陽市",
        "施設・場所名": "京都府立城陽高等学校",
        "住所": "京都府城陽市寺田宮ノ平1",
        "指定緊急避難場所との住所同一": "1",
        "その他市町村長が必要と認める事項": null,
        "受入対象者": null,
        "備考": ""
      }
    },
    {
      "type": "Feature",
      "geometry": {
        "type": "Point",
        "coordinates": [
          135.76408,
          34.85148
        ]
      },
      "properties": {
        "NO": 48794,
        "共通ID": "E2620700012111",
        "都道府県名及び市町村名": "京都府城陽市",
        "施設・場所名": "私立佐伯幼稚園",
        "住所": "京都府城陽市寺田今橋68",
        "指定緊急避難場所との住所同一": "1",
        "その他市町村長が必要と認める事項": null,
        "受入対象者": null,
        "備考": ""
      }
    },
    {
      "type": "Feature",
      "geometry": {
        "type": "Point",
        "coordinates": [
          135.77324,
          34.84917
        ]
      },
      "properties": {
        "NO": 48795,
        "共通ID": "E2620700013111",
        "都道府県名及び市町村名": "京都府城陽市",
        "施設・場所名": "文化パルク城陽",
        "住所": "京都府城陽市寺田今堀1",
        "指定緊急避難場所との住所同一": "1",
        "その他市町村長が必要と認める事項": null,
        "受入対象者": null,
        "備考": ""
      }
    },
    {
      "type": "Feature",
      "geometry": {
        "type": "Point",
        "coordinates": [
          135.78194,
          34.84909
        ]
      },
      "properties": {
        "NO": 48796,
        "共通ID": "E2620700014111",
        "都道府県名及び市町村名": "京都府城陽市",
        "施設・場所名": "城陽市立寺田南小学校",
        "住所": "京都府城陽市寺田新池23-1",
        "指定緊急避難場所との住所同一": "1",
        "その他市町村長が必要と認める事項": null,
        "受入対象者": null,
        "備考": ""
      }
    },
    {
      "type": "Feature",
      "geometry": {
        "type": "Point",
        "coordinates": [
          135.78959,
          34.85835
        ]
      },
      "properties": {
        "NO": 48797,
        "共通ID": "E2620700015111",
        "都道府県名及び市町村名": "京都府城陽市",
        "施設・場所名": "城陽市立深谷小学校",
        "住所": "京都府城陽市寺田深谷111-2",
        "指定緊急避難場所との住所同一": "1",
        "その他市町村長が必要と認める事項": null,
        "受入対象者": null,
        "備考": ""
      }
    },
    {
      "type": "Feature",
      "geometry": {
        "type": "Point",
        "coordinates": [
          135.789098,
          34.857422
        ]
      },
      "properties": {
        "NO": 48798,
        "共通ID": "E2620700016111",
        "都道府県名及び市町村名": "京都府城陽市",
        "施設・場所名": "城陽市立地域子育て支援センター",
        "住所": "京都府城陽市寺田深谷16",
        "指定緊急避難場所との住所同一": "1",
        "その他市町村長が必要と認める事項": null,
        "受入対象者": null,
        "備考": ""
      }
    },
    {
      "type": "Feature",
      "geometry": {
        "type": "Point",
        "coordinates": [
          135.78146,
          34.85303
        ]
      },
      "properties": {
        "NO": 48799,
        "共通ID": "E2620700017111",
        "都道府県名及び市町村名": "京都府城陽市",
        "施設・場所名": "鴻の巣会館",
        "住所": "京都府城陽市寺田水度坂130",
        "指定緊急避難場所との住所同一": "1",
        "その他市町村長が必要と認める事項": null,
        "受入対象者": null,
        "備考": ""
      }
    },
    {
      "type": "Feature",
      "geometry": {
        "type": "Point",
        "coordinates": [
          135.78041,
          34.85853
        ]
      },
      "properties": {
        "NO": 48800,
        "共通ID": "E2620700018111",
        "都道府県名及び市町村名": "京都府城陽市",
        "施設・場所名": "城陽市立東部コミュニティセンター",
        "住所": "京都府城陽市寺田正道152",
        "指定緊急避難場所との住所同一": "1",
        "その他市町村長が必要と認める事項": null,
        "受入対象者": null,
        "備考": ""
      }
    },
    {
      "type": "Feature",
      "geometry": {
        "type": "Point",
        "coordinates": [
          135.76547,
          34.85525
        ]
      },
      "properties": {
        "NO": 48801,
        "共通ID": "E2620700020111",
        "都道府県名及び市町村名": "京都府城陽市",
        "施設・場所名": "城陽市立寺田西小学校",
        "住所": "京都府城陽市寺田西ノ口65",
        "指定緊急避難場所との住所同一": "1",
        "その他市町村長が必要と認める事項": null,
        "受入対象者": null,
        "備考": ""
      }
    },
    {
      "type": "Feature",
      "geometry": {
        "type": "Point",
        "coordinates": [
          135.77159,
          34.8449
        ]
      },
      "properties": {
        "NO": 48802,
        "共通ID": "E2620700021111",
        "都道府県名及び市町村名": "京都府城陽市",
        "施設・場所名": "城陽市立今池小学校",
        "住所": "京都府城陽市寺田大畔177-1",
        "指定緊急避難場所との住所同一": "1",
        "その他市町村長が必要と認める事項": null,
        "受入対象者": null,
        "備考": ""
      }
    },
    {
      "type": "Feature",
      "geometry": {
        "type": "Point",
        "coordinates": [
          135.77892,
          34.84705
        ]
      },
      "properties": {
        "NO": 48803,
        "共通ID": "E2620700022111",
        "都道府県名及び市町村名": "京都府城陽市",
        "施設・場所名": "私立くぬぎ保育園",
        "住所": "京都府城陽市寺田庭井36-4",
        "指定緊急避難場所との住所同一": "1",
        "その他市町村長が必要と認める事項": null,
        "受入対象者": null,
        "備考": ""
      }
    },
    {
      "type": "Feature",
      "geometry": {
        "type": "Point",
        "coordinates": [
          135.77718,
          34.85193
        ]
      },
      "properties": {
        "NO": 48804,
        "共通ID": "E2620700023111",
        "都道府県名及び市町村名": "京都府城陽市",
        "施設・場所名": "城陽市立鴻の巣保育園",
        "住所": "京都府城陽市寺田東ノ口51-5",
        "指定緊急避難場所との住所同一": "1",
        "その他市町村長が必要と認める事項": null,
        "受入対象者": null,
        "備考": ""
      }
    },
    {
      "type": "Feature",
      "geometry": {
        "type": "Point",
        "coordinates": [
          135.795,
          34.84984
        ]
      },
      "properties": {
        "NO": 48805,
        "共通ID": "E2620700024111",
        "都道府県名及び市町村名": "京都府城陽市",
        "施設・場所名": "青少年野外活動総合センター",
        "住所": "京都府城陽市寺田南中芝80",
        "指定緊急避難場所との住所同一": "1",
        "その他市町村長が必要と認める事項": null,
        "受入対象者": null,
        "備考": ""
      }
    },
    {
      "type": "Feature",
      "geometry": {
        "type": "Point",
        "coordinates": [
          135.78027,
          34.8563
        ]
      },
      "properties": {
        "NO": 48806,
        "共通ID": "E2620700026111",
        "都道府県名及び市町村名": "京都府城陽市",
        "施設・場所名": "城陽市立寺田小学校",
        "住所": "京都府城陽市寺田北山田2",
        "指定緊急避難場所との住所同一": "1",
        "その他市町村長が必要と認める事項": null,
        "受入対象者": null,
        "備考": ""
      }
    },
    {
      "type": "Feature",
      "geometry": {
        "type": "Point",
        "coordinates": [
          135.78362,
          34.85719
        ]
      },
      "properties": {
        "NO": 48807,
        "共通ID": "E2620700027111",
        "都道府県名及び市町村名": "京都府城陽市",
        "施設・場所名": "城陽市立城陽中学校",
        "住所": "京都府城陽市寺田北山田35",
        "指定緊急避難場所との住所同一": "1",
        "その他市町村長が必要と認める事項": null,
        "受入対象者": null,
        "備考": ""
      }
    },
    {
      "type": "Feature",
      "geometry": {
        "type": "Point",
        "coordinates": [
          135.7826,
          34.85539
        ]
      },
      "properties": {
        "NO": 48808,
        "共通ID": "E2620700028111",
        "都道府県名及び市町村名": "京都府城陽市",
        "施設・場所名": "城陽市立男女共同参画支援センター",
        "住所": "京都府城陽市寺田林ノ口11-114",
        "指定緊急避難場所との住所同一": "1",
        "その他市町村長が必要と認める事項": null,
        "受入対象者": null,
        "備考": ""
      }
    },
    {
      "type": "Feature",
      "geometry": {
        "type": "Point",
        "coordinates": [
          135.78266,
          34.85543
        ]
      },
      "properties": {
        "NO": 48809,
        "共通ID": "E2620700028112",
        "都道府県名及び市町村名": "京都府城陽市",
        "施設・場所名": "私立しいの木保育園",
        "住所": "京都府城陽市寺田林ノ口11-114",
        "指定緊急避難場所との住所同一": "1",
        "その他市町村長が必要と認める事項": null,
        "受入対象者": null,
        "備考": ""
      }
    },
    {
      "type": "Feature",
      "geometry": {
        "type": "Point",
        "coordinates": [
          135.75959,
          34.8645
        ]
      },
      "properties": {
        "NO": 48810,
        "共通ID": "E2620700029111",
        "都道府県名及び市町村名": "京都府城陽市",
        "施設・場所名": "城陽市立古川小学校",
        "住所": "京都府城陽市上津屋境端57",
        "指定緊急避難場所との住所同一": "1",
        "その他市町村長が必要と認める事項": null,
        "受入対象者": null,
        "備考": ""
      }
    },
    {
      "type": "Feature",
      "geometry": {
        "type": "Point",
        "coordinates": [
          135.814914,
          34.829981
        ]
      },
      "properties": {
        "NO": 48811,
        "共通ID": "E2620700031111",
        "都道府県名及び市町村名": "京都府城陽市",
        "施設・場所名": "京都府立心身障害者福祉センター体育館",
        "住所": "京都府城陽市中芦原",
        "指定緊急避難場所との住所同一": "1",
        "その他市町村長が必要と認める事項": null,
        "受入対象者": null,
        "備考": ""
      }
    },
    {
      "type": "Feature",
      "geometry": {
        "type": "Point",
        "coordinates": [
          135.80353,
          34.82988
        ]
      },
      "properties": {
        "NO": 48812,
        "共通ID": "E2620700032111",
        "都道府県名及び市町村名": "京都府城陽市",
        "施設・場所名": "城陽市立青谷小学校",
        "住所": "京都府城陽市中向河原1",
        "指定緊急避難場所との住所同一": "1",
        "その他市町村長が必要と認める事項": null,
        "受入対象者": null,
        "備考": ""
      }
    },
    {
      "type": "Feature",
      "geometry": {
        "type": "Point",
        "coordinates": [
          135.80267,
          34.83042
        ]
      },
      "properties": {
        "NO": 48813,
        "共通ID": "E2620700033111",
        "都道府県名及び市町村名": "京都府城陽市",
        "施設・場所名": "城陽市立青谷保育園",
        "住所": "京都府城陽市中樋ノ上63-1",
        "指定緊急避難場所との住所同一": "1",
        "その他市町村長が必要と認める事項": null,
        "受入対象者": null,
        "備考": ""
      }
    },
    {
      "type": "Feature",
      "geometry": {
        "type": "Point",
        "coordinates": [
          135.79213,
          34.82686
        ]
      },
      "properties": {
        "NO": 48814,
        "共通ID": "E2620700034111",
        "都道府県名及び市町村名": "京都府城陽市",
        "施設・場所名": "城陽市立総合老人福祉センター（陽寿苑）",
        "住所": "京都府城陽市奈島川原口20",
        "指定緊急避難場所との住所同一": "1",
        "その他市町村長が必要と認める事項": "",
        "受入対象者": "",
        "備考": ""
      }
    },
    {
      "type": "Feature",
      "geometry": {
        "type": "Point",
        "coordinates": [
          135.76624,
          34.84275
        ]
      },
      "properties": {
        "NO": 48815,
        "共通ID": "E2620700035111",
        "都道府県名及び市町村名": "京都府城陽市",
        "施設・場所名": "京都府立西城陽高等学校",
        "住所": "京都府城陽市枇杷庄京縄手46-1",
        "指定緊急避難場所との住所同一": "1",
        "その他市町村長が必要と認める事項": null,
        "受入対象者": null,
        "備考": ""
      }
    },
    {
      "type": "Feature",
      "geometry": {
        "type": "Point",
        "coordinates": [
          135.76909,
          34.8391
        ]
      },
      "properties": {
        "NO": 48816,
        "共通ID": "E2620700037111",
        "都道府県名及び市町村名": "京都府城陽市",
        "施設・場所名": "城陽市立今池コミュニティセンター",
        "住所": "京都府城陽市枇杷庄知原15-1",
        "指定緊急避難場所との住所同一": "1",
        "その他市町村長が必要と認める事項": null,
        "受入対象者": null,
        "備考": ""
      }
    },
    {
      "type": "Feature",
      "geometry": {
        "type": "Point",
        "coordinates": [
          135.77979,
          34.84618
        ]
      },
      "properties": {
        "NO": 48817,
        "共通ID": "E2620700038111",
        "都道府県名及び市町村名": "京都府城陽市",
        "施設・場所名": "城陽市保健センター",
        "住所": "京都府城陽市富野久保田1-1",
        "指定緊急避難場所との住所同一": "1",
        "その他市町村長が必要と認める事項": null,
        "受入対象者": null,
        "備考": ""
      }
    },
    {
      "type": "Feature",
      "geometry": {
        "type": "Point",
        "coordinates": [
          135.78337,
          34.8412
        ]
      },
      "properties": {
        "NO": 48818,
        "共通ID": "E2620700040111",
        "都道府県名及び市町村名": "京都府城陽市",
        "施設・場所名": "私立清心保育園",
        "住所": "京都府城陽市富野荒見田4",
        "指定緊急避難場所との住所同一": "1",
        "その他市町村長が必要と認める事項": null,
        "受入対象者": null,
        "備考": ""
      }
    },
    {
      "type": "Feature",
      "geometry": {
        "type": "Point",
        "coordinates": [
          135.77224,
          34.84415
        ]
      },
      "properties": {
        "NO": 48819,
        "共通ID": "E2620700041111",
        "都道府県名及び市町村名": "京都府城陽市",
        "施設・場所名": "城陽市立今池保育園",
        "住所": "京都府城陽市富野高井44-3",
        "指定緊急避難場所との住所同一": "1",
        "その他市町村長が必要と認める事項": null,
        "受入対象者": null,
        "備考": ""
      }
    },
    {
      "type": "Feature",
      "geometry": {
        "type": "Point",
        "coordinates": [
          135.7813,
          34.84154
        ]
      },
      "properties": {
        "NO": 48820,
        "共通ID": "E2620700043111",
        "都道府県名及び市町村名": "京都府城陽市",
        "施設・場所名": "城陽市南部コミュニティセンター",
        "住所": "京都府城陽市富野東田部70-1",
        "指定緊急避難場所との住所同一": "1",
        "その他市町村長が必要と認める事項": null,
        "受入対象者": null,
        "備考": ""
      }
    },
    {
      "type": "Feature",
      "geometry": {
        "type": "Point",
        "coordinates": [
          135.7879,
          34.83874
        ]
      },
      "properties": {
        "NO": 48821,
        "共通ID": "E2620700045111",
        "都道府県名及び市町村名": "京都府城陽市",
        "施設・場所名": "城陽市立富野小学校",
        "住所": "京都府城陽市富野堀口1",
        "指定緊急避難場所との住所同一": "1",
        "その他市町村長が必要と認める事項": null,
        "受入対象者": null,
        "備考": ""
      }
    },
    {
      "type": "Feature",
      "geometry": {
        "type": "Point",
        "coordinates": [
          135.76299,
          34.86284
        ]
      },
      "properties": {
        "NO": 48822,
        "共通ID": "E2620700046111",
        "都道府県名及び市町村名": "京都府城陽市",
        "施設・場所名": "城陽市北部コミュニティセンター",
        "住所": "京都府城陽市平川広田67",
        "指定緊急避難場所との住所同一": "1",
        "その他市町村長が必要と認める事項": "",
        "受入対象者": "",
        "備考": ""
      }
    },
    {
      "type": "Feature",
      "geometry": {
        "type": "Point",
        "coordinates": [
          135.77387,
          34.86408
        ]
      },
      "properties": {
        "NO": 48823,
        "共通ID": "E2620700047111",
        "都道府県名及び市町村名": "京都府城陽市",
        "施設・場所名": "城陽市立久津川小学校",
        "住所": "京都府城陽市平川指月1",
        "指定緊急避難場所との住所同一": "1",
        "その他市町村長が必要と認める事項": null,
        "受入対象者": null,
        "備考": ""
      }
    },
    {
      "type": "Feature",
      "geometry": {
        "type": "Point",
        "coordinates": [
          135.77084,
          34.86574
        ]
      },
      "properties": {
        "NO": 48824,
        "共通ID": "E2620700048111",
        "都道府県名及び市町村名": "京都府城陽市",
        "施設・場所名": "城陽市立北部老人福祉センター（陽和苑）",
        "住所": "京都府城陽市平川大将軍2",
        "指定緊急避難場所との住所同一": "1",
        "その他市町村長が必要と認める事項": "",
        "受入対象者": "",
        "備考": ""
      }
    },
    {
      "type": "Feature",
      "geometry": {
        "type": "Point",
        "coordinates": [
          135.77035,
          34.866
        ]
      },
      "properties": {
        "NO": 48825,
        "共通ID": "E2620700048112",
        "都道府県名及び市町村名": "京都府城陽市",
        "施設・場所名": "城陽市立久津川保育園",
        "住所": "京都府城陽市平川大将軍2",
        "指定緊急避難場所との住所同一": "1",
        "その他市町村長が必要と認める事項": null,
        "受入対象者": null,
        "備考": ""
      }
    },
    {
      "type": "Feature",
      "geometry": {
        "type": "Point",
        "coordinates": [
          135.77022,
          34.86513
        ]
      },
      "properties": {
        "NO": 48826,
        "共通ID": "E2620700049111",
        "都道府県名及び市町村名": "京都府城陽市",
        "施設・場所名": "私立平川幼稚園",
        "住所": "京都府城陽市平川大将軍77-3",
        "指定緊急避難場所との住所同一": "1",
        "その他市町村長が必要と認める事項": null,
        "受入対象者": null,
        "備考": ""
      }
    },
    {
      "type": "Feature",
      "geometry": {
        "type": "Point",
        "coordinates": [
          135.76392,
          34.86842
        ]
      },
      "properties": {
        "NO": 48827,
        "共通ID": "E2620700050111",
        "都道府県名及び市町村名": "京都府城陽市",
        "施設・場所名": "城陽市立北城陽中学校",
        "住所": "京都府城陽市平川長筬33",
        "指定緊急避難場所との住所同一": "1",
        "その他市町村長が必要と認める事項": null,
        "受入対象者": null,
        "備考": ""
      }
    }
  ]
}