{
  "type": "FeatureCollection",
  "name": "272027",
  "features": [
    {
      "type": "Feature",
      "geometry": {
        "type": "Point",
        "coordinates": [
          135.392374,
          34.484901
        ]
      },
      "properties": {
        "NO": 50441,
        "共通ID": "E2720200001111",
        "都道府県名及び市町村名": "大阪府岸和田市",
        "施設・場所名": "大芝地区公民館",
        "住所": "大阪府岸和田市磯上町1-14-41",
        "指定緊急避難場所との住所同一": "",
        "その他市町村長が必要と認める事項": "",
        "受入対象者": "",
        "備考": ""
      }
    },
    {
      "type": "Feature",
      "geometry": {
        "type": "Point",
        "coordinates": [
          135.388424,
          34.485808
        ]
      },
      "properties": {
        "NO": 50442,
        "共通ID": "E2720200003111",
        "都道府県名及び市町村名": "大阪府岸和田市",
        "施設・場所名": "大芝小学校",
        "住所": "大阪府岸和田市磯上町2-4-1",
        "指定緊急避難場所との住所同一": "1",
        "その他市町村長が必要と認める事項": "",
        "受入対象者": "",
        "備考": ""
      }
    },
    {
      "type": "Feature",
      "geometry": {
        "type": "Point",
        "coordinates": [
          135.384396,
          34.487357
        ]
      },
      "properties": {
        "NO": 50443,
        "共通ID": "E2720200004121",
        "都道府県名及び市町村名": "大阪府岸和田市",
        "施設・場所名": "岸和田北特別養護老人ホーム",
        "住所": "大阪府岸和田市磯上町3-3-13",
        "指定緊急避難場所との住所同一": "",
        "その他市町村長が必要と認める事項": "",
        "受入対象者": "避難行動要支援者のうち、医師の判断による",
        "備考": ""
      }
    },
    {
      "type": "Feature",
      "geometry": {
        "type": "Point",
        "coordinates": [
          135.447597,
          34.432206
        ]
      },
      "properties": {
        "NO": 50444,
        "共通ID": "E2720200005121",
        "都道府県名及び市町村名": "大阪府岸和田市",
        "施設・場所名": "特別養護老人ホームいなば荘",
        "住所": "大阪府岸和田市稲葉町1066",
        "指定緊急避難場所との住所同一": "",
        "その他市町村長が必要と認める事項": "",
        "受入対象者": "避難行動要支援者のうち、医師の判断による",
        "備考": ""
      }
    },
    {
      "type": "Feature",
      "geometry": {
        "type": "Point",
        "coordinates": [
          135.439122,
          34.431603
        ]
      },
      "properties": {
        "NO": 50445,
        "共通ID": "E2720200006111",
        "都道府県名及び市町村名": "大阪府岸和田市",
        "施設・場所名": "山滝地区公民館",
        "住所": "大阪府岸和田市稲葉町134-15",
        "指定緊急避難場所との住所同一": "",
        "その他市町村長が必要と認める事項": "",
        "受入対象者": "",
        "備考": ""
      }
    },
    {
      "type": "Feature",
      "geometry": {
        "type": "Point",
        "coordinates": [
          135.437105,
          34.43417
        ]
      },
      "properties": {
        "NO": 50446,
        "共通ID": "E2720200007111",
        "都道府県名及び市町村名": "大阪府岸和田市",
        "施設・場所名": "山直南小学校",
        "住所": "大阪府岸和田市稲葉町20",
        "指定緊急避難場所との住所同一": "1",
        "その他市町村長が必要と認める事項": "",
        "受入対象者": "",
        "備考": ""
      }
    },
    {
      "type": "Feature",
      "geometry": {
        "type": "Point",
        "coordinates": [
          135.421326,
          34.455721
        ]
      },
      "properties": {
        "NO": 50447,
        "共通ID": "E2720200008111",
        "都道府県名及び市町村名": "大阪府岸和田市",
        "施設・場所名": "久米田青少年会館",
        "住所": "大阪府岸和田市岡山町450-1",
        "指定緊急避難場所との住所同一": "",
        "その他市町村長が必要と認める事項": "",
        "受入対象者": "",
        "備考": ""
      }
    },
    {
      "type": "Feature",
      "geometry": {
        "type": "Point",
        "coordinates": [
          135.406635,
          34.451636
        ]
      },
      "properties": {
        "NO": 50448,
        "共通ID": "E2720200009111",
        "都道府県名及び市町村名": "大阪府岸和田市",
        "施設・場所名": "桜台中学校",
        "住所": "大阪府岸和田市下松町1225",
        "指定緊急避難場所との住所同一": "1",
        "その他市町村長が必要と認める事項": "",
        "受入対象者": "",
        "備考": ""
      }
    },
    {
      "type": "Feature",
      "geometry": {
        "type": "Point",
        "coordinates": [
          135.394803,
          34.453829
        ]
      },
      "properties": {
        "NO": 50449,
        "共通ID": "E2720200122111",
        "都道府県名及び市町村名": "大阪府岸和田市",
        "施設・場所名": "桜台市民センター",
        "住所": "大阪府岸和田市下松町4-17-1",
        "指定緊急避難場所との住所同一": "",
        "その他市町村長が必要と認める事項": "",
        "受入対象者": "",
        "備考": ""
      }
    },
    {
      "type": "Feature",
      "geometry": {
        "type": "Point",
        "coordinates": [
          135.397674,
          34.454855
        ]
      },
      "properties": {
        "NO": 50450,
        "共通ID": "E2720200125111",
        "都道府県名及び市町村名": "大阪府岸和田市",
        "施設・場所名": "常盤小学校",
        "住所": "大阪府岸和田市下松町4-6-1",
        "指定緊急避難場所との住所同一": "1",
        "その他市町村長が必要と認める事項": "",
        "受入対象者": "",
        "備考": ""
      }
    },
    {
      "type": "Feature",
      "geometry": {
        "type": "Point",
        "coordinates": [
          135.406764,
          34.470814
        ]
      },
      "properties": {
        "NO": 50451,
        "共通ID": "E2720200012111",
        "都道府県名及び市町村名": "大阪府岸和田市",
        "施設・場所名": "八木北小学校",
        "住所": "大阪府岸和田市下池田町3-6-4",
        "指定緊急避難場所との住所同一": "1",
        "その他市町村長が必要と認める事項": "",
        "受入対象者": "",
        "備考": ""
      }
    },
    {
      "type": "Feature",
      "geometry": {
        "type": "Point",
        "coordinates": [
          135.377244,
          34.472422
        ]
      },
      "properties": {
        "NO": 50452,
        "共通ID": "E2720200014111",
        "都道府県名及び市町村名": "大阪府岸和田市",
        "施設・場所名": "野村中学校",
        "住所": "大阪府岸和田市下野町2-13-18",
        "指定緊急避難場所との住所同一": "1",
        "その他市町村長が必要と認める事項": "",
        "受入対象者": "",
        "備考": ""
      }
    },
    {
      "type": "Feature",
      "geometry": {
        "type": "Point",
        "coordinates": [
          135.389629,
          34.470618
        ]
      },
      "properties": {
        "NO": 50453,
        "共通ID": "E2720200016111",
        "都道府県名及び市町村名": "大阪府岸和田市",
        "施設・場所名": "大宮地区公民館",
        "住所": "大阪府岸和田市加守町4-6-18",
        "指定緊急避難場所との住所同一": "",
        "その他市町村長が必要と認める事項": "",
        "受入対象者": "",
        "備考": ""
      }
    },
    {
      "type": "Feature",
      "geometry": {
        "type": "Point",
        "coordinates": [
          135.416867,
          34.406781
        ]
      },
      "properties": {
        "NO": 50454,
        "共通ID": "E2720200017111",
        "都道府県名及び市町村名": "大阪府岸和田市",
        "施設・場所名": "東葛城小学校",
        "住所": "大阪府岸和田市河合町1833-4",
        "指定緊急避難場所との住所同一": "1",
        "その他市町村長が必要と認める事項": "",
        "受入対象者": "",
        "備考": ""
      }
    },
    {
      "type": "Feature",
      "geometry": {
        "type": "Point",
        "coordinates": [
          135.398217,
          34.461844
        ]
      },
      "properties": {
        "NO": 50455,
        "共通ID": "E2720200018111",
        "都道府県名及び市町村名": "大阪府岸和田市",
        "施設・場所名": "久米田高等学校",
        "住所": "大阪府岸和田市額原町1100",
        "指定緊急避難場所との住所同一": "",
        "その他市町村長が必要と認める事項": "",
        "受入対象者": "",
        "備考": ""
      }
    },
    {
      "type": "Feature",
      "geometry": {
        "type": "Point",
        "coordinates": [
          135.371655,
          34.458097
        ]
      },
      "properties": {
        "NO": 50456,
        "共通ID": "E2720200019111",
        "都道府県名及び市町村名": "大阪府岸和田市",
        "施設・場所名": "岸和田高等学校",
        "住所": "大阪府岸和田市岸城町10-1",
        "指定緊急避難場所との住所同一": "1",
        "その他市町村長が必要と認める事項": "",
        "受入対象者": "",
        "備考": ""
      }
    },
    {
      "type": "Feature",
      "geometry": {
        "type": "Point",
        "coordinates": [
          135.369713,
          34.459495
        ]
      },
      "properties": {
        "NO": 50457,
        "共通ID": "E2720200126111",
        "都道府県名及び市町村名": "大阪府岸和田市",
        "施設・場所名": "二の丸広場観光交流センター",
        "住所": "大阪府岸和田市岸城町7-22",
        "指定緊急避難場所との住所同一": "",
        "その他市町村長が必要と認める事項": "",
        "受入対象者": "",
        "備考": ""
      }
    },
    {
      "type": "Feature",
      "geometry": {
        "type": "Point",
        "coordinates": [
          135.398977,
          34.478989
        ]
      },
      "properties": {
        "NO": 50458,
        "共通ID": "E2720200023111",
        "都道府県名及び市町村名": "大阪府岸和田市",
        "施設・場所名": "城北地区公民館",
        "住所": "大阪府岸和田市吉井町1-21-1",
        "指定緊急避難場所との住所同一": "",
        "その他市町村長が必要と認める事項": "",
        "受入対象者": "",
        "備考": ""
      }
    },
    {
      "type": "Feature",
      "geometry": {
        "type": "Point",
        "coordinates": [
          135.387786,
          34.469058
        ]
      },
      "properties": {
        "NO": 50459,
        "共通ID": "E2720200024111",
        "都道府県名及び市町村名": "大阪府岸和田市",
        "施設・場所名": "大宮小学校",
        "住所": "大阪府岸和田市宮前町7-1",
        "指定緊急避難場所との住所同一": "1",
        "その他市町村長が必要と認める事項": "",
        "受入対象者": "",
        "備考": ""
      }
    },
    {
      "type": "Feature",
      "geometry": {
        "type": "Point",
        "coordinates": [
          135.369671,
          34.466392
        ]
      },
      "properties": {
        "NO": 50460,
        "共通ID": "E2720200025111",
        "都道府県名及び市町村名": "大阪府岸和田市",
        "施設・場所名": "浪切ホール",
        "住所": "大阪府岸和田市港緑町1-1",
        "指定緊急避難場所との住所同一": "1",
        "その他市町村長が必要と認める事項": "",
        "受入対象者": "",
        "備考": ""
      }
    },
    {
      "type": "Feature",
      "geometry": {
        "type": "Point",
        "coordinates": [
          135.397083,
          34.471111
        ]
      },
      "properties": {
        "NO": 50461,
        "共通ID": "E2720200026111",
        "都道府県名及び市町村名": "大阪府岸和田市",
        "施設・場所名": "文化会館（マドカホール）",
        "住所": "大阪府岸和田市荒木町1-17-1",
        "指定緊急避難場所との住所同一": "",
        "その他市町村長が必要と認める事項": "",
        "受入対象者": "",
        "備考": ""
      }
    },
    {
      "type": "Feature",
      "geometry": {
        "type": "Point",
        "coordinates": [
          135.396764,
          34.47662
        ]
      },
      "properties": {
        "NO": 50462,
        "共通ID": "E2720200027111",
        "都道府県名及び市町村名": "大阪府岸和田市",
        "施設・場所名": "城北小学校",
        "住所": "大阪府岸和田市荒木町2-1-1",
        "指定緊急避難場所との住所同一": "1",
        "その他市町村長が必要と認める事項": "",
        "受入対象者": "",
        "備考": ""
      }
    },
    {
      "type": "Feature",
      "geometry": {
        "type": "Point",
        "coordinates": [
          135.401136,
          34.475769
        ]
      },
      "properties": {
        "NO": 50463,
        "共通ID": "E2720200029111",
        "都道府県名及び市町村名": "大阪府岸和田市",
        "施設・場所名": "新条地区公民館",
        "住所": "大阪府岸和田市荒木町2-22-8",
        "指定緊急避難場所との住所同一": "",
        "その他市町村長が必要と認める事項": "",
        "受入対象者": "",
        "備考": ""
      }
    },
    {
      "type": "Feature",
      "geometry": {
        "type": "Point",
        "coordinates": [
          135.399645,
          34.476234
        ]
      },
      "properties": {
        "NO": 50464,
        "共通ID": "E2720200030111",
        "都道府県名及び市町村名": "大阪府岸和田市",
        "施設・場所名": "新条小学校",
        "住所": "大阪府岸和田市荒木町2-4-33",
        "指定緊急避難場所との住所同一": "1",
        "その他市町村長が必要と認める事項": "",
        "受入対象者": "",
        "備考": ""
      }
    },
    {
      "type": "Feature",
      "geometry": {
        "type": "Point",
        "coordinates": [
          135.372979,
          34.46176
        ]
      },
      "properties": {
        "NO": 50465,
        "共通ID": "E2720200033111",
        "都道府県名及び市町村名": "大阪府岸和田市",
        "施設・場所名": "市立公民館・中央地区公民館",
        "住所": "大阪府岸和田市堺町1-1",
        "指定緊急避難場所との住所同一": "1",
        "その他市町村長が必要と認める事項": "",
        "受入対象者": "",
        "備考": ""
      }
    },
    {
      "type": "Feature",
      "geometry": {
        "type": "Point",
        "coordinates": [
          135.372536,
          34.462223
        ]
      },
      "properties": {
        "NO": 50466,
        "共通ID": "E2720200034111",
        "都道府県名及び市町村名": "大阪府岸和田市",
        "施設・場所名": "中央小学校",
        "住所": "大阪府岸和田市堺町1-10",
        "指定緊急避難場所との住所同一": "1",
        "その他市町村長が必要と認める事項": "",
        "受入対象者": "",
        "備考": ""
      }
    },
    {
      "type": "Feature",
      "geometry": {
        "type": "Point",
        "coordinates": [
          135.383318,
          34.455378
        ]
      },
      "properties": {
        "NO": 50467,
        "共通ID": "E2720200036111",
        "都道府県名及び市町村名": "大阪府岸和田市",
        "施設・場所名": "中央体育館",
        "住所": "大阪府岸和田市作才町1-7-15",
        "指定緊急避難場所との住所同一": "",
        "その他市町村長が必要と認める事項": "",
        "受入対象者": "",
        "備考": ""
      }
    },
    {
      "type": "Feature",
      "geometry": {
        "type": "Point",
        "coordinates": [
          135.415293,
          34.429606
        ]
      },
      "properties": {
        "NO": 50468,
        "共通ID": "E2720200037121",
        "都道府県名及び市町村名": "大阪府岸和田市",
        "施設・場所名": "岸和田採光学園",
        "住所": "大阪府岸和田市三ケ山町211",
        "指定緊急避難場所との住所同一": "",
        "その他市町村長が必要と認める事項": "",
        "受入対象者": "避難行動要支援者のうち、医師の判断による",
        "備考": ""
      }
    },
    {
      "type": "Feature",
      "geometry": {
        "type": "Point",
        "coordinates": [
          135.415157,
          34.428925
        ]
      },
      "properties": {
        "NO": 50469,
        "共通ID": "E2720200038121",
        "都道府県名及び市町村名": "大阪府岸和田市",
        "施設・場所名": "岸和田光生療護園",
        "住所": "大阪府岸和田市三ケ山町214-4",
        "指定緊急避難場所との住所同一": "",
        "その他市町村長が必要と認める事項": "",
        "受入対象者": "避難行動要支援者のうち、医師の判断による",
        "備考": ""
      }
    },
    {
      "type": "Feature",
      "geometry": {
        "type": "Point",
        "coordinates": [
          135.421804,
          34.428692
        ]
      },
      "properties": {
        "NO": 50470,
        "共通ID": "E2720200039122",
        "都道府県名及び市町村名": "大阪府岸和田市",
        "施設・場所名": "岸和田光が丘療護園",
        "住所": "大阪府岸和田市三ケ山町379",
        "指定緊急避難場所との住所同一": "",
        "その他市町村長が必要と認める事項": "",
        "受入対象者": "避難行動要支援者のうち、医師の判断による",
        "備考": ""
      }
    },
    {
      "type": "Feature",
      "geometry": {
        "type": "Point",
        "coordinates": [
          135.421997,
          34.428723
        ]
      },
      "properties": {
        "NO": 50471,
        "共通ID": "E2720200039121",
        "都道府県名及び市町村名": "大阪府岸和田市",
        "施設・場所名": "岸和田光が丘学園",
        "住所": "大阪府岸和田市三ケ山町379",
        "指定緊急避難場所との住所同一": "",
        "その他市町村長が必要と認める事項": "",
        "受入対象者": "避難行動要支援者のうち、医師の判断による",
        "備考": ""
      }
    },
    {
      "type": "Feature",
      "geometry": {
        "type": "Point",
        "coordinates": [
          135.427954,
          34.457306
        ]
      },
      "properties": {
        "NO": 50472,
        "共通ID": "E2720200041111",
        "都道府県名及び市町村名": "大阪府岸和田市",
        "施設・場所名": "山直中学校",
        "住所": "大阪府岸和田市三田町1030",
        "指定緊急避難場所との住所同一": "1",
        "その他市町村長が必要と認める事項": "",
        "受入対象者": "",
        "備考": ""
      }
    },
    {
      "type": "Feature",
      "geometry": {
        "type": "Point",
        "coordinates": [
          135.430303,
          34.461089
        ]
      },
      "properties": {
        "NO": 50473,
        "共通ID": "E2720200042111",
        "都道府県名及び市町村名": "大阪府岸和田市",
        "施設・場所名": "城東小学校",
        "住所": "大阪府岸和田市三田町146",
        "指定緊急避難場所との住所同一": "1",
        "その他市町村長が必要と認める事項": "",
        "受入対象者": "",
        "備考": ""
      }
    },
    {
      "type": "Feature",
      "geometry": {
        "type": "Point",
        "coordinates": [
          135.430589,
          34.452015
        ]
      },
      "properties": {
        "NO": 50474,
        "共通ID": "E2720200043111",
        "都道府県名及び市町村名": "大阪府岸和田市",
        "施設・場所名": "山直市民センター",
        "住所": "大阪府岸和田市三田町715-1",
        "指定緊急避難場所との住所同一": "",
        "その他市町村長が必要と認める事項": "",
        "受入対象者": "",
        "備考": ""
      }
    },
    {
      "type": "Feature",
      "geometry": {
        "type": "Point",
        "coordinates": [
          135.431874,
          34.441555
        ]
      },
      "properties": {
        "NO": 50475,
        "共通ID": "E2720200044121",
        "都道府県名及び市町村名": "大阪府岸和田市",
        "施設・場所名": "山直ホーム",
        "住所": "大阪府岸和田市山直中町840",
        "指定緊急避難場所との住所同一": "",
        "その他市町村長が必要と認める事項": "",
        "受入対象者": "避難行動要支援者のうち、医師の判断による",
        "備考": ""
      }
    },
    {
      "type": "Feature",
      "geometry": {
        "type": "Point",
        "coordinates": [
          135.36686,
          34.462414
        ]
      },
      "properties": {
        "NO": 50476,
        "共通ID": "E2720200045111",
        "都道府県名及び市町村名": "大阪府岸和田市",
        "施設・場所名": "浜小学校",
        "住所": "大阪府岸和田市紙屋町12-20",
        "指定緊急避難場所との住所同一": "1",
        "その他市町村長が必要と認める事項": "",
        "受入対象者": "",
        "備考": ""
      }
    },
    {
      "type": "Feature",
      "geometry": {
        "type": "Point",
        "coordinates": [
          135.395389,
          34.478055
        ]
      },
      "properties": {
        "NO": 50477,
        "共通ID": "E2720200046111",
        "都道府県名及び市町村名": "大阪府岸和田市",
        "施設・場所名": "北中学校",
        "住所": "大阪府岸和田市春木旭町33-1",
        "指定緊急避難場所との住所同一": "1",
        "その他市町村長が必要と認める事項": "",
        "受入対象者": "",
        "備考": ""
      }
    },
    {
      "type": "Feature",
      "geometry": {
        "type": "Point",
        "coordinates": [
          135.387649,
          34.479825
        ]
      },
      "properties": {
        "NO": 50478,
        "共通ID": "E2720200047111",
        "都道府県名及び市町村名": "大阪府岸和田市",
        "施設・場所名": "春木小学校",
        "住所": "大阪府岸和田市春木宮川町11-13",
        "指定緊急避難場所との住所同一": "1",
        "その他市町村長が必要と認める事項": "",
        "受入対象者": "",
        "備考": ""
      }
    },
    {
      "type": "Feature",
      "geometry": {
        "type": "Point",
        "coordinates": [
          135.386547,
          34.479423
        ]
      },
      "properties": {
        "NO": 50479,
        "共通ID": "E2720200048111",
        "都道府県名及び市町村名": "大阪府岸和田市",
        "施設・場所名": "春木地区公民館・春木青少年会館",
        "住所": "大阪府岸和田市春木宮川町5-16",
        "指定緊急避難場所との住所同一": "",
        "その他市町村長が必要と認める事項": "",
        "受入対象者": "",
        "備考": ""
      }
    },
    {
      "type": "Feature",
      "geometry": {
        "type": "Point",
        "coordinates": [
          135.39218,
          34.478653
        ]
      },
      "properties": {
        "NO": 50480,
        "共通ID": "E2720200049111",
        "都道府県名及び市町村名": "大阪府岸和田市",
        "施設・場所名": "春木市民センター",
        "住所": "大阪府岸和田市春木若松町21-1",
        "指定緊急避難場所との住所同一": "1",
        "その他市町村長が必要と認める事項": "",
        "受入対象者": "",
        "備考": ""
      }
    },
    {
      "type": "Feature",
      "geometry": {
        "type": "Point",
        "coordinates": [
          135.405626,
          34.460003
        ]
      },
      "properties": {
        "NO": 50481,
        "共通ID": "E2720200053111",
        "都道府県名及び市町村名": "大阪府岸和田市",
        "施設・場所名": "八木南小学校",
        "住所": "大阪府岸和田市小松里町768-1",
        "指定緊急避難場所との住所同一": "1",
        "その他市町村長が必要と認める事項": "",
        "受入対象者": "",
        "備考": ""
      }
    },
    {
      "type": "Feature",
      "geometry": {
        "type": "Point",
        "coordinates": [
          135.406223,
          34.463163
        ]
      },
      "properties": {
        "NO": 50482,
        "共通ID": "E2720200054121",
        "都道府県名及び市町村名": "大阪府岸和田市",
        "施設・場所名": "特別養護老人ホームひまわりの郷",
        "住所": "大阪府岸和田市小松里町938-2",
        "指定緊急避難場所との住所同一": "",
        "その他市町村長が必要と認める事項": "",
        "受入対象者": "避難行動要支援者のうち、医師の判断による",
        "備考": ""
      }
    },
    {
      "type": "Feature",
      "geometry": {
        "type": "Point",
        "coordinates": [
          135.384508,
          34.48389
        ]
      },
      "properties": {
        "NO": 50483,
        "共通ID": "E2720200055111",
        "都道府県名及び市町村名": "大阪府岸和田市",
        "施設・場所名": "春木中学校",
        "住所": "大阪府岸和田市松風町10-65",
        "指定緊急避難場所との住所同一": "1",
        "その他市町村長が必要と認める事項": "",
        "受入対象者": "",
        "備考": ""
      }
    },
    {
      "type": "Feature",
      "geometry": {
        "type": "Point",
        "coordinates": [
          135.37908,
          34.466636
        ]
      },
      "properties": {
        "NO": 50484,
        "共通ID": "E2720200057111",
        "都道府県名及び市町村名": "大阪府岸和田市",
        "施設・場所名": "朝陽小学校",
        "住所": "大阪府岸和田市上野町西1-28",
        "指定緊急避難場所との住所同一": "1",
        "その他市町村長が必要と認める事項": "",
        "受入対象者": "",
        "備考": ""
      }
    },
    {
      "type": "Feature",
      "geometry": {
        "type": "Point",
        "coordinates": [
          135.394716,
          34.441317
        ]
      },
      "properties": {
        "NO": 50485,
        "共通ID": "E2720200059121",
        "都道府県名及び市町村名": "大阪府岸和田市",
        "施設・場所名": "岸和田軽費老人ホーム幸福荘",
        "住所": "大阪府岸和田市神須屋町409-1",
        "指定緊急避難場所との住所同一": "",
        "その他市町村長が必要と認める事項": "",
        "受入対象者": "避難行動要支援者のうち、医師の判断による",
        "備考": ""
      }
    },
    {
      "type": "Feature",
      "geometry": {
        "type": "Point",
        "coordinates": [
          135.395739,
          34.468411
        ]
      },
      "properties": {
        "NO": 50486,
        "共通ID": "E2720200060111",
        "都道府県名及び市町村名": "大阪府岸和田市",
        "施設・場所名": "岸和田市総合体育館",
        "住所": "大阪府岸和田市西之内町45-1",
        "指定緊急避難場所との住所同一": "",
        "その他市町村長が必要と認める事項": "",
        "受入対象者": "",
        "備考": ""
      }
    },
    {
      "type": "Feature",
      "geometry": {
        "type": "Point",
        "coordinates": [
          135.439663,
          34.424669
        ]
      },
      "properties": {
        "NO": 50487,
        "共通ID": "E2720200062121",
        "都道府県名及び市町村名": "大阪府岸和田市",
        "施設・場所名": "特別養護老人ホーム千亀利荘",
        "住所": "大阪府岸和田市積川町358",
        "指定緊急避難場所との住所同一": "",
        "その他市町村長が必要と認める事項": "",
        "受入対象者": "避難行動要支援者のうち、医師の判断による",
        "備考": ""
      }
    },
    {
      "type": "Feature",
      "geometry": {
        "type": "Point",
        "coordinates": [
          135.410599,
          34.468505
        ]
      },
      "properties": {
        "NO": 50488,
        "共通ID": "E2720200064111",
        "都道府県名及び市町村名": "大阪府岸和田市",
        "施設・場所名": "八木小学校",
        "住所": "大阪府岸和田市大町3-22-1",
        "指定緊急避難場所との住所同一": "1",
        "その他市町村長が必要と認める事項": "",
        "受入対象者": "",
        "備考": ""
      }
    },
    {
      "type": "Feature",
      "geometry": {
        "type": "Point",
        "coordinates": [
          135.412725,
          34.462991
        ]
      },
      "properties": {
        "NO": 50489,
        "共通ID": "E2720200067111",
        "都道府県名及び市町村名": "大阪府岸和田市",
        "施設・場所名": "八木市民センター",
        "住所": "大阪府岸和田市池尻町339-2",
        "指定緊急避難場所との住所同一": "",
        "その他市町村長が必要と認める事項": "",
        "受入対象者": "",
        "備考": ""
      }
    },
    {
      "type": "Feature",
      "geometry": {
        "type": "Point",
        "coordinates": [
          135.410381,
          34.457165
        ]
      },
      "properties": {
        "NO": 50490,
        "共通ID": "E2720200068121",
        "都道府県名及び市町村名": "大阪府岸和田市",
        "施設・場所名": "軽費老人ホーム久米田寿老園",
        "住所": "大阪府岸和田市池尻町695-1",
        "指定緊急避難場所との住所同一": "",
        "その他市町村長が必要と認める事項": "",
        "受入対象者": "避難行動要支援者のうち、医師の判断による",
        "備考": ""
      }
    },
    {
      "type": "Feature",
      "geometry": {
        "type": "Point",
        "coordinates": [
          135.409675,
          34.457673
        ]
      },
      "properties": {
        "NO": 50491,
        "共通ID": "E2720200069111",
        "都道府県名及び市町村名": "大阪府岸和田市",
        "施設・場所名": "久米田中学校",
        "住所": "大阪府岸和田市池尻町705",
        "指定緊急避難場所との住所同一": "1",
        "その他市町村長が必要と認める事項": "",
        "受入対象者": "",
        "備考": ""
      }
    },
    {
      "type": "Feature",
      "geometry": {
        "type": "Point",
        "coordinates": [
          135.393752,
          34.429623
        ]
      },
      "properties": {
        "NO": 50492,
        "共通ID": "E2720200071111",
        "都道府県名及び市町村名": "大阪府岸和田市",
        "施設・場所名": "天神山小学校",
        "住所": "大阪府岸和田市天神山町1-1-1",
        "指定緊急避難場所との住所同一": "1",
        "その他市町村長が必要と認める事項": "",
        "受入対象者": "",
        "備考": ""
      }
    },
    {
      "type": "Feature",
      "geometry": {
        "type": "Point",
        "coordinates": [
          135.396891,
          34.429035
        ]
      },
      "properties": {
        "NO": 50493,
        "共通ID": "E2720200073111",
        "都道府県名及び市町村名": "大阪府岸和田市",
        "施設・場所名": "天神山地区公民館",
        "住所": "大阪府岸和田市天神山町2-9-1",
        "指定緊急避難場所との住所同一": "",
        "その他市町村長が必要と認める事項": "",
        "受入対象者": "",
        "備考": ""
      }
    },
    {
      "type": "Feature",
      "geometry": {
        "type": "Point",
        "coordinates": [
          135.426028,
          34.460183
        ]
      },
      "properties": {
        "NO": 50494,
        "共通ID": "E2720200074111",
        "都道府県名及び市町村名": "大阪府岸和田市",
        "施設・場所名": "山直北小学校",
        "住所": "大阪府岸和田市田治米町460",
        "指定緊急避難場所との住所同一": "1",
        "その他市町村長が必要と認める事項": "",
        "受入対象者": "",
        "備考": ""
      }
    },
    {
      "type": "Feature",
      "geometry": {
        "type": "Point",
        "coordinates": [
          135.407719,
          34.427383
        ]
      },
      "properties": {
        "NO": 50495,
        "共通ID": "E2720200075111",
        "都道府県名及び市町村名": "大阪府岸和田市",
        "施設・場所名": "修斉小学校",
        "住所": "大阪府岸和田市土生滝町521",
        "指定緊急避難場所との住所同一": "1",
        "その他市町村長が必要と認める事項": "",
        "受入対象者": "",
        "備考": ""
      }
    },
    {
      "type": "Feature",
      "geometry": {
        "type": "Point",
        "coordinates": [
          135.410856,
          34.422926
        ]
      },
      "properties": {
        "NO": 50496,
        "共通ID": "E2720200076111",
        "都道府県名及び市町村名": "大阪府岸和田市",
        "施設・場所名": "有真香会館・葛城地区公民館",
        "住所": "大阪府岸和田市土生滝町689-1",
        "指定緊急避難場所との住所同一": "",
        "その他市町村長が必要と認める事項": "",
        "受入対象者": "",
        "備考": ""
      }
    },
    {
      "type": "Feature",
      "geometry": {
        "type": "Point",
        "coordinates": [
          135.381277,
          34.453236
        ]
      },
      "properties": {
        "NO": 50497,
        "共通ID": "E2720200077111",
        "都道府県名及び市町村名": "大阪府岸和田市",
        "施設・場所名": "和泉高等学校",
        "住所": "大阪府岸和田市土生町1-2-1",
        "指定緊急避難場所との住所同一": "",
        "その他市町村長が必要と認める事項": "",
        "受入対象者": "",
        "備考": ""
      }
    },
    {
      "type": "Feature",
      "geometry": {
        "type": "Point",
        "coordinates": [
          135.396665,
          34.444247
        ]
      },
      "properties": {
        "NO": 50498,
        "共通ID": "E2720200128111",
        "都道府県名及び市町村名": "大阪府岸和田市",
        "施設・場所名": "土生中学校",
        "住所": "大阪府岸和田市土生町12-10-1",
        "指定緊急避難場所との住所同一": "1",
        "その他市町村長が必要と認める事項": "",
        "受入対象者": "",
        "備考": ""
      }
    },
    {
      "type": "Feature",
      "geometry": {
        "type": "Point",
        "coordinates": [
          135.402612,
          34.43652
        ]
      },
      "properties": {
        "NO": 50499,
        "共通ID": "E2720200080111",
        "都道府県名及び市町村名": "大阪府岸和田市",
        "施設・場所名": "葛城中学校",
        "住所": "大阪府岸和田市土生町213-1",
        "指定緊急避難場所との住所同一": "1",
        "その他市町村長が必要と認める事項": "",
        "受入対象者": "",
        "備考": ""
      }
    },
    {
      "type": "Feature",
      "geometry": {
        "type": "Point",
        "coordinates": [
          135.386109,
          34.448589
        ]
      },
      "properties": {
        "NO": 50500,
        "共通ID": "E2720200082111",
        "都道府県名及び市町村名": "大阪府岸和田市",
        "施設・場所名": "東岸和田市民センター",
        "住所": "大阪府岸和田市土生町4-3-1",
        "指定緊急避難場所との住所同一": "",
        "その他市町村長が必要と認める事項": "",
        "受入対象者": "",
        "備考": ""
      }
    },
    {
      "type": "Feature",
      "geometry": {
        "type": "Point",
        "coordinates": [
          135.38272,
          34.44584
        ]
      },
      "properties": {
        "NO": 50501,
        "共通ID": "E2720200129121",
        "都道府県名及び市町村名": "大阪府岸和田市",
        "施設・場所名": "岸和田支援学校",
        "住所": "大阪府岸和田市土生町5-9-1",
        "指定緊急避難場所との住所同一": "",
        "その他市町村長が必要と認める事項": "",
        "受入対象者": "岸和田市内在住の在校児童、生徒及びその家族又は介助者（これらの者のうち市が特定したものに限る。）",
        "備考": ""
      }
    },
    {
      "type": "Feature",
      "geometry": {
        "type": "Point",
        "coordinates": [
          135.390495,
          34.442168
        ]
      },
      "properties": {
        "NO": 50502,
        "共通ID": "E2720200127111",
        "都道府県名及び市町村名": "大阪府岸和田市",
        "施設・場所名": "旭小学校",
        "住所": "大阪府岸和田市土生町7-5-15",
        "指定緊急避難場所との住所同一": "1",
        "その他市町村長が必要と認める事項": "",
        "受入対象者": "",
        "備考": ""
      }
    },
    {
      "type": "Feature",
      "geometry": {
        "type": "Point",
        "coordinates": [
          135.42927,
          34.377982
        ]
      },
      "properties": {
        "NO": 50503,
        "共通ID": "E2720200085111",
        "都道府県名及び市町村名": "大阪府岸和田市",
        "施設・場所名": "葛城上地区公民館",
        "住所": "大阪府岸和田市塔原町615-1",
        "指定緊急避難場所との住所同一": "",
        "その他市町村長が必要と認める事項": "",
        "受入対象者": "",
        "備考": ""
      }
    },
    {
      "type": "Feature",
      "geometry": {
        "type": "Point",
        "coordinates": [
          135.38475,
          34.464124
        ]
      },
      "properties": {
        "NO": 50504,
        "共通ID": "E2720200086121",
        "都道府県名及び市町村名": "大阪府岸和田市",
        "施設・場所名": "岸和田特別養護老人ホーム",
        "住所": "大阪府岸和田市藤井町2-13-13",
        "指定緊急避難場所との住所同一": "",
        "その他市町村長が必要と認める事項": "",
        "受入対象者": "避難行動要支援者のうち、医師の判断による",
        "備考": ""
      }
    },
    {
      "type": "Feature",
      "geometry": {
        "type": "Point",
        "coordinates": [
          135.386536,
          34.462561
        ]
      },
      "properties": {
        "NO": 50505,
        "共通ID": "E2720200087111",
        "都道府県名及び市町村名": "大阪府岸和田市",
        "施設・場所名": "光陽中学校",
        "住所": "大阪府岸和田市藤井町3-6-6",
        "指定緊急避難場所との住所同一": "1",
        "その他市町村長が必要と認める事項": "",
        "受入対象者": "",
        "備考": ""
      }
    },
    {
      "type": "Feature",
      "geometry": {
        "type": "Point",
        "coordinates": [
          135.438435,
          34.413203
        ]
      },
      "properties": {
        "NO": 50506,
        "共通ID": "E2720200089111",
        "都道府県名及び市町村名": "大阪府岸和田市",
        "施設・場所名": "山滝小学校",
        "住所": "大阪府岸和田市内畑町1041",
        "指定緊急避難場所との住所同一": "1",
        "その他市町村長が必要と認める事項": "",
        "受入対象者": "",
        "備考": ""
      }
    },
    {
      "type": "Feature",
      "geometry": {
        "type": "Point",
        "coordinates": [
          135.439674,
          34.417765
        ]
      },
      "properties": {
        "NO": 50507,
        "共通ID": "E2720200090111",
        "都道府県名及び市町村名": "大阪府岸和田市",
        "施設・場所名": "山滝中学校",
        "住所": "大阪府岸和田市内畑町166-3",
        "指定緊急避難場所との住所同一": "1",
        "その他市町村長が必要と認める事項": "",
        "受入対象者": "",
        "備考": ""
      }
    },
    {
      "type": "Feature",
      "geometry": {
        "type": "Point",
        "coordinates": [
          135.372837,
          34.453705
        ]
      },
      "properties": {
        "NO": 50508,
        "共通ID": "E2720200092111",
        "都道府県名及び市町村名": "大阪府岸和田市",
        "施設・場所名": "城内小学校",
        "住所": "大阪府岸和田市南上町2-3-1",
        "指定緊急避難場所との住所同一": "1",
        "その他市町村長が必要と認める事項": "",
        "受入対象者": "",
        "備考": ""
      }
    },
    {
      "type": "Feature",
      "geometry": {
        "type": "Point",
        "coordinates": [
          135.387365,
          34.441726
        ]
      },
      "properties": {
        "NO": 50509,
        "共通ID": "E2720200095111",
        "都道府県名及び市町村名": "大阪府岸和田市",
        "施設・場所名": "太田小学校",
        "住所": "大阪府岸和田市畑町3-12-1",
        "指定緊急避難場所との住所同一": "1",
        "その他市町村長が必要と認める事項": "",
        "受入対象者": "",
        "備考": ""
      }
    },
    {
      "type": "Feature",
      "geometry": {
        "type": "Point",
        "coordinates": [
          135.410788,
          34.441636
        ]
      },
      "properties": {
        "NO": 50510,
        "共通ID": "E2720200101111",
        "都道府県名及び市町村名": "大阪府岸和田市",
        "施設・場所名": "光明地区公民館",
        "住所": "大阪府岸和田市尾生町1231-3",
        "指定緊急避難場所との住所同一": "",
        "その他市町村長が必要と認める事項": "",
        "受入対象者": "",
        "備考": ""
      }
    },
    {
      "type": "Feature",
      "geometry": {
        "type": "Point",
        "coordinates": [
          135.414569,
          34.429994
        ]
      },
      "properties": {
        "NO": 50511,
        "共通ID": "E2720200102121",
        "都道府県名及び市町村名": "大阪府岸和田市",
        "施設・場所名": "ピープルケアハウスきしわだ",
        "住所": "大阪府岸和田市尾生町2130-4",
        "指定緊急避難場所との住所同一": "",
        "その他市町村長が必要と認める事項": "",
        "受入対象者": "避難行動要支援者のうち、医師の判断による",
        "備考": ""
      }
    },
    {
      "type": "Feature",
      "geometry": {
        "type": "Point",
        "coordinates": [
          135.417881,
          34.42156
        ]
      },
      "properties": {
        "NO": 50512,
        "共通ID": "E2720200103121",
        "都道府県名及び市町村名": "大阪府岸和田市",
        "施設・場所名": "特別養護老人ホーム神於山園",
        "住所": "大阪府岸和田市尾生町3192-2",
        "指定緊急避難場所との住所同一": "",
        "その他市町村長が必要と認める事項": "",
        "受入対象者": "避難行動要支援者のうち、医師の判断による",
        "備考": ""
      }
    },
    {
      "type": "Feature",
      "geometry": {
        "type": "Point",
        "coordinates": [
          135.412194,
          34.443353
        ]
      },
      "properties": {
        "NO": 50513,
        "共通ID": "E2720200104111",
        "都道府県名及び市町村名": "大阪府岸和田市",
        "施設・場所名": "光明小学校",
        "住所": "大阪府岸和田市尾生町564",
        "指定緊急避難場所との住所同一": "1",
        "その他市町村長が必要と認める事項": "",
        "受入対象者": "",
        "備考": ""
      }
    },
    {
      "type": "Feature",
      "geometry": {
        "type": "Point",
        "coordinates": [
          135.407361,
          34.451128
        ]
      },
      "properties": {
        "NO": 50514,
        "共通ID": "E2720200105121",
        "都道府県名及び市町村名": "大阪府岸和田市",
        "施設・場所名": "特別養護老人ホーム萬寿園",
        "住所": "大阪府岸和田市尾生町808",
        "指定緊急避難場所との住所同一": "",
        "その他市町村長が必要と認める事項": "",
        "受入対象者": "避難行動要支援者のうち、医師の判断による",
        "備考": ""
      }
    },
    {
      "type": "Feature",
      "geometry": {
        "type": "Point",
        "coordinates": [
          135.376461,
          34.46722
        ]
      },
      "properties": {
        "NO": 50515,
        "共通ID": "E2720200106111",
        "都道府県名及び市町村名": "大阪府岸和田市",
        "施設・場所名": "光陽地区公民館",
        "住所": "大阪府岸和田市並松町15-10",
        "指定緊急避難場所との住所同一": "",
        "その他市町村長が必要と認める事項": "",
        "受入対象者": "",
        "備考": ""
      }
    },
    {
      "type": "Feature",
      "geometry": {
        "type": "Point",
        "coordinates": [
          135.381616,
          34.458832
        ]
      },
      "properties": {
        "NO": 50516,
        "共通ID": "E2720200107111",
        "都道府県名及び市町村名": "大阪府岸和田市",
        "施設・場所名": "東光小学校",
        "住所": "大阪府岸和田市別所町2-1-30",
        "指定緊急避難場所との住所同一": "1",
        "その他市町村長が必要と認める事項": "",
        "受入対象者": "",
        "備考": ""
      }
    },
    {
      "type": "Feature",
      "geometry": {
        "type": "Point",
        "coordinates": [
          135.389645,
          34.460323
        ]
      },
      "properties": {
        "NO": 50517,
        "共通ID": "E2720200110111",
        "都道府県名及び市町村名": "大阪府岸和田市",
        "施設・場所名": "産業高等学校",
        "住所": "大阪府岸和田市別所町3-33-1",
        "指定緊急避難場所との住所同一": "1",
        "その他市町村長が必要と認める事項": "",
        "受入対象者": "",
        "備考": ""
      }
    },
    {
      "type": "Feature",
      "geometry": {
        "type": "Point",
        "coordinates": [
          135.407739,
          34.473017
        ]
      },
      "properties": {
        "NO": 50518,
        "共通ID": "E2720200113111",
        "都道府県名及び市町村名": "大阪府岸和田市",
        "施設・場所名": "箕土路青少年会館",
        "住所": "大阪府岸和田市箕土路町2-6-15",
        "指定緊急避難場所との住所同一": "",
        "その他市町村長が必要と認める事項": "",
        "受入対象者": "",
        "備考": ""
      }
    },
    {
      "type": "Feature",
      "geometry": {
        "type": "Point",
        "coordinates": [
          135.378781,
          34.459177
        ]
      },
      "properties": {
        "NO": 50519,
        "共通ID": "E2720200115111",
        "都道府県名及び市町村名": "大阪府岸和田市",
        "施設・場所名": "福祉総合センター",
        "住所": "大阪府岸和田市野田町1-5-5",
        "指定緊急避難場所との住所同一": "",
        "その他市町村長が必要と認める事項": "",
        "受入対象者": "",
        "備考": ""
      }
    },
    {
      "type": "Feature",
      "geometry": {
        "type": "Point",
        "coordinates": [
          135.378776,
          34.459172
        ]
      },
      "properties": {
        "NO": 50520,
        "共通ID": "E2720200115121",
        "都道府県名及び市町村名": "大阪府岸和田市",
        "施設・場所名": "総合通園センター",
        "住所": "大阪府岸和田市野田町1-5-5",
        "指定緊急避難場所との住所同一": "",
        "その他市町村長が必要と認める事項": "",
        "受入対象者": "在園児及びその家族又は介助者（これらの者のうち市が特定したものに限る。）",
        "備考": ""
      }
    },
    {
      "type": "Feature",
      "geometry": {
        "type": "Point",
        "coordinates": [
          135.378777,
          34.459172
        ]
      },
      "properties": {
        "NO": 50521,
        "共通ID": "E2720200115122",
        "都道府県名及び市町村名": "大阪府岸和田市",
        "施設・場所名": "福祉総合センター３階",
        "住所": "大阪府岸和田市野田町1-5-5",
        "指定緊急避難場所との住所同一": "",
        "その他市町村長が必要と認める事項": "",
        "受入対象者": "岸和田市内在住の大阪府佐野支援学校在校児童、生徒及びその家族又は介助者（これらの者のうち市が特定したものに限る。）",
        "備考": ""
      }
    },
    {
      "type": "Feature",
      "geometry": {
        "type": "Point",
        "coordinates": [
          135.379566,
          34.456215
        ]
      },
      "properties": {
        "NO": 50522,
        "共通ID": "E2720200116111",
        "都道府県名及び市町村名": "大阪府岸和田市",
        "施設・場所名": "岸城中学校",
        "住所": "大阪府岸和田市野田町2-19-19",
        "指定緊急避難場所との住所同一": "1",
        "その他市町村長が必要と認める事項": "",
        "受入対象者": "",
        "備考": ""
      }
    },
    {
      "type": "Feature",
      "geometry": {
        "type": "Point",
        "coordinates": [
          135.395185,
          34.431371
        ]
      },
      "properties": {
        "NO": 50523,
        "共通ID": "E2720200119121",
        "都道府県名及び市町村名": "大阪府岸和田市",
        "施設・場所名": "特別養護老人ホーム岸和田天神山荘",
        "住所": "大阪府岸和田市流木町337-7",
        "指定緊急避難場所との住所同一": "",
        "その他市町村長が必要と認める事項": "",
        "受入対象者": "避難行動要支援者のうち、医師の判断による",
        "備考": ""
      }
    },
    {
      "type": "Feature",
      "geometry": {
        "type": "Point",
        "coordinates": [
          135.391899,
          34.42638
        ]
      },
      "properties": {
        "NO": 50524,
        "共通ID": "E2720200120121",
        "都道府県名及び市町村名": "大阪府岸和田市",
        "施設・場所名": "介護老人保健施設大阪緑ヶ丘",
        "住所": "大阪府岸和田市流木町668-1",
        "指定緊急避難場所との住所同一": "",
        "その他市町村長が必要と認める事項": "",
        "受入対象者": "避難行動要支援者のうち、医師の判断による",
        "備考": ""
      }
    }
  ]
}