{
  "type": "FeatureCollection",
  "name": "272078",
  "features": [
    {
      "type": "Feature",
      "geometry": {
        "type": "Point",
        "coordinates": [
          135.575379,
          34.855533
        ]
      },
      "properties": {
        "NO": 50893,
        "共通ID": "E2720700001111",
        "都道府県名及び市町村名": "大阪府高槻市",
        "施設・場所名": "西阿武野コミュニティセンター",
        "住所": "大阪府高槻市阿武野1-10-2",
        "指定緊急避難場所との住所同一": "1",
        "その他市町村長が必要と認める事項": null,
        "受入対象者": null,
        "備考": ""
      }
    },
    {
      "type": "Feature",
      "geometry": {
        "type": "Point",
        "coordinates": [
          135.576804,
          34.860329
        ]
      },
      "properties": {
        "NO": 50894,
        "共通ID": "E2720700002111",
        "都道府県名及び市町村名": "大阪府高槻市",
        "施設・場所名": "阿武山小学校",
        "住所": "大阪府高槻市阿武野2-1-2",
        "指定緊急避難場所との住所同一": "1",
        "その他市町村長が必要と認める事項": null,
        "受入対象者": null,
        "備考": ""
      }
    },
    {
      "type": "Feature",
      "geometry": {
        "type": "Point",
        "coordinates": [
          135.603948,
          34.872236
        ]
      },
      "properties": {
        "NO": 50895,
        "共通ID": "E2720700004111",
        "都道府県名及び市町村名": "大阪府高槻市",
        "施設・場所名": "安岡寺小学校",
        "住所": "大阪府高槻市安岡寺町1-60-1",
        "指定緊急避難場所との住所同一": "1",
        "その他市町村長が必要と認める事項": null,
        "受入対象者": null,
        "備考": ""
      }
    },
    {
      "type": "Feature",
      "geometry": {
        "type": "Point",
        "coordinates": [
          135.604485,
          34.881716
        ]
      },
      "properties": {
        "NO": 50896,
        "共通ID": "E2720700005111",
        "都道府県名及び市町村名": "大阪府高槻市",
        "施設・場所名": "北清水小学校",
        "住所": "大阪府高槻市安岡寺町6-2-1",
        "指定緊急避難場所との住所同一": "1",
        "その他市町村長が必要と認める事項": null,
        "受入対象者": null,
        "備考": ""
      }
    },
    {
      "type": "Feature",
      "geometry": {
        "type": "Point",
        "coordinates": [
          135.606858,
          34.881556
        ]
      },
      "properties": {
        "NO": 50897,
        "共通ID": "E2720700007121",
        "都道府県名及び市町村名": "大阪府高槻市",
        "施設・場所名": "特別養護老人ホーム高槻ともしび苑",
        "住所": "大阪府高槻市安岡寺町6-6-1",
        "指定緊急避難場所との住所同一": "",
        "その他市町村長が必要と認める事項": null,
        "受入対象者": "高齢者等",
        "備考": ""
      }
    },
    {
      "type": "Feature",
      "geometry": {
        "type": "Point",
        "coordinates": [
          135.628842,
          34.861094
        ]
      },
      "properties": {
        "NO": 50898,
        "共通ID": "E2720700008111",
        "都道府県名及び市町村名": "大阪府高槻市",
        "施設・場所名": "磐手小学校",
        "住所": "大阪府高槻市安満西の町27-1",
        "指定緊急避難場所との住所同一": "1",
        "その他市町村長が必要と認める事項": null,
        "受入対象者": null,
        "備考": ""
      }
    },
    {
      "type": "Feature",
      "geometry": {
        "type": "Point",
        "coordinates": [
          135.629042,
          34.863022
        ]
      },
      "properties": {
        "NO": 50899,
        "共通ID": "E2720700009111",
        "都道府県名及び市町村名": "大阪府高槻市",
        "施設・場所名": "磐手公民館",
        "住所": "大阪府高槻市安満北の町18-1",
        "指定緊急避難場所との住所同一": "1",
        "その他市町村長が必要と認める事項": null,
        "受入対象者": null,
        "備考": ""
      }
    },
    {
      "type": "Feature",
      "geometry": {
        "type": "Point",
        "coordinates": [
          135.649148,
          34.855077
        ]
      },
      "properties": {
        "NO": 50900,
        "共通ID": "E2720700010121",
        "都道府県名及び市町村名": "大阪府高槻市",
        "施設・場所名": "特別養護老人ホーム　和朗園",
        "住所": "大阪府高槻市井尻2-37-8",
        "指定緊急避難場所との住所同一": "",
        "その他市町村長が必要と認める事項": null,
        "受入対象者": "高齢者等",
        "備考": ""
      }
    },
    {
      "type": "Feature",
      "geometry": {
        "type": "Point",
        "coordinates": [
          135.601684,
          34.825813
        ]
      },
      "properties": {
        "NO": 50901,
        "共通ID": "E2720700012111",
        "都道府県名及び市町村名": "大阪府高槻市",
        "施設・場所名": "寿栄小学校",
        "住所": "大阪府高槻市栄町3-11-2",
        "指定緊急避難場所との住所同一": "1",
        "その他市町村長が必要と認める事項": null,
        "受入対象者": null,
        "備考": ""
      }
    },
    {
      "type": "Feature",
      "geometry": {
        "type": "Point",
        "coordinates": [
          135.600455,
          34.82651
        ]
      },
      "properties": {
        "NO": 50902,
        "共通ID": "E2720700013111",
        "都道府県名及び市町村名": "大阪府高槻市",
        "施設・場所名": "寿栄コミュニティセンター",
        "住所": "大阪府高槻市栄町3-11-3",
        "指定緊急避難場所との住所同一": "1",
        "その他市町村長が必要と認める事項": null,
        "受入対象者": null,
        "備考": ""
      }
    },
    {
      "type": "Feature",
      "geometry": {
        "type": "Point",
        "coordinates": [
          135.632587,
          34.845612
        ]
      },
      "properties": {
        "NO": 50903,
        "共通ID": "E2720700015111",
        "都道府県名及び市町村名": "大阪府高槻市",
        "施設・場所名": "大冠北第一コミュニティセンター",
        "住所": "大阪府高槻市永楽町1-15",
        "指定緊急避難場所との住所同一": "1",
        "その他市町村長が必要と認める事項": null,
        "受入対象者": null,
        "備考": ""
      }
    },
    {
      "type": "Feature",
      "geometry": {
        "type": "Point",
        "coordinates": [
          135.637922,
          34.846845
        ]
      },
      "properties": {
        "NO": 50904,
        "共通ID": "E2720700014111",
        "都道府県名及び市町村名": "大阪府高槻市",
        "施設・場所名": "第六中学校",
        "住所": "大阪府高槻市永楽町10-3",
        "指定緊急避難場所との住所同一": "1",
        "その他市町村長が必要と認める事項": null,
        "受入対象者": null,
        "備考": ""
      }
    },
    {
      "type": "Feature",
      "geometry": {
        "type": "Point",
        "coordinates": [
          135.592052,
          34.874799
        ]
      },
      "properties": {
        "NO": 50905,
        "共通ID": "E2720700016121",
        "都道府県名及び市町村名": "大阪府高槻市",
        "施設・場所名": "高槻黄金の里特別養護老人ホーム",
        "住所": "大阪府高槻市黄金の里1-14-8",
        "指定緊急避難場所との住所同一": "",
        "その他市町村長が必要と認める事項": null,
        "受入対象者": "高齢者等",
        "備考": ""
      }
    },
    {
      "type": "Feature",
      "geometry": {
        "type": "Point",
        "coordinates": [
          135.608383,
          34.852011
        ]
      },
      "properties": {
        "NO": 50906,
        "共通ID": "E2720700017111",
        "都道府県名及び市町村名": "大阪府高槻市",
        "施設・場所名": "芥川公民館",
        "住所": "大阪府高槻市芥川町4-20-12",
        "指定緊急避難場所との住所同一": "1",
        "その他市町村長が必要と認める事項": null,
        "受入対象者": null,
        "備考": ""
      }
    },
    {
      "type": "Feature",
      "geometry": {
        "type": "Point",
        "coordinates": [
          135.600787,
          34.871295
        ]
      },
      "properties": {
        "NO": 50907,
        "共通ID": "E2720700019121",
        "都道府県名及び市町村名": "大阪府高槻市",
        "施設・場所名": "地域生活支援センター光",
        "住所": "大阪府高槻市宮之川原2-9-1",
        "指定緊急避難場所との住所同一": "",
        "その他市町村長が必要と認める事項": null,
        "受入対象者": "障がい者等",
        "備考": ""
      }
    },
    {
      "type": "Feature",
      "geometry": {
        "type": "Point",
        "coordinates": [
          135.600586,
          34.865922
        ]
      },
      "properties": {
        "NO": 50908,
        "共通ID": "E2720700020111",
        "都道府県名及び市町村名": "大阪府高槻市",
        "施設・場所名": "清水小学校",
        "住所": "大阪府高槻市宮之川原4-20-1",
        "指定緊急避難場所との住所同一": "1",
        "その他市町村長が必要と認める事項": null,
        "受入対象者": null,
        "備考": ""
      }
    },
    {
      "type": "Feature",
      "geometry": {
        "type": "Point",
        "coordinates": [
          135.598383,
          34.865736
        ]
      },
      "properties": {
        "NO": 50909,
        "共通ID": "E2720700022111",
        "都道府県名及び市町村名": "大阪府高槻市",
        "施設・場所名": "清水コミュニティセンター",
        "住所": "大阪府高槻市宮之川原5-4-3",
        "指定緊急避難場所との住所同一": "1",
        "その他市町村長が必要と認める事項": null,
        "受入対象者": null,
        "備考": ""
      }
    },
    {
      "type": "Feature",
      "geometry": {
        "type": "Point",
        "coordinates": [
          135.637243,
          34.850623
        ]
      },
      "properties": {
        "NO": 50910,
        "共通ID": "E2720700023111",
        "都道府県名及び市町村名": "大阪府高槻市",
        "施設・場所名": "大冠北第二コミュニティセンター",
        "住所": "大阪府高槻市宮野町10-16",
        "指定緊急避難場所との住所同一": "1",
        "その他市町村長が必要と認める事項": null,
        "受入対象者": null,
        "備考": ""
      }
    },
    {
      "type": "Feature",
      "geometry": {
        "type": "Point",
        "coordinates": [
          135.636633,
          34.851338
        ]
      },
      "properties": {
        "NO": 50911,
        "共通ID": "E2720700024111",
        "都道府県名及び市町村名": "大阪府高槻市",
        "施設・場所名": "北大冠小学校",
        "住所": "大阪府高槻市宮野町10-5",
        "指定緊急避難場所との住所同一": "1",
        "その他市町村長が必要と認める事項": null,
        "受入対象者": null,
        "備考": ""
      }
    },
    {
      "type": "Feature",
      "geometry": {
        "type": "Point",
        "coordinates": [
          135.594168,
          34.852072
        ]
      },
      "properties": {
        "NO": 50912,
        "共通ID": "E2720700025121",
        "都道府県名及び市町村名": "大阪府高槻市",
        "施設・場所名": "わかくさ障害者作業所",
        "住所": "大阪府高槻市郡家新町48-2",
        "指定緊急避難場所との住所同一": "",
        "その他市町村長が必要と認める事項": null,
        "受入対象者": "障がい者等",
        "備考": ""
      }
    },
    {
      "type": "Feature",
      "geometry": {
        "type": "Point",
        "coordinates": [
          135.594851,
          34.852245
        ]
      },
      "properties": {
        "NO": 50913,
        "共通ID": "E2720700026111",
        "都道府県名及び市町村名": "大阪府高槻市",
        "施設・場所名": "今城塚公民館",
        "住所": "大阪府高槻市郡家新町48-3",
        "指定緊急避難場所との住所同一": "1",
        "その他市町村長が必要と認める事項": null,
        "受入対象者": null,
        "備考": ""
      }
    },
    {
      "type": "Feature",
      "geometry": {
        "type": "Point",
        "coordinates": [
          135.595956,
          34.851805
        ]
      },
      "properties": {
        "NO": 50914,
        "共通ID": "E2720700028121",
        "都道府県名及び市町村名": "大阪府高槻市",
        "施設・場所名": "特別養護老人ホーム高槻荘",
        "住所": "大阪府高槻市郡家新町48-7",
        "指定緊急避難場所との住所同一": "",
        "その他市町村長が必要と認める事項": null,
        "受入対象者": "高齢者等",
        "備考": ""
      }
    },
    {
      "type": "Feature",
      "geometry": {
        "type": "Point",
        "coordinates": [
          135.596783,
          34.85131
        ]
      },
      "properties": {
        "NO": 50915,
        "共通ID": "E2720700029111",
        "都道府県名及び市町村名": "大阪府高槻市",
        "施設・場所名": "郡家小学校",
        "住所": "大阪府高槻市郡家新町68-1",
        "指定緊急避難場所との住所同一": "1",
        "その他市町村長が必要と認める事項": null,
        "受入対象者": null,
        "備考": ""
      }
    },
    {
      "type": "Feature",
      "geometry": {
        "type": "Point",
        "coordinates": [
          135.601032,
          34.850917
        ]
      },
      "properties": {
        "NO": 50916,
        "共通ID": "E2720700031121",
        "都道府県名及び市町村名": "大阪府高槻市",
        "施設・場所名": "地域密着型特別養護老人ホームひなた",
        "住所": "大阪府高槻市郡家新町74-1",
        "指定緊急避難場所との住所同一": "",
        "その他市町村長が必要と認める事項": null,
        "受入対象者": "高齢者等",
        "備考": ""
      }
    },
    {
      "type": "Feature",
      "geometry": {
        "type": "Point",
        "coordinates": [
          135.597793,
          34.854287
        ]
      },
      "properties": {
        "NO": 50917,
        "共通ID": "E2720700032121",
        "都道府県名及び市町村名": "大阪府高槻市",
        "施設・場所名": "特別養護老人ホーム　ぐんげ今城の丘",
        "住所": "大阪府高槻市郡家本町13-23",
        "指定緊急避難場所との住所同一": "",
        "その他市町村長が必要と認める事項": null,
        "受入対象者": "高齢者等",
        "備考": ""
      }
    },
    {
      "type": "Feature",
      "geometry": {
        "type": "Point",
        "coordinates": [
          135.598519,
          34.853627
        ]
      },
      "properties": {
        "NO": 50918,
        "共通ID": "E2720700033121",
        "都道府県名及び市町村名": "大阪府高槻市",
        "施設・場所名": "生活支援総合施設フォレスタ",
        "住所": "大阪府高槻市郡家本町14-5",
        "指定緊急避難場所との住所同一": "",
        "その他市町村長が必要と認める事項": null,
        "受入対象者": "障がい者等",
        "備考": ""
      }
    },
    {
      "type": "Feature",
      "geometry": {
        "type": "Point",
        "coordinates": [
          135.596005,
          34.854216
        ]
      },
      "properties": {
        "NO": 50919,
        "共通ID": "E2720700034121",
        "都道府県名及び市町村名": "大阪府高槻市",
        "施設・場所名": "高槻地域生活総合支援センターぷれいすＢｅ",
        "住所": "大阪府高槻市郡家本町5-2",
        "指定緊急避難場所との住所同一": "",
        "その他市町村長が必要と認める事項": null,
        "受入対象者": "障がい者等",
        "備考": ""
      }
    },
    {
      "type": "Feature",
      "geometry": {
        "type": "Point",
        "coordinates": [
          135.595265,
          34.854055
        ]
      },
      "properties": {
        "NO": 50920,
        "共通ID": "E2720700036121",
        "都道府県名及び市町村名": "大阪府高槻市",
        "施設・場所名": "高槻市立療育園",
        "住所": "大阪府高槻市郡家本町5-3",
        "指定緊急避難場所との住所同一": "",
        "その他市町村長が必要と認める事項": null,
        "受入対象者": "障がい者等",
        "備考": ""
      }
    },
    {
      "type": "Feature",
      "geometry": {
        "type": "Point",
        "coordinates": [
          135.59592,
          34.853808
        ]
      },
      "properties": {
        "NO": 50921,
        "共通ID": "E2720700037121",
        "都道府県名及び市町村名": "大阪府高槻市",
        "施設・場所名": "高槻市立うの花療育園",
        "住所": "大阪府高槻市郡家本町5-5",
        "指定緊急避難場所との住所同一": "",
        "その他市町村長が必要と認める事項": null,
        "受入対象者": "障がい者等",
        "備考": ""
      }
    },
    {
      "type": "Feature",
      "geometry": {
        "type": "Point",
        "coordinates": [
          135.596641,
          34.857134
        ]
      },
      "properties": {
        "NO": 50922,
        "共通ID": "E2720700035111",
        "都道府県名及び市町村名": "大阪府高槻市",
        "施設・場所名": "第二中学校",
        "住所": "大阪府高槻市郡家本町52-1",
        "指定緊急避難場所との住所同一": "1",
        "その他市町村長が必要と認める事項": null,
        "受入対象者": null,
        "備考": ""
      }
    },
    {
      "type": "Feature",
      "geometry": {
        "type": "Point",
        "coordinates": [
          135.653526,
          34.862006
        ]
      },
      "properties": {
        "NO": 50923,
        "共通ID": "E2720700038111",
        "都道府県名及び市町村名": "大阪府高槻市",
        "施設・場所名": "五領公民館",
        "住所": "大阪府高槻市五領町11-6",
        "指定緊急避難場所との住所同一": "1",
        "その他市町村長が必要と認める事項": null,
        "受入対象者": null,
        "備考": ""
      }
    },
    {
      "type": "Feature",
      "geometry": {
        "type": "Point",
        "coordinates": [
          135.652682,
          34.861761
        ]
      },
      "properties": {
        "NO": 50924,
        "共通ID": "E2720700039111",
        "都道府県名及び市町村名": "大阪府高槻市",
        "施設・場所名": "五領小学校",
        "住所": "大阪府高槻市五領町12-1",
        "指定緊急避難場所との住所同一": "1",
        "その他市町村長が必要と認める事項": null,
        "受入対象者": null,
        "備考": ""
      }
    },
    {
      "type": "Feature",
      "geometry": {
        "type": "Point",
        "coordinates": [
          135.627503,
          34.864614
        ]
      },
      "properties": {
        "NO": 50925,
        "共通ID": "E2720700040111",
        "都道府県名及び市町村名": "大阪府高槻市",
        "施設・場所名": "第八中学校",
        "住所": "大阪府高槻市紅茸町5-1",
        "指定緊急避難場所との住所同一": "1",
        "その他市町村長が必要と認める事項": null,
        "受入対象者": null,
        "備考": ""
      }
    },
    {
      "type": "Feature",
      "geometry": {
        "type": "Point",
        "coordinates": [
          135.601821,
          34.797836
        ]
      },
      "properties": {
        "NO": 50926,
        "共通ID": "E2720700043121",
        "都道府県名及び市町村名": "大阪府高槻市",
        "施設・場所名": "特別養護老人ホーム　ひばり苑",
        "住所": "大阪府高槻市三箇牧2-20-3",
        "指定緊急避難場所との住所同一": "",
        "その他市町村長が必要と認める事項": null,
        "受入対象者": "高齢者等",
        "備考": ""
      }
    },
    {
      "type": "Feature",
      "geometry": {
        "type": "Point",
        "coordinates": [
          135.61152,
          34.803588
        ]
      },
      "properties": {
        "NO": 50927,
        "共通ID": "E2720700044111",
        "都道府県名及び市町村名": "大阪府高槻市",
        "施設・場所名": "三箇牧公民館",
        "住所": "大阪府高槻市三島江1-11-8",
        "指定緊急避難場所との住所同一": "1",
        "その他市町村長が必要と認める事項": null,
        "受入対象者": null,
        "備考": ""
      }
    },
    {
      "type": "Feature",
      "geometry": {
        "type": "Point",
        "coordinates": [
          135.613171,
          34.804871
        ]
      },
      "properties": {
        "NO": 50928,
        "共通ID": "E2720700045111",
        "都道府県名及び市町村名": "大阪府高槻市",
        "施設・場所名": "三箇牧小学校",
        "住所": "大阪府高槻市三島江1-13-6",
        "指定緊急避難場所との住所同一": "1",
        "その他市町村長が必要と認める事項": null,
        "受入対象者": null,
        "備考": ""
      }
    },
    {
      "type": "Feature",
      "geometry": {
        "type": "Point",
        "coordinates": [
          135.609204,
          34.796828
        ]
      },
      "properties": {
        "NO": 50929,
        "共通ID": "E2720700046121",
        "都道府県名及び市町村名": "大阪府高槻市",
        "施設・場所名": "特別養護老人ホーム　れんげ荘",
        "住所": "大阪府高槻市三島江4-38-7",
        "指定緊急避難場所との住所同一": "",
        "その他市町村長が必要と認める事項": null,
        "受入対象者": "高齢者等",
        "備考": ""
      }
    },
    {
      "type": "Feature",
      "geometry": {
        "type": "Point",
        "coordinates": [
          135.639453,
          34.861743
        ]
      },
      "properties": {
        "NO": 50930,
        "共通ID": "E2720700047121",
        "都道府県名及び市町村名": "大阪府高槻市",
        "施設・場所名": "やまびこ園",
        "住所": "大阪府高槻市山手町2-2-1",
        "指定緊急避難場所との住所同一": "",
        "その他市町村長が必要と認める事項": null,
        "受入対象者": "障がい者等",
        "備考": ""
      }
    },
    {
      "type": "Feature",
      "geometry": {
        "type": "Point",
        "coordinates": [
          135.608554,
          34.878008
        ]
      },
      "properties": {
        "NO": 50931,
        "共通ID": "E2720700049111",
        "都道府県名及び市町村名": "大阪府高槻市",
        "施設・場所名": "日吉台公民館",
        "住所": "大阪府高槻市寺谷町50-1",
        "指定緊急避難場所との住所同一": "1",
        "その他市町村長が必要と認める事項": null,
        "受入対象者": null,
        "備考": ""
      }
    },
    {
      "type": "Feature",
      "geometry": {
        "type": "Point",
        "coordinates": [
          135.607827,
          34.832095
        ]
      },
      "properties": {
        "NO": 50932,
        "共通ID": "E2720700050111",
        "都道府県名及び市町村名": "大阪府高槻市",
        "施設・場所名": "第三中学校",
        "住所": "大阪府高槻市芝生町2-49-5",
        "指定緊急避難場所との住所同一": "1",
        "その他市町村長が必要と認める事項": null,
        "受入対象者": null,
        "備考": ""
      }
    },
    {
      "type": "Feature",
      "geometry": {
        "type": "Point",
        "coordinates": [
          135.60998,
          34.82787
        ]
      },
      "properties": {
        "NO": 50933,
        "共通ID": "E2720700051111",
        "都道府県名及び市町村名": "大阪府高槻市",
        "施設・場所名": "女瀬川南コミュニティセンター",
        "住所": "大阪府高槻市芝生町3-16-1",
        "指定緊急避難場所との住所同一": "1",
        "その他市町村長が必要と認める事項": null,
        "受入対象者": null,
        "備考": ""
      }
    },
    {
      "type": "Feature",
      "geometry": {
        "type": "Point",
        "coordinates": [
          135.610265,
          34.827199
        ]
      },
      "properties": {
        "NO": 50934,
        "共通ID": "E2720700052111",
        "都道府県名及び市町村名": "大阪府高槻市",
        "施設・場所名": "丸橋小学校",
        "住所": "大阪府高槻市芝生町3-16-2",
        "指定緊急避難場所との住所同一": "1",
        "その他市町村長が必要と認める事項": null,
        "受入対象者": null,
        "備考": ""
      }
    },
    {
      "type": "Feature",
      "geometry": {
        "type": "Point",
        "coordinates": [
          135.608737,
          34.825752
        ]
      },
      "properties": {
        "NO": 50935,
        "共通ID": "E2720700053111",
        "都道府県名及び市町村名": "大阪府高槻市",
        "施設・場所名": "芝生小学校",
        "住所": "大阪府高槻市芝生町3-30-1",
        "指定緊急避難場所との住所同一": "1",
        "その他市町村長が必要と認める事項": null,
        "受入対象者": null,
        "備考": ""
      }
    },
    {
      "type": "Feature",
      "geometry": {
        "type": "Point",
        "coordinates": [
          135.609644,
          34.869753
        ]
      },
      "properties": {
        "NO": 50936,
        "共通ID": "E2720700054111",
        "都道府県名及び市町村名": "大阪府高槻市",
        "施設・場所名": "芝谷中学校",
        "住所": "大阪府高槻市芝谷町3-1",
        "指定緊急避難場所との住所同一": "1",
        "その他市町村長が必要と認める事項": null,
        "受入対象者": null,
        "備考": ""
      }
    },
    {
      "type": "Feature",
      "geometry": {
        "type": "Point",
        "coordinates": [
          135.628244,
          34.834609
        ]
      },
      "properties": {
        "NO": 50937,
        "共通ID": "E2720700055111",
        "都道府県名及び市町村名": "大阪府高槻市",
        "施設・場所名": "若松小学校",
        "住所": "大阪府高槻市若松町22-2",
        "指定緊急避難場所との住所同一": "1",
        "その他市町村長が必要と認める事項": null,
        "受入対象者": null,
        "備考": ""
      }
    },
    {
      "type": "Feature",
      "geometry": {
        "type": "Point",
        "coordinates": [
          135.619197,
          34.84263
        ]
      },
      "properties": {
        "NO": 50938,
        "共通ID": "E2720700056121",
        "都道府県名及び市町村名": "大阪府高槻市",
        "施設・場所名": "特別養護老人ホーム　出丸苑",
        "住所": "大阪府高槻市出丸町4-62",
        "指定緊急避難場所との住所同一": "",
        "その他市町村長が必要と認める事項": null,
        "受入対象者": "高齢者等",
        "備考": ""
      }
    },
    {
      "type": "Feature",
      "geometry": {
        "type": "Point",
        "coordinates": [
          135.627656,
          34.836798
        ]
      },
      "properties": {
        "NO": 50939,
        "共通ID": "E2720700057111",
        "都道府県名及び市町村名": "大阪府高槻市",
        "施設・場所名": "春日ふれあい文化センター",
        "住所": "大阪府高槻市春日町22-1",
        "指定緊急避難場所との住所同一": "1",
        "その他市町村長が必要と認める事項": null,
        "受入対象者": null,
        "備考": ""
      }
    },
    {
      "type": "Feature",
      "geometry": {
        "type": "Point",
        "coordinates": [
          135.590756,
          34.830255
        ]
      },
      "properties": {
        "NO": 50940,
        "共通ID": "E2720700058111",
        "都道府県名及び市町村名": "大阪府高槻市",
        "施設・場所名": "富田小学校",
        "住所": "大阪府高槻市昭和台町1-1-1",
        "指定緊急避難場所との住所同一": "1",
        "その他市町村長が必要と認める事項": null,
        "受入対象者": null,
        "備考": ""
      }
    },
    {
      "type": "Feature",
      "geometry": {
        "type": "Point",
        "coordinates": [
          135.599496,
          34.873252
        ]
      },
      "properties": {
        "NO": 50941,
        "共通ID": "E2720700059111",
        "都道府県名及び市町村名": "大阪府高槻市",
        "施設・場所名": "第九中学校",
        "住所": "大阪府高槻市松が丘1-17-1",
        "指定緊急避難場所との住所同一": "1",
        "その他市町村長が必要と認める事項": null,
        "受入対象者": null,
        "備考": ""
      }
    },
    {
      "type": "Feature",
      "geometry": {
        "type": "Point",
        "coordinates": [
          135.599488,
          34.871388
        ]
      },
      "properties": {
        "NO": 50942,
        "共通ID": "E2720700060121",
        "都道府県名及び市町村名": "大阪府高槻市",
        "施設・場所名": "特別養護老人ホーム　ミス・ブール記念ホーム",
        "住所": "大阪府高槻市松が丘1-21-9",
        "指定緊急避難場所との住所同一": "",
        "その他市町村長が必要と認める事項": null,
        "受入対象者": "高齢者等",
        "備考": ""
      }
    },
    {
      "type": "Feature",
      "geometry": {
        "type": "Point",
        "coordinates": [
          135.577271,
          34.848397
        ]
      },
      "properties": {
        "NO": 50943,
        "共通ID": "E2720700061111",
        "都道府県名及び市町村名": "大阪府高槻市",
        "施設・場所名": "土室小学校",
        "住所": "大阪府高槻市上土室6-10-1",
        "指定緊急避難場所との住所同一": "1",
        "その他市町村長が必要と認める事項": null,
        "受入対象者": null,
        "備考": ""
      }
    },
    {
      "type": "Feature",
      "geometry": {
        "type": "Point",
        "coordinates": [
          135.66105,
          34.860428
        ]
      },
      "properties": {
        "NO": 50944,
        "共通ID": "E2720700063111",
        "都道府県名及び市町村名": "大阪府高槻市",
        "施設・場所名": "上牧小学校",
        "住所": "大阪府高槻市上牧町4-22-1",
        "指定緊急避難場所との住所同一": "1",
        "その他市町村長が必要と認める事項": null,
        "受入対象者": null,
        "備考": ""
      }
    },
    {
      "type": "Feature",
      "geometry": {
        "type": "Point",
        "coordinates": [
          135.614222,
          34.84144
        ]
      },
      "properties": {
        "NO": 50945,
        "共通ID": "E2720700064111",
        "都道府県名及び市町村名": "大阪府高槻市",
        "施設・場所名": "桃園コミュニティセンター",
        "住所": "大阪府高槻市城西町10-12",
        "指定緊急避難場所との住所同一": "1",
        "その他市町村長が必要と認める事項": null,
        "受入対象者": null,
        "備考": ""
      }
    },
    {
      "type": "Feature",
      "geometry": {
        "type": "Point",
        "coordinates": [
          135.622444,
          34.844664
        ]
      },
      "properties": {
        "NO": 50946,
        "共通ID": "E2720700066111",
        "都道府県名及び市町村名": "大阪府高槻市",
        "施設・場所名": "城内公民館",
        "住所": "大阪府高槻市城内町1-1",
        "指定緊急避難場所との住所同一": "1",
        "その他市町村長が必要と認める事項": null,
        "受入対象者": null,
        "備考": ""
      }
    },
    {
      "type": "Feature",
      "geometry": {
        "type": "Point",
        "coordinates": [
          135.623455,
          34.844643
        ]
      },
      "properties": {
        "NO": 50947,
        "共通ID": "E2720700067121",
        "都道府県名及び市町村名": "大阪府高槻市",
        "施設・場所名": "高槻市立障がい者福祉センター",
        "住所": "大阪府高槻市城内町1-11",
        "指定緊急避難場所との住所同一": "1",
        "その他市町村長が必要と認める事項": null,
        "受入対象者": "障がい者等",
        "備考": ""
      }
    },
    {
      "type": "Feature",
      "geometry": {
        "type": "Point",
        "coordinates": [
          135.622999,
          34.844063
        ]
      },
      "properties": {
        "NO": 50948,
        "共通ID": "E2720700068111",
        "都道府県名及び市町村名": "大阪府高槻市",
        "施設・場所名": "第一中学校",
        "住所": "大阪府高槻市城内町1-35",
        "指定緊急避難場所との住所同一": "1",
        "その他市町村長が必要と認める事項": null,
        "受入対象者": null,
        "備考": ""
      }
    },
    {
      "type": "Feature",
      "geometry": {
        "type": "Point",
        "coordinates": [
          135.62604,
          34.838676
        ]
      },
      "properties": {
        "NO": 50949,
        "共通ID": "E2720700070111",
        "都道府県名及び市町村名": "大阪府高槻市",
        "施設・場所名": "城南中学校",
        "住所": "大阪府高槻市城南町2-30-1",
        "指定緊急避難場所との住所同一": "1",
        "その他市町村長が必要と認める事項": null,
        "受入対象者": null,
        "備考": ""
      }
    },
    {
      "type": "Feature",
      "geometry": {
        "type": "Point",
        "coordinates": [
          135.623533,
          34.838094
        ]
      },
      "properties": {
        "NO": 50950,
        "共通ID": "E2720700071111",
        "都道府県名及び市町村名": "大阪府高槻市",
        "施設・場所名": "西大冠小学校",
        "住所": "大阪府高槻市城南町3-1-1",
        "指定緊急避難場所との住所同一": "1",
        "その他市町村長が必要と認める事項": null,
        "受入対象者": null,
        "備考": ""
      }
    },
    {
      "type": "Feature",
      "geometry": {
        "type": "Point",
        "coordinates": [
          135.62388,
          34.83701
        ]
      },
      "properties": {
        "NO": 50951,
        "共通ID": "E2720700073111",
        "都道府県名及び市町村名": "大阪府高槻市",
        "施設・場所名": "西大冠コミュニティセンター",
        "住所": "大阪府高槻市城南町3-1-3",
        "指定緊急避難場所との住所同一": "1",
        "その他市町村長が必要と認める事項": null,
        "受入対象者": null,
        "備考": ""
      }
    },
    {
      "type": "Feature",
      "geometry": {
        "type": "Point",
        "coordinates": [
          135.613606,
          34.854943
        ]
      },
      "properties": {
        "NO": 50952,
        "共通ID": "E2720700074111",
        "都道府県名及び市町村名": "大阪府高槻市",
        "施設・場所名": "芥川小学校",
        "住所": "大阪府高槻市真上町1-2-3",
        "指定緊急避難場所との住所同一": "1",
        "その他市町村長が必要と認める事項": null,
        "受入対象者": null,
        "備考": ""
      }
    },
    {
      "type": "Feature",
      "geometry": {
        "type": "Point",
        "coordinates": [
          135.608734,
          34.8578
        ]
      },
      "properties": {
        "NO": 50953,
        "共通ID": "E2720700076111",
        "都道府県名及び市町村名": "大阪府高槻市",
        "施設・場所名": "真上公民館",
        "住所": "大阪府高槻市真上町2-16-6",
        "指定緊急避難場所との住所同一": "1",
        "その他市町村長が必要と認める事項": null,
        "受入対象者": null,
        "備考": ""
      }
    },
    {
      "type": "Feature",
      "geometry": {
        "type": "Point",
        "coordinates": [
          135.598213,
          34.878479
        ]
      },
      "properties": {
        "NO": 50954,
        "共通ID": "E2720700078111",
        "都道府県名及び市町村名": "大阪府高槻市",
        "施設・場所名": "北清水公民館",
        "住所": "大阪府高槻市清水台1-7-1",
        "指定緊急避難場所との住所同一": "1",
        "その他市町村長が必要と認める事項": null,
        "受入対象者": null,
        "備考": ""
      }
    },
    {
      "type": "Feature",
      "geometry": {
        "type": "Point",
        "coordinates": [
          135.604353,
          34.851738
        ]
      },
      "properties": {
        "NO": 50955,
        "共通ID": "E2720700079111",
        "都道府県名及び市町村名": "大阪府高槻市",
        "施設・場所名": "川西コミュニティセンター",
        "住所": "大阪府高槻市清福寺町6-5",
        "指定緊急避難場所との住所同一": "1",
        "その他市町村長が必要と認める事項": null,
        "受入対象者": null,
        "備考": ""
      }
    },
    {
      "type": "Feature",
      "geometry": {
        "type": "Point",
        "coordinates": [
          135.600822,
          34.857851
        ]
      },
      "properties": {
        "NO": 50956,
        "共通ID": "E2720700080111",
        "都道府県名及び市町村名": "大阪府高槻市",
        "施設・場所名": "真上小学校",
        "住所": "大阪府高槻市西真上2-17-1",
        "指定緊急避難場所との住所同一": "1",
        "その他市町村長が必要と認める事項": null,
        "受入対象者": null,
        "備考": ""
      }
    },
    {
      "type": "Feature",
      "geometry": {
        "type": "Point",
        "coordinates": [
          135.595777,
          34.825088
        ]
      },
      "properties": {
        "NO": 50957,
        "共通ID": "E2720700081111",
        "都道府県名及び市町村名": "大阪府高槻市",
        "施設・場所名": "柳川小学校",
        "住所": "大阪府高槻市西町2-1",
        "指定緊急避難場所との住所同一": "1",
        "その他市町村長が必要と認める事項": null,
        "受入対象者": null,
        "備考": ""
      }
    },
    {
      "type": "Feature",
      "geometry": {
        "type": "Point",
        "coordinates": [
          135.595544,
          34.823797
        ]
      },
      "properties": {
        "NO": 50958,
        "共通ID": "E2720700082111",
        "都道府県名及び市町村名": "大阪府高槻市",
        "施設・場所名": "柳川コミュニティセンター",
        "住所": "大阪府高槻市西町2-5",
        "指定緊急避難場所との住所同一": "1",
        "その他市町村長が必要と認める事項": null,
        "受入対象者": null,
        "備考": ""
      }
    },
    {
      "type": "Feature",
      "geometry": {
        "type": "Point",
        "coordinates": [
          135.603655,
          34.806986
        ]
      },
      "properties": {
        "NO": 50959,
        "共通ID": "E2720700083111",
        "都道府県名及び市町村名": "大阪府高槻市",
        "施設・場所名": "第七中学校",
        "住所": "大阪府高槻市西面北1-45-1",
        "指定緊急避難場所との住所同一": "1",
        "その他市町村長が必要と認める事項": null,
        "受入対象者": null,
        "備考": ""
      }
    },
    {
      "type": "Feature",
      "geometry": {
        "type": "Point",
        "coordinates": [
          135.585084,
          34.834919
        ]
      },
      "properties": {
        "NO": 50960,
        "共通ID": "E2720700084111",
        "都道府県名及び市町村名": "大阪府高槻市",
        "施設・場所名": "赤大路小学校",
        "住所": "大阪府高槻市赤大路町15-1",
        "指定緊急避難場所との住所同一": "1",
        "その他市町村長が必要と認める事項": null,
        "受入対象者": null,
        "備考": ""
      }
    },
    {
      "type": "Feature",
      "geometry": {
        "type": "Point",
        "coordinates": [
          135.586116,
          34.835581
        ]
      },
      "properties": {
        "NO": 50961,
        "共通ID": "E2720700085111",
        "都道府県名及び市町村名": "大阪府高槻市",
        "施設・場所名": "赤大路コミュニティセンター",
        "住所": "大阪府高槻市赤大路町15-6",
        "指定緊急避難場所との住所同一": "1",
        "その他市町村長が必要と認める事項": null,
        "受入対象者": null,
        "備考": ""
      }
    },
    {
      "type": "Feature",
      "geometry": {
        "type": "Point",
        "coordinates": [
          135.604353,
          34.851253
        ]
      },
      "properties": {
        "NO": 50962,
        "共通ID": "E2720700086111",
        "都道府県名及び市町村名": "大阪府高槻市",
        "施設・場所名": "川西小学校",
        "住所": "大阪府高槻市川西町1-34-7",
        "指定緊急避難場所との住所同一": "1",
        "その他市町村長が必要と認める事項": null,
        "受入対象者": null,
        "備考": ""
      }
    },
    {
      "type": "Feature",
      "geometry": {
        "type": "Point",
        "coordinates": [
          135.605255,
          34.845888
        ]
      },
      "properties": {
        "NO": 50963,
        "共通ID": "E2720700087111",
        "都道府県名及び市町村名": "大阪府高槻市",
        "施設・場所名": "川西中学校",
        "住所": "大阪府高槻市川西町2-33-1",
        "指定緊急避難場所との住所同一": "1",
        "その他市町村長が必要と認める事項": null,
        "受入対象者": null,
        "備考": ""
      }
    },
    {
      "type": "Feature",
      "geometry": {
        "type": "Point",
        "coordinates": [
          135.60921,
          34.84545
        ]
      },
      "properties": {
        "NO": 50964,
        "共通ID": "E2720700088111",
        "都道府県名及び市町村名": "大阪府高槻市",
        "施設・場所名": "清水池コミュニティセンター",
        "住所": "大阪府高槻市川西町3-7-7",
        "指定緊急避難場所との住所同一": "1",
        "その他市町村長が必要と認める事項": null,
        "受入対象者": null,
        "備考": ""
      }
    },
    {
      "type": "Feature",
      "geometry": {
        "type": "Point",
        "coordinates": [
          135.599395,
          34.823027
        ]
      },
      "properties": {
        "NO": 50965,
        "共通ID": "E2720700089111",
        "都道府県名及び市町村名": "大阪府高槻市",
        "施設・場所名": "柳川中学校",
        "住所": "大阪府高槻市川添1-1-5",
        "指定緊急避難場所との住所同一": "1",
        "その他市町村長が必要と認める事項": null,
        "受入対象者": null,
        "備考": ""
      }
    },
    {
      "type": "Feature",
      "geometry": {
        "type": "Point",
        "coordinates": [
          135.645271,
          34.843587
        ]
      },
      "properties": {
        "NO": 50966,
        "共通ID": "E2720700090121",
        "都道府県名及び市町村名": "大阪府高槻市",
        "施設・場所名": "特別養護老人ホーム　エイペックスひろの",
        "住所": "大阪府高槻市前島1-36-1",
        "指定緊急避難場所との住所同一": "",
        "その他市町村長が必要と認める事項": null,
        "受入対象者": "高齢者等",
        "備考": ""
      }
    },
    {
      "type": "Feature",
      "geometry": {
        "type": "Point",
        "coordinates": [
          135.637828,
          34.832121
        ]
      },
      "properties": {
        "NO": 50967,
        "共通ID": "E2720700091111",
        "都道府県名及び市町村名": "大阪府高槻市",
        "施設・場所名": "冠中学校",
        "住所": "大阪府高槻市大冠町2-24-1",
        "指定緊急避難場所との住所同一": "1",
        "その他市町村長が必要と認める事項": null,
        "受入対象者": null,
        "備考": ""
      }
    },
    {
      "type": "Feature",
      "geometry": {
        "type": "Point",
        "coordinates": [
          135.637001,
          34.833295
        ]
      },
      "properties": {
        "NO": 50968,
        "共通ID": "E2720700092111",
        "都道府県名及び市町村名": "大阪府高槻市",
        "施設・場所名": "冠コミュニティセンター",
        "住所": "大阪府高槻市大冠町2-40-10",
        "指定緊急避難場所との住所同一": "1",
        "その他市町村長が必要と認める事項": null,
        "受入対象者": null,
        "備考": ""
      }
    },
    {
      "type": "Feature",
      "geometry": {
        "type": "Point",
        "coordinates": [
          135.636717,
          34.834056
        ]
      },
      "properties": {
        "NO": 50969,
        "共通ID": "E2720700093111",
        "都道府県名及び市町村名": "大阪府高槻市",
        "施設・場所名": "冠小学校",
        "住所": "大阪府高槻市大冠町2-40-2",
        "指定緊急避難場所との住所同一": "1",
        "その他市町村長が必要と認める事項": null,
        "受入対象者": null,
        "備考": ""
      }
    },
    {
      "type": "Feature",
      "geometry": {
        "type": "Point",
        "coordinates": [
          135.602346,
          34.906493
        ]
      },
      "properties": {
        "NO": 50970,
        "共通ID": "E2720700095121",
        "都道府県名及び市町村名": "大阪府高槻市",
        "施設・場所名": "三島の郷",
        "住所": "大阪府高槻市大字原924-4",
        "指定緊急避難場所との住所同一": "",
        "その他市町村長が必要と認める事項": null,
        "受入対象者": "障がい者等",
        "備考": ""
      }
    },
    {
      "type": "Feature",
      "geometry": {
        "type": "Point",
        "coordinates": [
          135.588595,
          34.955529
        ]
      },
      "properties": {
        "NO": 50971,
        "共通ID": "E2720700098111",
        "都道府県名及び市町村名": "大阪府高槻市",
        "施設・場所名": "樫田小学校",
        "住所": "大阪府高槻市大字田能小字岡崎6",
        "指定緊急避難場所との住所同一": "1",
        "その他市町村長が必要と認める事項": null,
        "受入対象者": null,
        "備考": ""
      }
    },
    {
      "type": "Feature",
      "geometry": {
        "type": "Point",
        "coordinates": [
          135.591745,
          34.960702
        ]
      },
      "properties": {
        "NO": 50972,
        "共通ID": "E2720700099121",
        "都道府県名及び市町村名": "大阪府高槻市",
        "施設・場所名": "友遊の里",
        "住所": "大阪府高槻市大字田能小字宮ノ前1088",
        "指定緊急避難場所との住所同一": "",
        "その他市町村長が必要と認める事項": null,
        "受入対象者": "障がい者等",
        "備考": ""
      }
    },
    {
      "type": "Feature",
      "geometry": {
        "type": "Point",
        "coordinates": [
          135.589928,
          34.9532
        ]
      },
      "properties": {
        "NO": 50973,
        "共通ID": "E2720700100121",
        "都道府県名及び市町村名": "大阪府高槻市",
        "施設・場所名": "特別養護老人ホーム　樫田の里",
        "住所": "大阪府高槻市大字田能小字畑子谷15-1",
        "指定緊急避難場所との住所同一": "",
        "その他市町村長が必要と認める事項": null,
        "受入対象者": "高齢者等",
        "備考": ""
      }
    },
    {
      "type": "Feature",
      "geometry": {
        "type": "Point",
        "coordinates": [
          135.612837,
          34.807011
        ]
      },
      "properties": {
        "NO": 50974,
        "共通ID": "E2720700101121",
        "都道府県名及び市町村名": "大阪府高槻市",
        "施設・場所名": "わかくさ南障害者作業所",
        "住所": "大阪府高槻市大字唐崎1277",
        "指定緊急避難場所との住所同一": "",
        "その他市町村長が必要と認める事項": null,
        "受入対象者": "障がい者等",
        "備考": ""
      }
    },
    {
      "type": "Feature",
      "geometry": {
        "type": "Point",
        "coordinates": [
          135.570447,
          34.885618
        ]
      },
      "properties": {
        "NO": 50975,
        "共通ID": "E2720700102121",
        "都道府県名及び市町村名": "大阪府高槻市",
        "施設・場所名": "萩の杜",
        "住所": "大阪府高槻市大字萩谷14-1",
        "指定緊急避難場所との住所同一": "",
        "その他市町村長が必要と認める事項": null,
        "受入対象者": "障がい者等",
        "備考": ""
      }
    },
    {
      "type": "Feature",
      "geometry": {
        "type": "Point",
        "coordinates": [
          135.632872,
          34.822359
        ]
      },
      "properties": {
        "NO": 50976,
        "共通ID": "E2720700103111",
        "都道府県名及び市町村名": "大阪府高槻市",
        "施設・場所名": "南大冠公民館",
        "住所": "大阪府高槻市大塚町1-20-1",
        "指定緊急避難場所との住所同一": "1",
        "その他市町村長が必要と認める事項": null,
        "受入対象者": null,
        "備考": ""
      }
    },
    {
      "type": "Feature",
      "geometry": {
        "type": "Point",
        "coordinates": [
          135.634221,
          34.825933
        ]
      },
      "properties": {
        "NO": 50977,
        "共通ID": "E2720700104111",
        "都道府県名及び市町村名": "大阪府高槻市",
        "施設・場所名": "南大冠小学校",
        "住所": "大阪府高槻市大塚町1-4-8",
        "指定緊急避難場所との住所同一": "1",
        "その他市町村長が必要と認める事項": null,
        "受入対象者": null,
        "備考": ""
      }
    },
    {
      "type": "Feature",
      "geometry": {
        "type": "Point",
        "coordinates": [
          135.59198,
          34.839033
        ]
      },
      "properties": {
        "NO": 50978,
        "共通ID": "E2720700106111",
        "都道府県名及び市町村名": "大阪府高槻市",
        "施設・場所名": "第四中学校",
        "住所": "大阪府高槻市大畑町4-4",
        "指定緊急避難場所との住所同一": "1",
        "その他市町村長が必要と認める事項": null,
        "受入対象者": null,
        "備考": ""
      }
    },
    {
      "type": "Feature",
      "geometry": {
        "type": "Point",
        "coordinates": [
          135.631561,
          34.845733
        ]
      },
      "properties": {
        "NO": 50979,
        "共通ID": "E2720700107111",
        "都道府県名及び市町村名": "大阪府高槻市",
        "施設・場所名": "松原小学校",
        "住所": "大阪府高槻市沢良木町18-1",
        "指定緊急避難場所との住所同一": "1",
        "その他市町村長が必要と認める事項": null,
        "受入対象者": null,
        "備考": ""
      }
    },
    {
      "type": "Feature",
      "geometry": {
        "type": "Point",
        "coordinates": [
          135.627714,
          34.824667
        ]
      },
      "properties": {
        "NO": 50980,
        "共通ID": "E2720700109111",
        "都道府県名及び市町村名": "大阪府高槻市",
        "施設・場所名": "竹の内小学校",
        "住所": "大阪府高槻市竹の内町60-1",
        "指定緊急避難場所との住所同一": "1",
        "その他市町村長が必要と認める事項": null,
        "受入対象者": null,
        "備考": ""
      }
    },
    {
      "type": "Feature",
      "geometry": {
        "type": "Point",
        "coordinates": [
          135.627778,
          34.825107
        ]
      },
      "properties": {
        "NO": 50981,
        "共通ID": "E2720700110111",
        "都道府県名及び市町村名": "大阪府高槻市",
        "施設・場所名": "竹の内コミュニティセンター",
        "住所": "大阪府高槻市竹の内町60-6",
        "指定緊急避難場所との住所同一": "1",
        "その他市町村長が必要と認める事項": null,
        "受入対象者": null,
        "備考": ""
      }
    },
    {
      "type": "Feature",
      "geometry": {
        "type": "Point",
        "coordinates": [
          135.627793,
          34.82174
        ]
      },
      "properties": {
        "NO": 50982,
        "共通ID": "E2720700111111",
        "都道府県名及び市町村名": "大阪府高槻市",
        "施設・場所名": "第十中学校",
        "住所": "大阪府高槻市竹の内町61-1",
        "指定緊急避難場所との住所同一": "1",
        "その他市町村長が必要と認める事項": null,
        "受入対象者": null,
        "備考": ""
      }
    },
    {
      "type": "Feature",
      "geometry": {
        "type": "Point",
        "coordinates": [
          135.598374,
          34.790266
        ]
      },
      "properties": {
        "NO": 50983,
        "共通ID": "E2720700112121",
        "都道府県名及び市町村名": "大阪府高槻市",
        "施設・場所名": "地域密着型特別養護老人ホームひなた柱本",
        "住所": "大阪府高槻市柱本6-32-1",
        "指定緊急避難場所との住所同一": "",
        "その他市町村長が必要と認める事項": null,
        "受入対象者": "高齢者等",
        "備考": ""
      }
    },
    {
      "type": "Feature",
      "geometry": {
        "type": "Point",
        "coordinates": [
          135.6022,
          34.792442
        ]
      },
      "properties": {
        "NO": 50984,
        "共通ID": "E2720700113111",
        "都道府県名及び市町村名": "大阪府高槻市",
        "施設・場所名": "柱本小学校",
        "住所": "大阪府高槻市柱本新町10-8",
        "指定緊急避難場所との住所同一": "1",
        "その他市町村長が必要と認める事項": null,
        "受入対象者": null,
        "備考": ""
      }
    },
    {
      "type": "Feature",
      "geometry": {
        "type": "Point",
        "coordinates": [
          135.605167,
          34.843245
        ]
      },
      "properties": {
        "NO": 50985,
        "共通ID": "E2720700114111",
        "都道府県名及び市町村名": "大阪府高槻市",
        "施設・場所名": "津之江小学校",
        "住所": "大阪府高槻市津之江北町7-1",
        "指定緊急避難場所との住所同一": "1",
        "その他市町村長が必要と認める事項": null,
        "受入対象者": null,
        "備考": ""
      }
    },
    {
      "type": "Feature",
      "geometry": {
        "type": "Point",
        "coordinates": [
          135.573509,
          34.856166
        ]
      },
      "properties": {
        "NO": 50986,
        "共通ID": "E2720700116121",
        "都道府県名及び市町村名": "大阪府高槻市",
        "施設・場所名": "養護老人ホーム　槻ノ木荘",
        "住所": "大阪府高槻市塚原1-8-1",
        "指定緊急避難場所との住所同一": "",
        "その他市町村長が必要と認める事項": null,
        "受入対象者": "高齢者等",
        "備考": ""
      }
    },
    {
      "type": "Feature",
      "geometry": {
        "type": "Point",
        "coordinates": [
          135.573248,
          34.855181
        ]
      },
      "properties": {
        "NO": 50987,
        "共通ID": "E2720700117121",
        "都道府県名及び市町村名": "大阪府高槻市",
        "施設・場所名": "高槻温心寮",
        "住所": "大阪府高槻市塚原1-9-1",
        "指定緊急避難場所との住所同一": "",
        "その他市町村長が必要と認める事項": null,
        "受入対象者": "障がい者等",
        "備考": ""
      }
    },
    {
      "type": "Feature",
      "geometry": {
        "type": "Point",
        "coordinates": [
          135.618389,
          34.827246
        ]
      },
      "properties": {
        "NO": 50988,
        "共通ID": "E2720700119111",
        "都道府県名及び市町村名": "大阪府高槻市",
        "施設・場所名": "堤コミュニティセンター",
        "住所": "大阪府高槻市堤町3-2",
        "指定緊急避難場所との住所同一": "1",
        "その他市町村長が必要と認める事項": null,
        "受入対象者": null,
        "備考": ""
      }
    },
    {
      "type": "Feature",
      "geometry": {
        "type": "Point",
        "coordinates": [
          135.634107,
          34.841696
        ]
      },
      "properties": {
        "NO": 50989,
        "共通ID": "E2720700120111",
        "都道府県名及び市町村名": "大阪府高槻市",
        "施設・場所名": "大冠小学校",
        "住所": "大阪府高槻市天川町42-2",
        "指定緊急避難場所との住所同一": "1",
        "その他市町村長が必要と認める事項": null,
        "受入対象者": null,
        "備考": ""
      }
    },
    {
      "type": "Feature",
      "geometry": {
        "type": "Point",
        "coordinates": [
          135.625087,
          34.830092
        ]
      },
      "properties": {
        "NO": 50990,
        "共通ID": "E2720700121111",
        "都道府県名及び市町村名": "大阪府高槻市",
        "施設・場所名": "桜台小学校",
        "住所": "大阪府高槻市登町9-1",
        "指定緊急避難場所との住所同一": "1",
        "その他市町村長が必要と認める事項": null,
        "受入対象者": null,
        "備考": ""
      }
    },
    {
      "type": "Feature",
      "geometry": {
        "type": "Point",
        "coordinates": [
          135.600773,
          34.834294
        ]
      },
      "properties": {
        "NO": 50991,
        "共通ID": "E2720700123111",
        "都道府県名及び市町村名": "大阪府高槻市",
        "施設・場所名": "五百住小学校",
        "住所": "大阪府高槻市登美の里町24-1",
        "指定緊急避難場所との住所同一": "1",
        "その他市町村長が必要と認める事項": null,
        "受入対象者": null,
        "備考": ""
      }
    },
    {
      "type": "Feature",
      "geometry": {
        "type": "Point",
        "coordinates": [
          135.612824,
          34.809566
        ]
      },
      "properties": {
        "NO": 50992,
        "共通ID": "E2720700125121",
        "都道府県名及び市町村名": "大阪府高槻市",
        "施設・場所名": "特別養護老人ホーム　リヴェスタひろの",
        "住所": "大阪府高槻市唐崎南3-30-5",
        "指定緊急避難場所との住所同一": "",
        "その他市町村長が必要と認める事項": null,
        "受入対象者": "高齢者等",
        "備考": ""
      }
    },
    {
      "type": "Feature",
      "geometry": {
        "type": "Point",
        "coordinates": [
          135.663849,
          34.864452
        ]
      },
      "properties": {
        "NO": 50993,
        "共通ID": "E2720700127121",
        "都道府県名及び市町村名": "大阪府高槻市",
        "施設・場所名": "特別養護老人ホーム上牧の郷",
        "住所": "大阪府高槻市東上牧2-37-8",
        "指定緊急避難場所との住所同一": "",
        "その他市町村長が必要と認める事項": null,
        "受入対象者": "高齢者等",
        "備考": ""
      }
    },
    {
      "type": "Feature",
      "geometry": {
        "type": "Point",
        "coordinates": [
          135.616108,
          34.845036
        ]
      },
      "properties": {
        "NO": 50994,
        "共通ID": "E2720700129111",
        "都道府県名及び市町村名": "大阪府高槻市",
        "施設・場所名": "桃園小学校",
        "住所": "大阪府高槻市桃園町3-27",
        "指定緊急避難場所との住所同一": "1",
        "その他市町村長が必要と認める事項": null,
        "受入対象者": null,
        "備考": ""
      }
    },
    {
      "type": "Feature",
      "geometry": {
        "type": "Point",
        "coordinates": [
          135.655712,
          34.857789
        ]
      },
      "properties": {
        "NO": 50995,
        "共通ID": "E2720700130111",
        "都道府県名及び市町村名": "大阪府高槻市",
        "施設・場所名": "五領中学校",
        "住所": "大阪府高槻市道鵜町3-20-1",
        "指定緊急避難場所との住所同一": "1",
        "その他市町村長が必要と認める事項": null,
        "受入対象者": null,
        "備考": ""
      }
    },
    {
      "type": "Feature",
      "geometry": {
        "type": "Point",
        "coordinates": [
          135.581962,
          34.858172
        ]
      },
      "properties": {
        "NO": 50996,
        "共通ID": "E2720700131111",
        "都道府県名及び市町村名": "大阪府高槻市",
        "施設・場所名": "阿武山中学校",
        "住所": "大阪府高槻市奈佐原1-2-1",
        "指定緊急避難場所との住所同一": "1",
        "その他市町村長が必要と認める事項": null,
        "受入対象者": null,
        "備考": ""
      }
    },
    {
      "type": "Feature",
      "geometry": {
        "type": "Point",
        "coordinates": [
          135.580186,
          34.860241
        ]
      },
      "properties": {
        "NO": 50997,
        "共通ID": "E2720700132111",
        "都道府県名及び市町村名": "大阪府高槻市",
        "施設・場所名": "阿武山公民館",
        "住所": "大阪府高槻市奈佐原2-11-12",
        "指定緊急避難場所との住所同一": "1",
        "その他市町村長が必要と認める事項": null,
        "受入対象者": null,
        "備考": ""
      }
    },
    {
      "type": "Feature",
      "geometry": {
        "type": "Point",
        "coordinates": [
          135.575604,
          34.86539
        ]
      },
      "properties": {
        "NO": 50998,
        "共通ID": "E2720700133121",
        "都道府県名及び市町村名": "大阪府高槻市",
        "施設・場所名": "グリーン特別養護老人ホーム",
        "住所": "大阪府高槻市奈佐原4-7-15",
        "指定緊急避難場所との住所同一": "",
        "その他市町村長が必要と認める事項": null,
        "受入対象者": "高齢者等",
        "備考": ""
      }
    },
    {
      "type": "Feature",
      "geometry": {
        "type": "Point",
        "coordinates": [
          135.614496,
          34.836933
        ]
      },
      "properties": {
        "NO": 50999,
        "共通ID": "E2720700134111",
        "都道府県名及び市町村名": "大阪府高槻市",
        "施設・場所名": "庄所コミュニティセンター",
        "住所": "大阪府高槻市南庄所町3-3",
        "指定緊急避難場所との住所同一": "1",
        "その他市町村長が必要と認める事項": null,
        "受入対象者": null,
        "備考": ""
      }
    },
    {
      "type": "Feature",
      "geometry": {
        "type": "Point",
        "coordinates": [
          135.586863,
          34.855646
        ]
      },
      "properties": {
        "NO": 51000,
        "共通ID": "E2720700135121",
        "都道府県名及び市町村名": "大阪府高槻市",
        "施設・場所名": "第２共働舎花の会",
        "住所": "大阪府高槻市南平台3-29-10",
        "指定緊急避難場所との住所同一": "",
        "その他市町村長が必要と認める事項": null,
        "受入対象者": "障がい者等",
        "備考": ""
      }
    },
    {
      "type": "Feature",
      "geometry": {
        "type": "Point",
        "coordinates": [
          135.587243,
          34.855484
        ]
      },
      "properties": {
        "NO": 51001,
        "共通ID": "E2720700136121",
        "都道府県名及び市町村名": "大阪府高槻市",
        "施設・場所名": "共働舎花の会",
        "住所": "大阪府高槻市南平台3-29-9",
        "指定緊急避難場所との住所同一": "",
        "その他市町村長が必要と認める事項": null,
        "受入対象者": "障がい者等",
        "備考": ""
      }
    },
    {
      "type": "Feature",
      "geometry": {
        "type": "Point",
        "coordinates": [
          135.590466,
          34.862293
        ]
      },
      "properties": {
        "NO": 51002,
        "共通ID": "E2720700137111",
        "都道府県名及び市町村名": "大阪府高槻市",
        "施設・場所名": "南平台小学校",
        "住所": "大阪府高槻市南平台5-20-1",
        "指定緊急避難場所との住所同一": "1",
        "その他市町村長が必要と認める事項": null,
        "受入対象者": null,
        "備考": ""
      }
    },
    {
      "type": "Feature",
      "geometry": {
        "type": "Point",
        "coordinates": [
          135.588539,
          34.862075
        ]
      },
      "properties": {
        "NO": 51003,
        "共通ID": "E2720700138111",
        "都道府県名及び市町村名": "大阪府高槻市",
        "施設・場所名": "阿武野コミュニティセンター",
        "住所": "大阪府高槻市南平台5-21-2",
        "指定緊急避難場所との住所同一": "1",
        "その他市町村長が必要と認める事項": null,
        "受入対象者": null,
        "備考": ""
      }
    },
    {
      "type": "Feature",
      "geometry": {
        "type": "Point",
        "coordinates": [
          135.613001,
          34.869905
        ]
      },
      "properties": {
        "NO": 51004,
        "共通ID": "E2720700139111",
        "都道府県名及び市町村名": "大阪府高槻市",
        "施設・場所名": "日吉台小学校",
        "住所": "大阪府高槻市日吉台一番町24-18",
        "指定緊急避難場所との住所同一": "1",
        "その他市町村長が必要と認める事項": null,
        "受入対象者": null,
        "備考": ""
      }
    },
    {
      "type": "Feature",
      "geometry": {
        "type": "Point",
        "coordinates": [
          135.608977,
          34.878949
        ]
      },
      "properties": {
        "NO": 51005,
        "共通ID": "E2720700140111",
        "都道府県名及び市町村名": "大阪府高槻市",
        "施設・場所名": "北日吉台小学校",
        "住所": "大阪府高槻市日吉台三番町4-20",
        "指定緊急避難場所との住所同一": "1",
        "その他市町村長が必要と認める事項": null,
        "受入対象者": null,
        "備考": ""
      }
    },
    {
      "type": "Feature",
      "geometry": {
        "type": "Point",
        "coordinates": [
          135.605414,
          34.836512
        ]
      },
      "properties": {
        "NO": 51006,
        "共通ID": "E2720700141111",
        "都道府県名及び市町村名": "大阪府高槻市",
        "施設・場所名": "如是小学校",
        "住所": "大阪府高槻市如是町2-3",
        "指定緊急避難場所との住所同一": "1",
        "その他市町村長が必要と認める事項": null,
        "受入対象者": null,
        "備考": ""
      }
    },
    {
      "type": "Feature",
      "geometry": {
        "type": "Point",
        "coordinates": [
          135.604921,
          34.836158
        ]
      },
      "properties": {
        "NO": 51007,
        "共通ID": "E2720700142111",
        "都道府県名及び市町村名": "大阪府高槻市",
        "施設・場所名": "如是公民館",
        "住所": "大阪府高槻市如是町2-5",
        "指定緊急避難場所との住所同一": "1",
        "その他市町村長が必要と認める事項": null,
        "受入対象者": null,
        "備考": ""
      }
    },
    {
      "type": "Feature",
      "geometry": {
        "type": "Point",
        "coordinates": [
          135.604071,
          34.834974
        ]
      },
      "properties": {
        "NO": 51008,
        "共通ID": "E2720700143111",
        "都道府県名及び市町村名": "大阪府高槻市",
        "施設・場所名": "如是中学校",
        "住所": "大阪府高槻市如是町7-1",
        "指定緊急避難場所との住所同一": "1",
        "その他市町村長が必要と認める事項": null,
        "受入対象者": null,
        "備考": ""
      }
    },
    {
      "type": "Feature",
      "geometry": {
        "type": "Point",
        "coordinates": [
          135.624677,
          34.817978
        ]
      },
      "properties": {
        "NO": 51009,
        "共通ID": "E2720700145121",
        "都道府県名及び市町村名": "大阪府高槻市",
        "施設・場所名": "特別養護老人ホーム高槻けやきの郷",
        "住所": "大阪府高槻市番田1-60-1",
        "指定緊急避難場所との住所同一": "",
        "その他市町村長が必要と認める事項": null,
        "受入対象者": "高齢者等",
        "備考": ""
      }
    },
    {
      "type": "Feature",
      "geometry": {
        "type": "Point",
        "coordinates": [
          135.5957,
          34.847901
        ]
      },
      "properties": {
        "NO": 51010,
        "共通ID": "E2720700146121",
        "都道府県名及び市町村名": "大阪府高槻市",
        "施設・場所名": "ジョブサイトひむろ",
        "住所": "大阪府高槻市氷室町1-14-27",
        "指定緊急避難場所との住所同一": "",
        "その他市町村長が必要と認める事項": null,
        "受入対象者": "障がい者等",
        "備考": ""
      }
    },
    {
      "type": "Feature",
      "geometry": {
        "type": "Point",
        "coordinates": [
          135.588125,
          34.851996
        ]
      },
      "properties": {
        "NO": 51011,
        "共通ID": "E2720700149111",
        "都道府県名及び市町村名": "大阪府高槻市",
        "施設・場所名": "阿武野小学校",
        "住所": "大阪府高槻市氷室町4-4-5",
        "指定緊急避難場所との住所同一": "1",
        "その他市町村長が必要と認める事項": null,
        "受入対象者": null,
        "備考": ""
      }
    },
    {
      "type": "Feature",
      "geometry": {
        "type": "Point",
        "coordinates": [
          135.584926,
          34.85859
        ]
      },
      "properties": {
        "NO": 51012,
        "共通ID": "E2720700150111",
        "都道府県名及び市町村名": "大阪府高槻市",
        "施設・場所名": "阿武野中学校",
        "住所": "大阪府高槻市氷室町5-7-1",
        "指定緊急避難場所との住所同一": "1",
        "その他市町村長が必要と認める事項": null,
        "受入対象者": null,
        "備考": ""
      }
    },
    {
      "type": "Feature",
      "geometry": {
        "type": "Point",
        "coordinates": [
          135.591924,
          34.831225
        ]
      },
      "properties": {
        "NO": 51013,
        "共通ID": "E2720700152121",
        "都道府県名及び市町村名": "大阪府高槻市",
        "施設・場所名": "サニースポット",
        "住所": "大阪府高槻市富田町4-7-16",
        "指定緊急避難場所との住所同一": "",
        "その他市町村長が必要と認める事項": null,
        "受入対象者": "障がい者等",
        "備考": ""
      }
    },
    {
      "type": "Feature",
      "geometry": {
        "type": "Point",
        "coordinates": [
          135.595096,
          34.830659
        ]
      },
      "properties": {
        "NO": 51014,
        "共通ID": "E2720700153111",
        "都道府県名及び市町村名": "大阪府高槻市",
        "施設・場所名": "富田公民館",
        "住所": "大阪府高槻市富田町5-17-1",
        "指定緊急避難場所との住所同一": "1",
        "その他市町村長が必要と認める事項": null,
        "受入対象者": null,
        "備考": ""
      }
    },
    {
      "type": "Feature",
      "geometry": {
        "type": "Point",
        "coordinates": [
          135.625028,
          34.863223
        ]
      },
      "properties": {
        "NO": 51015,
        "共通ID": "E2720700154111",
        "都道府県名及び市町村名": "大阪府高槻市",
        "施設・場所名": "奥坂コミュニティセンター",
        "住所": "大阪府高槻市別所本町35-3",
        "指定緊急避難場所との住所同一": "1",
        "その他市町村長が必要と認める事項": null,
        "受入対象者": null,
        "備考": ""
      }
    },
    {
      "type": "Feature",
      "geometry": {
        "type": "Point",
        "coordinates": [
          135.625,
          34.863908
        ]
      },
      "properties": {
        "NO": 51016,
        "共通ID": "E2720700155111",
        "都道府県名及び市町村名": "大阪府高槻市",
        "施設・場所名": "奥坂小学校",
        "住所": "大阪府高槻市別所本町35-5",
        "指定緊急避難場所との住所同一": "1",
        "その他市町村長が必要と認める事項": null,
        "受入対象者": null,
        "備考": ""
      }
    },
    {
      "type": "Feature",
      "geometry": {
        "type": "Point",
        "coordinates": [
          135.599014,
          34.819925
        ]
      },
      "properties": {
        "NO": 51017,
        "共通ID": "E2720700157111",
        "都道府県名及び市町村名": "大阪府高槻市",
        "施設・場所名": "玉川牧田コミュニティセンター",
        "住所": "大阪府高槻市牧田町26-3",
        "指定緊急避難場所との住所同一": "1",
        "その他市町村長が必要と認める事項": null,
        "受入対象者": null,
        "備考": ""
      }
    },
    {
      "type": "Feature",
      "geometry": {
        "type": "Point",
        "coordinates": [
          135.60412,
          34.819788
        ]
      },
      "properties": {
        "NO": 51018,
        "共通ID": "E2720700158111",
        "都道府県名及び市町村名": "大阪府高槻市",
        "施設・場所名": "玉川小学校",
        "住所": "大阪府高槻市牧田町8-1",
        "指定緊急避難場所との住所同一": "1",
        "その他市町村長が必要と認める事項": null,
        "受入対象者": null,
        "備考": ""
      }
    },
    {
      "type": "Feature",
      "geometry": {
        "type": "Point",
        "coordinates": [
          135.626192,
          34.844953
        ]
      },
      "properties": {
        "NO": 51019,
        "共通ID": "E2720700160111",
        "都道府県名及び市町村名": "大阪府高槻市",
        "施設・場所名": "高槻小学校",
        "住所": "大阪府高槻市本町3-69",
        "指定緊急避難場所との住所同一": "1",
        "その他市町村長が必要と認める事項": null,
        "受入対象者": null,
        "備考": ""
      }
    }
  ]
}