{
  "type": "FeatureCollection",
  "name": "272205",
  "features": [
    {
      "type": "Feature",
      "geometry": {
        "type": "Point",
        "coordinates": [
          135.508123,
          34.847169
        ]
      },
      "properties": {
        "NO": 51665,
        "共通ID": "E2722000001111",
        "都道府県名及び市町村名": "大阪府箕面市",
        "施設・場所名": "豊川北小学校",
        "住所": "大阪府箕面市粟生間谷西4-3-1",
        "指定緊急避難場所との住所同一": "1",
        "その他市町村長が必要と認める事項": null,
        "受入対象者": null,
        "備考": ""
      }
    },
    {
      "type": "Feature",
      "geometry": {
        "type": "Point",
        "coordinates": [
          135.514306,
          34.845944
        ]
      },
      "properties": {
        "NO": 51666,
        "共通ID": "E2722000002121",
        "都道府県名及び市町村名": "大阪府箕面市",
        "施設・場所名": "介護老人保健施設箕面グリーンビィラ",
        "住所": "大阪府箕面市粟生間谷東1-33-25",
        "指定緊急避難場所との住所同一": "",
        "その他市町村長が必要と認める事項": null,
        "受入対象者": "要配慮者",
        "備考": ""
      }
    },
    {
      "type": "Feature",
      "geometry": {
        "type": "Point",
        "coordinates": [
          135.513846,
          34.841209
        ]
      },
      "properties": {
        "NO": 51667,
        "共通ID": "E2722000003111",
        "都道府県名及び市町村名": "大阪府箕面市",
        "施設・場所名": "第六中学校",
        "住所": "大阪府箕面市粟生市間谷西1-3-1",
        "指定緊急避難場所との住所同一": "",
        "その他市町村長が必要と認める事項": null,
        "受入対象者": null,
        "備考": ""
      }
    },
    {
      "type": "Feature",
      "geometry": {
        "type": "Point",
        "coordinates": [
          135.513549,
          34.83826
        ]
      },
      "properties": {
        "NO": 51668,
        "共通ID": "E2722000004121",
        "都道府県名及び市町村名": "大阪府箕面市",
        "施設・場所名": "箕面市立光明の郷ケアセンター",
        "住所": "大阪府箕面市粟生新家3-12-5",
        "指定緊急避難場所との住所同一": "",
        "その他市町村長が必要と認める事項": null,
        "受入対象者": "要配慮者",
        "備考": ""
      }
    },
    {
      "type": "Feature",
      "geometry": {
        "type": "Point",
        "coordinates": [
          135.512382,
          34.839856
        ]
      },
      "properties": {
        "NO": 51669,
        "共通ID": "E2722000005111",
        "都道府県名及び市町村名": "大阪府箕面市",
        "施設・場所名": "東小学校",
        "住所": "大阪府箕面市粟生新家5-5-1",
        "指定緊急避難場所との住所同一": "1",
        "その他市町村長が必要と認める事項": null,
        "受入対象者": null,
        "備考": ""
      }
    },
    {
      "type": "Feature",
      "geometry": {
        "type": "Point",
        "coordinates": [
          135.476084,
          34.827612
        ]
      },
      "properties": {
        "NO": 51670,
        "共通ID": "E2722000032121",
        "都道府県名及び市町村名": "大阪府箕面市",
        "施設・場所名": "稲老人デイサービスセンター",
        "住所": "大阪府箕面市稲1-14-5",
        "指定緊急避難場所との住所同一": "",
        "その他市町村長が必要と認める事項": null,
        "受入対象者": null,
        "備考": ""
      }
    },
    {
      "type": "Feature",
      "geometry": {
        "type": "Point",
        "coordinates": [
          135.475372,
          34.828147
        ]
      },
      "properties": {
        "NO": 51671,
        "共通ID": "E2722000006111",
        "都道府県名及び市町村名": "大阪府箕面市",
        "施設・場所名": "中小学校",
        "住所": "大阪府箕面市稲1-15-8",
        "指定緊急避難場所との住所同一": "1",
        "その他市町村長が必要と認める事項": null,
        "受入対象者": null,
        "備考": ""
      }
    },
    {
      "type": "Feature",
      "geometry": {
        "type": "Point",
        "coordinates": [
          135.478812,
          34.820424
        ]
      },
      "properties": {
        "NO": 51672,
        "共通ID": "E2722000007111",
        "都道府県名及び市町村名": "大阪府箕面市",
        "施設・場所名": "第五中学校",
        "住所": "大阪府箕面市稲4-3-12",
        "指定緊急避難場所との住所同一": "",
        "その他市町村長が必要と認める事項": null,
        "受入対象者": null,
        "備考": ""
      }
    },
    {
      "type": "Feature",
      "geometry": {
        "type": "Point",
        "coordinates": [
          135.481825,
          34.818972
        ]
      },
      "properties": {
        "NO": 51673,
        "共通ID": "E2722000008121",
        "都道府県名及び市町村名": "大阪府箕面市",
        "施設・場所名": "特別養護老人ホーム紅葉の郷",
        "住所": "大阪府箕面市稲6-11-20",
        "指定緊急避難場所との住所同一": "",
        "その他市町村長が必要と認める事項": null,
        "受入対象者": "要配慮者",
        "備考": ""
      }
    },
    {
      "type": "Feature",
      "geometry": {
        "type": "Point",
        "coordinates": [
          135.48487,
          34.819351
        ]
      },
      "properties": {
        "NO": 51674,
        "共通ID": "E2722000009121",
        "都道府県名及び市町村名": "大阪府箕面市",
        "施設・場所名": "特別養護老人ホームゆずの郷・養護老人ホームゆずの郷",
        "住所": "大阪府箕面市稲6-14-36",
        "指定緊急避難場所との住所同一": "",
        "その他市町村長が必要と認める事項": null,
        "受入対象者": "要配慮者",
        "備考": ""
      }
    },
    {
      "type": "Feature",
      "geometry": {
        "type": "Point",
        "coordinates": [
          135.485394,
          34.81833
        ]
      },
      "properties": {
        "NO": 51675,
        "共通ID": "E2722000010121",
        "都道府県名及び市町村名": "大阪府箕面市",
        "施設・場所名": "明光ワークス",
        "住所": "大阪府箕面市稲6-15-26",
        "指定緊急避難場所との住所同一": "",
        "その他市町村長が必要と認める事項": null,
        "受入対象者": "要配慮者",
        "備考": ""
      }
    },
    {
      "type": "Feature",
      "geometry": {
        "type": "Point",
        "coordinates": [
          135.480623,
          34.830479
        ]
      },
      "properties": {
        "NO": 51676,
        "共通ID": "E2722000011111",
        "都道府県名及び市町村名": "大阪府箕面市",
        "施設・場所名": "第二中学校",
        "住所": "大阪府箕面市萱野1-15-12",
        "指定緊急避難場所との住所同一": "1",
        "その他市町村長が必要と認める事項": null,
        "受入対象者": null,
        "備考": ""
      }
    },
    {
      "type": "Feature",
      "geometry": {
        "type": "Point",
        "coordinates": [
          135.487338,
          34.830428
        ]
      },
      "properties": {
        "NO": 51677,
        "共通ID": "E2722000012111",
        "都道府県名及び市町村名": "大阪府箕面市",
        "施設・場所名": "萱野小学校",
        "住所": "大阪府箕面市萱野2-7-40",
        "指定緊急避難場所との住所同一": "1",
        "その他市町村長が必要と認める事項": null,
        "受入対象者": null,
        "備考": ""
      }
    },
    {
      "type": "Feature",
      "geometry": {
        "type": "Point",
        "coordinates": [
          135.484257,
          34.839307
        ]
      },
      "properties": {
        "NO": 51678,
        "共通ID": "E2722000012112",
        "都道府県名及び市町村名": "大阪府箕面市",
        "施設・場所名": "萱野北小学校",
        "住所": "大阪府箕面市萱野2-7-40",
        "指定緊急避難場所との住所同一": "1",
        "その他市町村長が必要と認める事項": null,
        "受入対象者": null,
        "備考": ""
      }
    },
    {
      "type": "Feature",
      "geometry": {
        "type": "Point",
        "coordinates": [
          135.485229,
          34.823024
        ]
      },
      "properties": {
        "NO": 51679,
        "共通ID": "E2722000013121",
        "都道府県名及び市町村名": "大阪府箕面市",
        "施設・場所名": "箕面市立介護老人保健施設",
        "住所": "大阪府箕面市萱野5-8-2",
        "指定緊急避難場所との住所同一": "",
        "その他市町村長が必要と認める事項": null,
        "受入対象者": "要配慮者",
        "備考": ""
      }
    },
    {
      "type": "Feature",
      "geometry": {
        "type": "Point",
        "coordinates": [
          135.511669,
          34.857633
        ]
      },
      "properties": {
        "NO": 51680,
        "共通ID": "E2722000014111",
        "都道府県名及び市町村名": "大阪府箕面市",
        "施設・場所名": "彩都の丘学園",
        "住所": "大阪府箕面市彩都粟生北2-1-5",
        "指定緊急避難場所との住所同一": "1",
        "その他市町村長が必要と認める事項": null,
        "受入対象者": null,
        "備考": ""
      }
    },
    {
      "type": "Feature",
      "geometry": {
        "type": "Point",
        "coordinates": [
          135.46062,
          34.820493
        ]
      },
      "properties": {
        "NO": 51681,
        "共通ID": "E2722000015111",
        "都道府県名及び市町村名": "大阪府箕面市",
        "施設・場所名": "南小学校",
        "住所": "大阪府箕面市桜6-5-1",
        "指定緊急避難場所との住所同一": "1",
        "その他市町村長が必要と認める事項": null,
        "受入対象者": null,
        "備考": ""
      }
    },
    {
      "type": "Feature",
      "geometry": {
        "type": "Point",
        "coordinates": [
          135.517528,
          34.831886
        ]
      },
      "properties": {
        "NO": 51682,
        "共通ID": "E2722000016111",
        "都道府県名及び市町村名": "大阪府箕面市",
        "施設・場所名": "豊川南小学校",
        "住所": "大阪府箕面市小野原東3-2-1",
        "指定緊急避難場所との住所同一": "1",
        "その他市町村長が必要と認める事項": null,
        "受入対象者": null,
        "備考": ""
      }
    },
    {
      "type": "Feature",
      "geometry": {
        "type": "Point",
        "coordinates": [
          135.463177,
          34.829704
        ]
      },
      "properties": {
        "NO": 51683,
        "共通ID": "E2722000017111",
        "都道府県名及び市町村名": "大阪府箕面市",
        "施設・場所名": "西小学校",
        "住所": "大阪府箕面市新稲3-12-2",
        "指定緊急避難場所との住所同一": "1",
        "その他市町村長が必要と認める事項": null,
        "受入対象者": null,
        "備考": ""
      }
    },
    {
      "type": "Feature",
      "geometry": {
        "type": "Point",
        "coordinates": [
          135.462701,
          34.830976
        ]
      },
      "properties": {
        "NO": 51684,
        "共通ID": "E2722000031111",
        "都道府県名及び市町村名": "大阪府箕面市",
        "施設・場所名": "第一中学校",
        "住所": "大阪府箕面市新稲3-2-1",
        "指定緊急避難場所との住所同一": "",
        "その他市町村長が必要と認める事項": null,
        "受入対象者": null,
        "備考": ""
      }
    },
    {
      "type": "Feature",
      "geometry": {
        "type": "Point",
        "coordinates": [
          135.461086,
          34.885974
        ]
      },
      "properties": {
        "NO": 51685,
        "共通ID": "E2722000018111",
        "都道府県名及び市町村名": "大阪府箕面市",
        "施設・場所名": "とどろみの森学園",
        "住所": "大阪府箕面市森町中1-23-14",
        "指定緊急避難場所との住所同一": "1",
        "その他市町村長が必要と認める事項": null,
        "受入対象者": null,
        "備考": ""
      }
    },
    {
      "type": "Feature",
      "geometry": {
        "type": "Point",
        "coordinates": [
          135.452953,
          34.812437
        ]
      },
      "properties": {
        "NO": 51686,
        "共通ID": "E2722000019111",
        "都道府県名及び市町村名": "大阪府箕面市",
        "施設・場所名": "西南小学校",
        "住所": "大阪府箕面市瀬川3-2-1",
        "指定緊急避難場所との住所同一": "1",
        "その他市町村長が必要と認める事項": null,
        "受入対象者": null,
        "備考": ""
      }
    },
    {
      "type": "Feature",
      "geometry": {
        "type": "Point",
        "coordinates": [
          135.453685,
          34.812647
        ]
      },
      "properties": {
        "NO": 51687,
        "共通ID": "E2722000020111",
        "都道府県名及び市町村名": "大阪府箕面市",
        "施設・場所名": "第三中学校",
        "住所": "大阪府箕面市瀬川3-2-2",
        "指定緊急避難場所との住所同一": "",
        "その他市町村長が必要と認める事項": null,
        "受入対象者": null,
        "備考": ""
      }
    },
    {
      "type": "Feature",
      "geometry": {
        "type": "Point",
        "coordinates": [
          135.451194,
          34.811494
        ]
      },
      "properties": {
        "NO": 51688,
        "共通ID": "E2722000021122",
        "都道府県名及び市町村名": "大阪府箕面市",
        "施設・場所名": "箕面市立ワークセンターささゆり",
        "住所": "大阪府箕面市瀬川3-3-21",
        "指定緊急避難場所との住所同一": "",
        "その他市町村長が必要と認める事項": null,
        "受入対象者": "要配慮者",
        "備考": ""
      }
    },
    {
      "type": "Feature",
      "geometry": {
        "type": "Point",
        "coordinates": [
          135.45078,
          34.811285
        ]
      },
      "properties": {
        "NO": 51689,
        "共通ID": "E2722000021121",
        "都道府県名及び市町村名": "大阪府箕面市",
        "施設・場所名": "箕面市立あかつき園",
        "住所": "大阪府箕面市瀬川3-3-21",
        "指定緊急避難場所との住所同一": "",
        "その他市町村長が必要と認める事項": null,
        "受入対象者": "要配慮者",
        "備考": ""
      }
    },
    {
      "type": "Feature",
      "geometry": {
        "type": "Point",
        "coordinates": [
          135.47221,
          34.828448
        ]
      },
      "properties": {
        "NO": 51690,
        "共通ID": "E2722000022121",
        "都道府県名及び市町村名": "大阪府箕面市",
        "施設・場所名": "箕面市立障害者福祉センターささゆり園",
        "住所": "大阪府箕面市西小路3-9-9",
        "指定緊急避難場所との住所同一": "",
        "その他市町村長が必要と認める事項": null,
        "受入対象者": "要配慮者",
        "備考": ""
      }
    },
    {
      "type": "Feature",
      "geometry": {
        "type": "Point",
        "coordinates": [
          135.499571,
          34.837073
        ]
      },
      "properties": {
        "NO": 51691,
        "共通ID": "E2722000023121",
        "都道府県名及び市町村名": "大阪府箕面市",
        "施設・場所名": "特別養護老人ホーム箕面の郷",
        "住所": "大阪府箕面市石丸1-14-1",
        "指定緊急避難場所との住所同一": "",
        "その他市町村長が必要と認める事項": null,
        "受入対象者": "要配慮者",
        "備考": ""
      }
    },
    {
      "type": "Feature",
      "geometry": {
        "type": "Point",
        "coordinates": [
          135.498697,
          34.837716
        ]
      },
      "properties": {
        "NO": 51692,
        "共通ID": "E2722000024111",
        "都道府県名及び市町村名": "大阪府箕面市",
        "施設・場所名": "第四中学校",
        "住所": "大阪府箕面市石丸1-17-1",
        "指定緊急避難場所との住所同一": "",
        "その他市町村長が必要と認める事項": null,
        "受入対象者": null,
        "備考": ""
      }
    },
    {
      "type": "Feature",
      "geometry": {
        "type": "Point",
        "coordinates": [
          135.49663,
          34.837599
        ]
      },
      "properties": {
        "NO": 51693,
        "共通ID": "E2722000025111",
        "都道府県名及び市町村名": "大阪府箕面市",
        "施設・場所名": "萱野東小学校",
        "住所": "大阪府箕面市石丸1-18-1",
        "指定緊急避難場所との住所同一": "1",
        "その他市町村長が必要と認める事項": null,
        "受入対象者": null,
        "備考": ""
      }
    },
    {
      "type": "Feature",
      "geometry": {
        "type": "Point",
        "coordinates": [
          135.493189,
          34.834661
        ]
      },
      "properties": {
        "NO": 51694,
        "共通ID": "E2722000026121",
        "都道府県名及び市町村名": "大阪府箕面市",
        "施設・場所名": "介護老人保健施設ラ・アケソニア",
        "住所": "大阪府箕面市白島1-19-3",
        "指定緊急避難場所との住所同一": "",
        "その他市町村長が必要と認める事項": null,
        "受入対象者": "要配慮者",
        "備考": ""
      }
    },
    {
      "type": "Feature",
      "geometry": {
        "type": "Point",
        "coordinates": [
          135.490787,
          34.83908
        ]
      },
      "properties": {
        "NO": 51695,
        "共通ID": "E2722000027121",
        "都道府県名及び市町村名": "大阪府箕面市",
        "施設・場所名": "特別養護老人ホーム白島荘",
        "住所": "大阪府箕面市白島3-5-50",
        "指定緊急避難場所との住所同一": "",
        "その他市町村長が必要と認める事項": null,
        "受入対象者": "要配慮者",
        "備考": ""
      }
    },
    {
      "type": "Feature",
      "geometry": {
        "type": "Point",
        "coordinates": [
          135.466485,
          34.824862
        ]
      },
      "properties": {
        "NO": 51696,
        "共通ID": "E2722000028111",
        "都道府県名及び市町村名": "大阪府箕面市",
        "施設・場所名": "箕面小学校",
        "住所": "大阪府箕面市百楽荘1-8-7",
        "指定緊急避難場所との住所同一": "1",
        "その他市町村長が必要と認める事項": null,
        "受入対象者": null,
        "備考": ""
      }
    },
    {
      "type": "Feature",
      "geometry": {
        "type": "Point",
        "coordinates": [
          135.47474,
          34.835484
        ]
      },
      "properties": {
        "NO": 51697,
        "共通ID": "E2722000030111",
        "都道府県名及び市町村名": "大阪府箕面市",
        "施設・場所名": "北小学校",
        "住所": "大阪府箕面市箕面3-4-1",
        "指定緊急避難場所との住所同一": "",
        "その他市町村長が必要と認める事項": null,
        "受入対象者": null,
        "備考": ""
      }
    },
    {
      "type": "Feature",
      "geometry": {
        "type": "Point",
        "coordinates": [
          135.471563,
          34.830848
        ]
      },
      "properties": {
        "NO": 51698,
        "共通ID": "E2722000029111",
        "都道府県名及び市町村名": "大阪府箕面市",
        "施設・場所名": "中央生涯学習センター・メイプルホール",
        "住所": "大阪府箕面市箕面5-11-23",
        "指定緊急避難場所との住所同一": "1",
        "その他市町村長が必要と認める事項": null,
        "受入対象者": null,
        "備考": ""
      }
    }
  ]
}