{
  "type": "FeatureCollection",
  "name": "282031",
  "features": [
    {
      "type": "Feature",
      "geometry": {
        "type": "Point",
        "coordinates": [
          134.976252,
          34.670751
        ]
      },
      "properties": {
        "NO": 53306,
        "共通ID": "E2820300087121",
        "都道府県名及び市町村名": "兵庫県明石市",
        "施設・場所名": "神戸視力障害センター",
        "住所": "兵庫県神戸市西区曙町1070",
        "指定緊急避難場所との住所同一": "",
        "その他市町村長が必要と認める事項": "",
        "受入対象者": "市が特定した者",
        "備考": ""
      }
    },
    {
      "type": "Feature",
      "geometry": {
        "type": "Point",
        "coordinates": [
          134.982818,
          34.656445
        ]
      },
      "properties": {
        "NO": 53307,
        "共通ID": "E2820300001111",
        "都道府県名及び市町村名": "兵庫県明石市",
        "施設・場所名": "王子小学校",
        "住所": "兵庫県明石市王子1-1-1",
        "指定緊急避難場所との住所同一": "1",
        "その他市町村長が必要と認める事項": null,
        "受入対象者": null,
        "備考": ""
      }
    },
    {
      "type": "Feature",
      "geometry": {
        "type": "Point",
        "coordinates": [
          135.008155,
          34.657745
        ]
      },
      "properties": {
        "NO": 53308,
        "共通ID": "E2820300002111",
        "都道府県名及び市町村名": "兵庫県明石市",
        "施設・場所名": "明石高等学校",
        "住所": "兵庫県明石市荷山町1744",
        "指定緊急避難場所との住所同一": "",
        "その他市町村長が必要と認める事項": null,
        "受入対象者": null,
        "備考": ""
      }
    },
    {
      "type": "Feature",
      "geometry": {
        "type": "Point",
        "coordinates": [
          134.969035,
          34.652522
        ]
      },
      "properties": {
        "NO": 53309,
        "共通ID": "E2820300003121",
        "都道府県名及び市町村名": "兵庫県明石市",
        "施設・場所名": "総合福祉センター",
        "住所": "兵庫県明石市貴崎1-5-13",
        "指定緊急避難場所との住所同一": "",
        "その他市町村長が必要と認める事項": null,
        "受入対象者": "市が特定した者",
        "備考": ""
      }
    },
    {
      "type": "Feature",
      "geometry": {
        "type": "Point",
        "coordinates": [
          134.961242,
          34.656765
        ]
      },
      "properties": {
        "NO": 53310,
        "共通ID": "E2820300004111",
        "都道府県名及び市町村名": "兵庫県明石市",
        "施設・場所名": "貴崎小学校",
        "住所": "兵庫県明石市貴崎5-5-52",
        "指定緊急避難場所との住所同一": "1",
        "その他市町村長が必要と認める事項": null,
        "受入対象者": null,
        "備考": ""
      }
    },
    {
      "type": "Feature",
      "geometry": {
        "type": "Point",
        "coordinates": [
          134.911009,
          34.695841
        ]
      },
      "properties": {
        "NO": 53311,
        "共通ID": "E2820300005111",
        "都道府県名及び市町村名": "兵庫県明石市",
        "施設・場所名": "錦が丘小学校",
        "住所": "兵庫県明石市魚住町錦が丘1-17-5",
        "指定緊急避難場所との住所同一": "1",
        "その他市町村長が必要と認める事項": null,
        "受入対象者": null,
        "備考": ""
      }
    },
    {
      "type": "Feature",
      "geometry": {
        "type": "Point",
        "coordinates": [
          134.905115,
          34.698861
        ]
      },
      "properties": {
        "NO": 53312,
        "共通ID": "E2820300089121",
        "都道府県名及び市町村名": "兵庫県明石市",
        "施設・場所名": "はくほう会医療専門学校明石校",
        "住所": "兵庫県明石市魚住町錦が丘4-12-11",
        "指定緊急避難場所との住所同一": "",
        "その他市町村長が必要と認める事項": "",
        "受入対象者": "市が特定した者",
        "備考": ""
      }
    },
    {
      "type": "Feature",
      "geometry": {
        "type": "Point",
        "coordinates": [
          134.920407,
          34.704734
        ]
      },
      "properties": {
        "NO": 53313,
        "共通ID": "E2820300008111",
        "都道府県名及び市町村名": "兵庫県明石市",
        "施設・場所名": "魚住東中学校",
        "住所": "兵庫県明石市魚住町金ケ崎1687-14",
        "指定緊急避難場所との住所同一": "",
        "その他市町村長が必要と認める事項": null,
        "受入対象者": null,
        "備考": ""
      }
    },
    {
      "type": "Feature",
      "geometry": {
        "type": "Point",
        "coordinates": [
          134.907335,
          34.715269
        ]
      },
      "properties": {
        "NO": 53314,
        "共通ID": "E2820300009111",
        "都道府県名及び市町村名": "兵庫県明石市",
        "施設・場所名": "清水小学校",
        "住所": "兵庫県明石市魚住町清水1752-2",
        "指定緊急避難場所との住所同一": "1",
        "その他市町村長が必要と認める事項": null,
        "受入対象者": null,
        "備考": ""
      }
    },
    {
      "type": "Feature",
      "geometry": {
        "type": "Point",
        "coordinates": [
          134.899279,
          34.707655
        ]
      },
      "properties": {
        "NO": 53315,
        "共通ID": "E2820300010111",
        "都道府県名及び市町村名": "兵庫県明石市",
        "施設・場所名": "魚住中学校",
        "住所": "兵庫県明石市魚住町清水364",
        "指定緊急避難場所との住所同一": "1",
        "その他市町村長が必要と認める事項": null,
        "受入対象者": null,
        "備考": ""
      }
    },
    {
      "type": "Feature",
      "geometry": {
        "type": "Point",
        "coordinates": [
          134.912559,
          34.703195
        ]
      },
      "properties": {
        "NO": 53316,
        "共通ID": "E2820300011111",
        "都道府県名及び市町村名": "兵庫県明石市",
        "施設・場所名": "魚住小学校",
        "住所": "兵庫県明石市魚住町清水570",
        "指定緊急避難場所との住所同一": "1",
        "その他市町村長が必要と認める事項": null,
        "受入対象者": null,
        "備考": ""
      }
    },
    {
      "type": "Feature",
      "geometry": {
        "type": "Point",
        "coordinates": [
          134.915082,
          34.707652
        ]
      },
      "properties": {
        "NO": 53317,
        "共通ID": "E2820300012111",
        "都道府県名及び市町村名": "兵庫県明石市",
        "施設・場所名": "明石清水高等学校",
        "住所": "兵庫県明石市魚住町清水630-1",
        "指定緊急避難場所との住所同一": "",
        "その他市町村長が必要と認める事項": null,
        "受入対象者": null,
        "備考": ""
      }
    },
    {
      "type": "Feature",
      "geometry": {
        "type": "Point",
        "coordinates": [
          134.899423,
          34.689701
        ]
      },
      "properties": {
        "NO": 53318,
        "共通ID": "E2820300013111",
        "都道府県名及び市町村名": "兵庫県明石市",
        "施設・場所名": "錦浦小学校",
        "住所": "兵庫県明石市魚住町西岡1349",
        "指定緊急避難場所との住所同一": "1",
        "その他市町村長が必要と認める事項": null,
        "受入対象者": null,
        "備考": ""
      }
    },
    {
      "type": "Feature",
      "geometry": {
        "type": "Point",
        "coordinates": [
          134.902634,
          34.696884
        ]
      },
      "properties": {
        "NO": 53319,
        "共通ID": "E2820300097121",
        "都道府県名及び市町村名": "兵庫県明石市",
        "施設・場所名": "特別養護老人ホームパール",
        "住所": "兵庫県明石市魚住町西岡616-1",
        "指定緊急避難場所との住所同一": "",
        "その他市町村長が必要と認める事項": "",
        "受入対象者": "市が特定した者",
        "備考": ""
      }
    },
    {
      "type": "Feature",
      "geometry": {
        "type": "Point",
        "coordinates": [
          134.902078,
          34.694787
        ]
      },
      "properties": {
        "NO": 53320,
        "共通ID": "E2820300014111",
        "都道府県名及び市町村名": "兵庫県明石市",
        "施設・場所名": "明石工業高等専門学校",
        "住所": "兵庫県明石市魚住町西岡679-3",
        "指定緊急避難場所との住所同一": "",
        "その他市町村長が必要と認める事項": null,
        "受入対象者": null,
        "備考": ""
      }
    },
    {
      "type": "Feature",
      "geometry": {
        "type": "Point",
        "coordinates": [
          134.897268,
          34.697626
        ]
      },
      "properties": {
        "NO": 53321,
        "共通ID": "E2820300015111",
        "都道府県名及び市町村名": "兵庫県明石市",
        "施設・場所名": "美里厚生館",
        "住所": "兵庫県明石市魚住町西岡996-1",
        "指定緊急避難場所との住所同一": "",
        "その他市町村長が必要と認める事項": null,
        "受入対象者": null,
        "備考": ""
      }
    },
    {
      "type": "Feature",
      "geometry": {
        "type": "Point",
        "coordinates": [
          134.919766,
          34.705615
        ]
      },
      "properties": {
        "NO": 53322,
        "共通ID": "E2820300016111",
        "都道府県名及び市町村名": "兵庫県明石市",
        "施設・場所名": "市立明石商業高等学校",
        "住所": "兵庫県明石市魚住町長坂寺1250",
        "指定緊急避難場所との住所同一": "",
        "その他市町村長が必要と認める事項": null,
        "受入対象者": null,
        "備考": ""
      }
    },
    {
      "type": "Feature",
      "geometry": {
        "type": "Point",
        "coordinates": [
          134.917326,
          34.698564
        ]
      },
      "properties": {
        "NO": 53323,
        "共通ID": "E2820300084121",
        "都道府県名及び市町村名": "兵庫県明石市",
        "施設・場所名": "サポートセンター翔",
        "住所": "兵庫県明石市魚住町長坂寺740",
        "指定緊急避難場所との住所同一": "",
        "その他市町村長が必要と認める事項": "",
        "受入対象者": "市が特定した者",
        "備考": ""
      }
    },
    {
      "type": "Feature",
      "geometry": {
        "type": "Point",
        "coordinates": [
          134.979843,
          34.649797
        ]
      },
      "properties": {
        "NO": 53324,
        "共通ID": "E2820300085121",
        "都道府県名及び市町村名": "兵庫県明石市",
        "施設・場所名": "ふくやま病院",
        "住所": "兵庫県明石市硯町２丁目5-55",
        "指定緊急避難場所との住所同一": "",
        "その他市町村長が必要と認める事項": "",
        "受入対象者": "市が特定した者",
        "備考": ""
      }
    },
    {
      "type": "Feature",
      "geometry": {
        "type": "Point",
        "coordinates": [
          134.994787,
          34.650191
        ]
      },
      "properties": {
        "NO": 53325,
        "共通ID": "E2820300018111",
        "都道府県名及び市町村名": "兵庫県明石市",
        "施設・場所名": "明石小学校",
        "住所": "兵庫県明石市山下町12-21",
        "指定緊急避難場所との住所同一": "1",
        "その他市町村長が必要と認める事項": null,
        "受入対象者": null,
        "備考": ""
      }
    },
    {
      "type": "Feature",
      "geometry": {
        "type": "Point",
        "coordinates": [
          134.961519,
          34.672648
        ]
      },
      "properties": {
        "NO": 53326,
        "共通ID": "E2820300020111",
        "都道府県名及び市町村名": "兵庫県明石市",
        "施設・場所名": "弁財天厚生館",
        "住所": "兵庫県明石市小久保5-14-5",
        "指定緊急避難場所との住所同一": "",
        "その他市町村長が必要と認める事項": null,
        "受入対象者": null,
        "備考": ""
      }
    },
    {
      "type": "Feature",
      "geometry": {
        "type": "Point",
        "coordinates": [
          135.02624,
          34.656979
        ]
      },
      "properties": {
        "NO": 53327,
        "共通ID": "E2820300021111",
        "都道府県名及び市町村名": "兵庫県明石市",
        "施設・場所名": "松が丘小学校",
        "住所": "兵庫県明石市松が丘3-1-1",
        "指定緊急避難場所との住所同一": "1",
        "その他市町村長が必要と認める事項": null,
        "受入対象者": null,
        "備考": ""
      }
    },
    {
      "type": "Feature",
      "geometry": {
        "type": "Point",
        "coordinates": [
          134.998062,
          34.656587
        ]
      },
      "properties": {
        "NO": 53328,
        "共通ID": "E2820300024111",
        "都道府県名及び市町村名": "兵庫県明石市",
        "施設・場所名": "錦城中学校",
        "住所": "兵庫県明石市上ノ丸3-1-11",
        "指定緊急避難場所との住所同一": "1",
        "その他市町村長が必要と認める事項": null,
        "受入対象者": null,
        "備考": ""
      }
    },
    {
      "type": "Feature",
      "geometry": {
        "type": "Point",
        "coordinates": [
          135.008982,
          34.656367
        ]
      },
      "properties": {
        "NO": 53329,
        "共通ID": "E2820300025111",
        "都道府県名及び市町村名": "兵庫県明石市",
        "施設・場所名": "大蔵中学校",
        "住所": "兵庫県明石市西朝霧丘4-7",
        "指定緊急避難場所との住所同一": "1",
        "その他市町村長が必要と認める事項": null,
        "受入対象者": null,
        "備考": ""
      }
    },
    {
      "type": "Feature",
      "geometry": {
        "type": "Point",
        "coordinates": [
          134.963471,
          34.662363
        ]
      },
      "properties": {
        "NO": 53330,
        "共通ID": "E2820300026111",
        "都道府県名及び市町村名": "兵庫県明石市",
        "施設・場所名": "花園小学校",
        "住所": "兵庫県明石市西明石南町1-1-10",
        "指定緊急避難場所との住所同一": "1",
        "その他市町村長が必要と認める事項": null,
        "受入対象者": null,
        "備考": ""
      }
    },
    {
      "type": "Feature",
      "geometry": {
        "type": "Point",
        "coordinates": [
          134.962206,
          34.662468
        ]
      },
      "properties": {
        "NO": 53331,
        "共通ID": "E2820300027111",
        "都道府県名及び市町村名": "兵庫県明石市",
        "施設・場所名": "望海中学校",
        "住所": "兵庫県明石市西明石南町1-1-33",
        "指定緊急避難場所との住所同一": "1",
        "その他市町村長が必要と認める事項": null,
        "受入対象者": null,
        "備考": ""
      }
    },
    {
      "type": "Feature",
      "geometry": {
        "type": "Point",
        "coordinates": [
          134.965899,
          34.670269
        ]
      },
      "properties": {
        "NO": 53332,
        "共通ID": "E2820300028111",
        "都道府県名及び市町村名": "兵庫県明石市",
        "施設・場所名": "鳥羽小学校",
        "住所": "兵庫県明石市西明石北町2-2-1",
        "指定緊急避難場所との住所同一": "1",
        "その他市町村長が必要と認める事項": null,
        "受入対象者": null,
        "備考": ""
      }
    },
    {
      "type": "Feature",
      "geometry": {
        "type": "Point",
        "coordinates": [
          134.997795,
          34.644879
        ]
      },
      "properties": {
        "NO": 53333,
        "共通ID": "E2820300031111",
        "都道府県名及び市町村名": "兵庫県明石市",
        "施設・場所名": "勤労福祉会館",
        "住所": "兵庫県明石市相生町2-7-12",
        "指定緊急避難場所との住所同一": "1",
        "その他市町村長が必要と認める事項": null,
        "受入対象者": null,
        "備考": ""
      }
    },
    {
      "type": "Feature",
      "geometry": {
        "type": "Point",
        "coordinates": [
          134.947263,
          34.708145
        ]
      },
      "properties": {
        "NO": 53334,
        "共通ID": "E2820300099121",
        "都道府県名及び市町村名": "兵庫県明石市",
        "施設・場所名": "老人保健施設清華苑養力センター",
        "住所": "兵庫県明石市大久保町3107-5",
        "指定緊急避難場所との住所同一": "",
        "その他市町村長が必要と認める事項": "",
        "受入対象者": "市が指定するもの",
        "備考": ""
      }
    },
    {
      "type": "Feature",
      "geometry": {
        "type": "Point",
        "coordinates": [
          134.937227,
          34.677163
        ]
      },
      "properties": {
        "NO": 53335,
        "共通ID": "E2820300032111",
        "都道府県名及び市町村名": "兵庫県明石市",
        "施設・場所名": "大久保南小学校",
        "住所": "兵庫県明石市大久保町ゆりのき通3-1",
        "指定緊急避難場所との住所同一": "1",
        "その他市町村長が必要と認める事項": null,
        "受入対象者": null,
        "備考": ""
      }
    },
    {
      "type": "Feature",
      "geometry": {
        "type": "Point",
        "coordinates": [
          134.911721,
          34.677772
        ]
      },
      "properties": {
        "NO": 53336,
        "共通ID": "E2820300033111",
        "都道府県名及び市町村名": "兵庫県明石市",
        "施設・場所名": "少年自然の家",
        "住所": "兵庫県明石市大久保町江井島567",
        "指定緊急避難場所との住所同一": "",
        "その他市町村長が必要と認める事項": null,
        "受入対象者": null,
        "備考": ""
      }
    },
    {
      "type": "Feature",
      "geometry": {
        "type": "Point",
        "coordinates": [
          134.950317,
          34.701221
        ]
      },
      "properties": {
        "NO": 53337,
        "共通ID": "E2820300034111",
        "都道府県名及び市町村名": "兵庫県明石市",
        "施設・場所名": "高丘東小学校",
        "住所": "兵庫県明石市大久保町高丘3-2",
        "指定緊急避難場所との住所同一": "1",
        "その他市町村長が必要と認める事項": null,
        "受入対象者": null,
        "備考": ""
      }
    },
    {
      "type": "Feature",
      "geometry": {
        "type": "Point",
        "coordinates": [
          134.946341,
          34.700538
        ]
      },
      "properties": {
        "NO": 53338,
        "共通ID": "E2820300035111",
        "都道府県名及び市町村名": "兵庫県明石市",
        "施設・場所名": "高丘中学校",
        "住所": "兵庫県明石市大久保町高丘5-14",
        "指定緊急避難場所との住所同一": "1",
        "その他市町村長が必要と認める事項": null,
        "受入対象者": null,
        "備考": ""
      }
    },
    {
      "type": "Feature",
      "geometry": {
        "type": "Point",
        "coordinates": [
          134.941188,
          34.703957
        ]
      },
      "properties": {
        "NO": 53339,
        "共通ID": "E2820300036111",
        "都道府県名及び市町村名": "兵庫県明石市",
        "施設・場所名": "高丘西小学校",
        "住所": "兵庫県明石市大久保町高丘7-23",
        "指定緊急避難場所との住所同一": "1",
        "その他市町村長が必要と認める事項": null,
        "受入対象者": null,
        "備考": ""
      }
    },
    {
      "type": "Feature",
      "geometry": {
        "type": "Point",
        "coordinates": [
          134.956005,
          34.693892
        ]
      },
      "properties": {
        "NO": 53340,
        "共通ID": "E2820300038111",
        "都道府県名及び市町村名": "兵庫県明石市",
        "施設・場所名": "明石北高等学校",
        "住所": "兵庫県明石市大久保町松陰364-1",
        "指定緊急避難場所との住所同一": "",
        "その他市町村長が必要と認める事項": null,
        "受入対象者": null,
        "備考": ""
      }
    },
    {
      "type": "Feature",
      "geometry": {
        "type": "Point",
        "coordinates": [
          134.952057,
          34.686904
        ]
      },
      "properties": {
        "NO": 53341,
        "共通ID": "E2820300039111",
        "都道府県名及び市町村名": "兵庫県明石市",
        "施設・場所名": "松陰厚生館",
        "住所": "兵庫県明石市大久保町松陰95-2",
        "指定緊急避難場所との住所同一": "",
        "その他市町村長が必要と認める事項": null,
        "受入対象者": null,
        "備考": ""
      }
    },
    {
      "type": "Feature",
      "geometry": {
        "type": "Point",
        "coordinates": [
          134.914401,
          34.680388
        ]
      },
      "properties": {
        "NO": 53342,
        "共通ID": "E2820300040111",
        "都道府県名及び市町村名": "兵庫県明石市",
        "施設・場所名": "江井島小学校",
        "住所": "兵庫県明石市大久保町西島252",
        "指定緊急避難場所との住所同一": "1",
        "その他市町村長が必要と認める事項": null,
        "受入対象者": null,
        "備考": ""
      }
    },
    {
      "type": "Feature",
      "geometry": {
        "type": "Point",
        "coordinates": [
          134.913189,
          34.681102
        ]
      },
      "properties": {
        "NO": 53343,
        "共通ID": "E2820300086121",
        "都道府県名及び市町村名": "兵庫県明石市",
        "施設・場所名": "江井島病院",
        "住所": "兵庫県明石市大久保町西島434-5",
        "指定緊急避難場所との住所同一": "",
        "その他市町村長が必要と認める事項": "",
        "受入対象者": "市が特定した者",
        "備考": ""
      }
    },
    {
      "type": "Feature",
      "geometry": {
        "type": "Point",
        "coordinates": [
          134.913108,
          34.685494
        ]
      },
      "properties": {
        "NO": 53344,
        "共通ID": "E2820300041111",
        "都道府県名及び市町村名": "兵庫県明石市",
        "施設・場所名": "江井島中学校",
        "住所": "兵庫県明石市大久保町西島680-5",
        "指定緊急避難場所との住所同一": "1",
        "その他市町村長が必要と認める事項": null,
        "受入対象者": null,
        "備考": ""
      }
    },
    {
      "type": "Feature",
      "geometry": {
        "type": "Point",
        "coordinates": [
          134.94203,
          34.677143
        ]
      },
      "properties": {
        "NO": 53345,
        "共通ID": "E2820300042111",
        "都道府県名及び市町村名": "兵庫県明石市",
        "施設・場所名": "大久保中学校",
        "住所": "兵庫県明石市大久保町大久保町200",
        "指定緊急避難場所との住所同一": "1",
        "その他市町村長が必要と認める事項": null,
        "受入対象者": null,
        "備考": ""
      }
    },
    {
      "type": "Feature",
      "geometry": {
        "type": "Point",
        "coordinates": [
          134.945132,
          34.679574
        ]
      },
      "properties": {
        "NO": 53346,
        "共通ID": "E2820300043111",
        "都道府県名及び市町村名": "兵庫県明石市",
        "施設・場所名": "大久保小学校",
        "住所": "兵庫県明石市大久保町大久保町430",
        "指定緊急避難場所との住所同一": "1",
        "その他市町村長が必要と認める事項": null,
        "受入対象者": null,
        "備考": ""
      }
    },
    {
      "type": "Feature",
      "geometry": {
        "type": "Point",
        "coordinates": [
          134.940954,
          34.692592
        ]
      },
      "properties": {
        "NO": 53347,
        "共通ID": "E2820300044111",
        "都道府県名及び市町村名": "兵庫県明石市",
        "施設・場所名": "山手小学校",
        "住所": "兵庫県明石市大久保町大窪1600",
        "指定緊急避難場所との住所同一": "1",
        "その他市町村長が必要と認める事項": null,
        "受入対象者": null,
        "備考": ""
      }
    },
    {
      "type": "Feature",
      "geometry": {
        "type": "Point",
        "coordinates": [
          134.9459,
          34.6932
        ]
      },
      "properties": {
        "NO": 53348,
        "共通ID": "E2820300045111",
        "都道府県名及び市町村名": "兵庫県明石市",
        "施設・場所名": "大久保北中学校",
        "住所": "兵庫県明石市大久保町大窪2030",
        "指定緊急避難場所との住所同一": "1",
        "その他市町村長が必要と認める事項": null,
        "受入対象者": null,
        "備考": ""
      }
    },
    {
      "type": "Feature",
      "geometry": {
        "type": "Point",
        "coordinates": [
          134.954569,
          34.704132
        ]
      },
      "properties": {
        "NO": 53349,
        "共通ID": "E2820300082121",
        "都道府県名及び市町村名": "兵庫県明石市",
        "施設・場所名": "博由園",
        "住所": "兵庫県明石市大久保町大窪2573-16",
        "指定緊急避難場所との住所同一": "",
        "その他市町村長が必要と認める事項": "",
        "受入対象者": "市が特定した者",
        "備考": ""
      }
    },
    {
      "type": "Feature",
      "geometry": {
        "type": "Point",
        "coordinates": [
          134.955093,
          34.706741
        ]
      },
      "properties": {
        "NO": 53350,
        "共通ID": "E2820300083121",
        "都道府県名及び市町村名": "兵庫県明石市",
        "施設・場所名": "木の根学園",
        "住所": "兵庫県明石市大久保町大窪2752",
        "指定緊急避難場所との住所同一": "",
        "その他市町村長が必要と認める事項": "",
        "受入対象者": "市が特定した者",
        "備考": ""
      }
    },
    {
      "type": "Feature",
      "geometry": {
        "type": "Point",
        "coordinates": [
          134.955295,
          34.707584
        ]
      },
      "properties": {
        "NO": 53351,
        "共通ID": "E2820300046121",
        "都道府県名及び市町村名": "兵庫県明石市",
        "施設・場所名": "大地の家",
        "住所": "兵庫県明石市大久保町大窪2752-1",
        "指定緊急避難場所との住所同一": "",
        "その他市町村長が必要と認める事項": "",
        "受入対象者": "市が特定した者",
        "備考": ""
      }
    },
    {
      "type": "Feature",
      "geometry": {
        "type": "Point",
        "coordinates": [
          134.955933,
          34.706392
        ]
      },
      "properties": {
        "NO": 53352,
        "共通ID": "E2820300046122",
        "都道府県名及び市町村名": "兵庫県明石市",
        "施設・場所名": "明石養護学校",
        "住所": "兵庫県明石市大久保町大窪2752-1",
        "指定緊急避難場所との住所同一": "",
        "その他市町村長が必要と認める事項": "",
        "受入対象者": "市が特定した者",
        "備考": ""
      }
    },
    {
      "type": "Feature",
      "geometry": {
        "type": "Point",
        "coordinates": [
          134.946426,
          34.711346
        ]
      },
      "properties": {
        "NO": 53353,
        "共通ID": "E2820300091121",
        "都道府県名及び市町村名": "兵庫県明石市",
        "施設・場所名": "恵泉第２特別養護老人ホーム",
        "住所": "兵庫県明石市大久保町大窪2813",
        "指定緊急避難場所との住所同一": "",
        "その他市町村長が必要と認める事項": "",
        "受入対象者": "市が特定した者",
        "備考": ""
      }
    },
    {
      "type": "Feature",
      "geometry": {
        "type": "Point",
        "coordinates": [
          134.946857,
          34.711544
        ]
      },
      "properties": {
        "NO": 53354,
        "共通ID": "E2820300091122",
        "都道府県名及び市町村名": "兵庫県明石市",
        "施設・場所名": "恵泉グループホーム",
        "住所": "兵庫県明石市大久保町大窪2813",
        "指定緊急避難場所との住所同一": "",
        "その他市町村長が必要と認める事項": "",
        "受入対象者": "市が特定した者",
        "備考": ""
      }
    },
    {
      "type": "Feature",
      "geometry": {
        "type": "Point",
        "coordinates": [
          134.947877,
          34.710385
        ]
      },
      "properties": {
        "NO": 53355,
        "共通ID": "E2820300093121",
        "都道府県名及び市町村名": "兵庫県明石市",
        "施設・場所名": "ケアハウス恵泉",
        "住所": "兵庫県明石市大久保町大窪2818",
        "指定緊急避難場所との住所同一": "",
        "その他市町村長が必要と認める事項": "",
        "受入対象者": "市が特定した者",
        "備考": ""
      }
    },
    {
      "type": "Feature",
      "geometry": {
        "type": "Point",
        "coordinates": [
          134.947748,
          34.710425
        ]
      },
      "properties": {
        "NO": 53356,
        "共通ID": "E2820300094121",
        "都道府県名及び市町村名": "兵庫県明石市",
        "施設・場所名": "第２ケアハウス恵泉",
        "住所": "兵庫県明石市大久保町大窪2818-3",
        "指定緊急避難場所との住所同一": "",
        "その他市町村長が必要と認める事項": "",
        "受入対象者": "市が特定した者",
        "備考": ""
      }
    },
    {
      "type": "Feature",
      "geometry": {
        "type": "Point",
        "coordinates": [
          134.946678,
          34.710269
        ]
      },
      "properties": {
        "NO": 53357,
        "共通ID": "E2820300092121",
        "都道府県名及び市町村名": "兵庫県明石市",
        "施設・場所名": "恵泉第３特別養護老人ホーム",
        "住所": "兵庫県明石市大久保町大窪2820",
        "指定緊急避難場所との住所同一": "",
        "その他市町村長が必要と認める事項": "",
        "受入対象者": "市が特定した者",
        "備考": ""
      }
    },
    {
      "type": "Feature",
      "geometry": {
        "type": "Point",
        "coordinates": [
          134.947407,
          34.709823
        ]
      },
      "properties": {
        "NO": 53358,
        "共通ID": "E2820300095121",
        "都道府県名及び市町村名": "兵庫県明石市",
        "施設・場所名": "介護老人保健施設恵泉",
        "住所": "兵庫県明石市大久保町大窪3101-1",
        "指定緊急避難場所との住所同一": "",
        "その他市町村長が必要と認める事項": "",
        "受入対象者": "市が特定した者",
        "備考": ""
      }
    },
    {
      "type": "Feature",
      "geometry": {
        "type": "Point",
        "coordinates": [
          134.94708,
          34.709813
        ]
      },
      "properties": {
        "NO": 53359,
        "共通ID": "E2820300090121",
        "都道府県名及び市町村名": "兵庫県明石市",
        "施設・場所名": "特別養護老人ホーム恵泉",
        "住所": "兵庫県明石市大久保町大窪3101-2",
        "指定緊急避難場所との住所同一": "",
        "その他市町村長が必要と認める事項": "",
        "受入対象者": "市が特定した者",
        "備考": ""
      }
    },
    {
      "type": "Feature",
      "geometry": {
        "type": "Point",
        "coordinates": [
          134.947648,
          34.709235
        ]
      },
      "properties": {
        "NO": 53360,
        "共通ID": "E2820300096121",
        "都道府県名及び市町村名": "兵庫県明石市",
        "施設・場所名": "特別養護老人ホーム清華苑",
        "住所": "兵庫県明石市大久保町大窪3104-1",
        "指定緊急避難場所との住所同一": "",
        "その他市町村長が必要と認める事項": "",
        "受入対象者": "市が特定した者",
        "備考": ""
      }
    },
    {
      "type": "Feature",
      "geometry": {
        "type": "Point",
        "coordinates": [
          134.939953,
          34.68825
        ]
      },
      "properties": {
        "NO": 53361,
        "共通ID": "E2820300047111",
        "都道府県名及び市町村名": "兵庫県明石市",
        "施設・場所名": "西大窪厚生館",
        "住所": "兵庫県明石市大久保町大窪353",
        "指定緊急避難場所との住所同一": "",
        "その他市町村長が必要と認める事項": null,
        "受入対象者": null,
        "備考": ""
      }
    },
    {
      "type": "Feature",
      "geometry": {
        "type": "Point",
        "coordinates": [
          134.938144,
          34.672956
        ]
      },
      "properties": {
        "NO": 53362,
        "共通ID": "E2820300048111",
        "都道府県名及び市町村名": "兵庫県明石市",
        "施設・場所名": "明石城西高等学校",
        "住所": "兵庫県明石市大久保町谷八木1190-7",
        "指定緊急避難場所との住所同一": "",
        "その他市町村長が必要と認める事項": null,
        "受入対象者": null,
        "備考": ""
      }
    },
    {
      "type": "Feature",
      "geometry": {
        "type": "Point",
        "coordinates": [
          134.937787,
          34.668353
        ]
      },
      "properties": {
        "NO": 53363,
        "共通ID": "E2820300049111",
        "都道府県名及び市町村名": "兵庫県明石市",
        "施設・場所名": "谷八木小学校",
        "住所": "兵庫県明石市大久保町谷八木878",
        "指定緊急避難場所との住所同一": "1",
        "その他市町村長が必要と認める事項": null,
        "受入対象者": null,
        "備考": ""
      }
    },
    {
      "type": "Feature",
      "geometry": {
        "type": "Point",
        "coordinates": [
          134.928395,
          34.674542
        ]
      },
      "properties": {
        "NO": 53364,
        "共通ID": "E2820300051111",
        "都道府県名及び市町村名": "兵庫県明石市",
        "施設・場所名": "西八木厚生館",
        "住所": "兵庫県明石市大久保町八木599-3",
        "指定緊急避難場所との住所同一": "",
        "その他市町村長が必要と認める事項": null,
        "受入対象者": null,
        "備考": ""
      }
    },
    {
      "type": "Feature",
      "geometry": {
        "type": "Point",
        "coordinates": [
          135.025365,
          34.65859
        ]
      },
      "properties": {
        "NO": 53365,
        "共通ID": "E2820300053111",
        "都道府県名及び市町村名": "兵庫県明石市",
        "施設・場所名": "朝霧中学校",
        "住所": "兵庫県明石市大蔵谷奥4-1",
        "指定緊急避難場所との住所同一": "1",
        "その他市町村長が必要と認める事項": null,
        "受入対象者": null,
        "備考": ""
      }
    },
    {
      "type": "Feature",
      "geometry": {
        "type": "Point",
        "coordinates": [
          134.985197,
          34.649434
        ]
      },
      "properties": {
        "NO": 53366,
        "共通ID": "E2820300056111",
        "都道府県名及び市町村名": "兵庫県明石市",
        "施設・場所名": "大観小学校",
        "住所": "兵庫県明石市大明石町2-8-30",
        "指定緊急避難場所との住所同一": "1",
        "その他市町村長が必要と認める事項": null,
        "受入対象者": null,
        "備考": ""
      }
    },
    {
      "type": "Feature",
      "geometry": {
        "type": "Point",
        "coordinates": [
          134.965792,
          34.678393
        ]
      },
      "properties": {
        "NO": 53367,
        "共通ID": "E2820300057111",
        "都道府県名及び市町村名": "兵庫県明石市",
        "施設・場所名": "野々池中学校",
        "住所": "兵庫県明石市沢野1-3-1",
        "指定緊急避難場所との住所同一": "1",
        "その他市町村長が必要と認める事項": null,
        "受入対象者": null,
        "備考": ""
      }
    },
    {
      "type": "Feature",
      "geometry": {
        "type": "Point",
        "coordinates": [
          134.999033,
          34.64308
        ]
      },
      "properties": {
        "NO": 53368,
        "共通ID": "E2820300058111",
        "都道府県名及び市町村名": "兵庫県明石市",
        "施設・場所名": "中崎小学校",
        "住所": "兵庫県明石市中崎1-4-1",
        "指定緊急避難場所との住所同一": "1",
        "その他市町村長が必要と認める事項": null,
        "受入対象者": null,
        "備考": ""
      }
    },
    {
      "type": "Feature",
      "geometry": {
        "type": "Point",
        "coordinates": [
          135.018499,
          34.653367
        ]
      },
      "properties": {
        "NO": 53369,
        "共通ID": "E2820300059111",
        "都道府県名及び市町村名": "兵庫県明石市",
        "施設・場所名": "朝霧小学校",
        "住所": "兵庫県明石市朝霧東町1-1-40",
        "指定緊急避難場所との住所同一": "1",
        "その他市町村長が必要と認める事項": null,
        "受入対象者": null,
        "備考": ""
      }
    },
    {
      "type": "Feature",
      "geometry": {
        "type": "Point",
        "coordinates": [
          135.005113,
          34.650244
        ]
      },
      "properties": {
        "NO": 53370,
        "共通ID": "E2820300061111",
        "都道府県名及び市町村名": "兵庫県明石市",
        "施設・場所名": "人丸小学校",
        "住所": "兵庫県明石市東人丸町26-29",
        "指定緊急避難場所との住所同一": "1",
        "その他市町村長が必要と認める事項": null,
        "受入対象者": null,
        "備考": ""
      }
    },
    {
      "type": "Feature",
      "geometry": {
        "type": "Point",
        "coordinates": [
          134.953415,
          34.657539
        ]
      },
      "properties": {
        "NO": 53371,
        "共通ID": "E2820300063111",
        "都道府県名及び市町村名": "兵庫県明石市",
        "施設・場所名": "藤江小学校",
        "住所": "兵庫県明石市藤江235",
        "指定緊急避難場所との住所同一": "1",
        "その他市町村長が必要と認める事項": null,
        "受入対象者": null,
        "備考": ""
      }
    },
    {
      "type": "Feature",
      "geometry": {
        "type": "Point",
        "coordinates": [
          134.98086,
          34.647151
        ]
      },
      "properties": {
        "NO": 53372,
        "共通ID": "E2820300064111",
        "都道府県名及び市町村名": "兵庫県明石市",
        "施設・場所名": "衣川中学校",
        "住所": "兵庫県明石市南王子町7-1",
        "指定緊急避難場所との住所同一": "1",
        "その他市町村長が必要と認める事項": null,
        "受入対象者": null,
        "備考": ""
      }
    },
    {
      "type": "Feature",
      "geometry": {
        "type": "Point",
        "coordinates": [
          134.88015,
          34.707072
        ]
      },
      "properties": {
        "NO": 53373,
        "共通ID": "E2820300065111",
        "都道府県名及び市町村名": "兵庫県明石市",
        "施設・場所名": "明石西高等学校",
        "住所": "兵庫県明石市二見町西二見1642-1",
        "指定緊急避難場所との住所同一": "",
        "その他市町村長が必要と認める事項": null,
        "受入対象者": null,
        "備考": ""
      }
    },
    {
      "type": "Feature",
      "geometry": {
        "type": "Point",
        "coordinates": [
          134.883377,
          34.706048
        ]
      },
      "properties": {
        "NO": 53374,
        "共通ID": "E2820300066111",
        "都道府県名及び市町村名": "兵庫県明石市",
        "施設・場所名": "二見西小学校",
        "住所": "兵庫県明石市二見町西二見383-34",
        "指定緊急避難場所との住所同一": "1",
        "その他市町村長が必要と認める事項": null,
        "受入対象者": null,
        "備考": ""
      }
    },
    {
      "type": "Feature",
      "geometry": {
        "type": "Point",
        "coordinates": [
          134.883631,
          34.709241
        ]
      },
      "properties": {
        "NO": 53375,
        "共通ID": "E2820300067111",
        "都道府県名及び市町村名": "兵庫県明石市",
        "施設・場所名": "上西厚生館",
        "住所": "兵庫県明石市二見町西二見515",
        "指定緊急避難場所との住所同一": "",
        "その他市町村長が必要と認める事項": null,
        "受入対象者": null,
        "備考": ""
      }
    },
    {
      "type": "Feature",
      "geometry": {
        "type": "Point",
        "coordinates": [
          134.881272,
          34.706323
        ]
      },
      "properties": {
        "NO": 53376,
        "共通ID": "E2820300068111",
        "都道府県名及び市町村名": "兵庫県明石市",
        "施設・場所名": "二見中学校",
        "住所": "兵庫県明石市二見町西二見594",
        "指定緊急避難場所との住所同一": "1",
        "その他市町村長が必要と認める事項": null,
        "受入対象者": null,
        "備考": ""
      }
    },
    {
      "type": "Feature",
      "geometry": {
        "type": "Point",
        "coordinates": [
          134.882707,
          34.705215
        ]
      },
      "properties": {
        "NO": 53377,
        "共通ID": "E2820300069111",
        "都道府県名及び市町村名": "兵庫県明石市",
        "施設・場所名": "西部文化会館",
        "住所": "兵庫県明石市二見町西二見597-2",
        "指定緊急避難場所との住所同一": "",
        "その他市町村長が必要と認める事項": null,
        "受入対象者": null,
        "備考": ""
      }
    },
    {
      "type": "Feature",
      "geometry": {
        "type": "Point",
        "coordinates": [
          134.875964,
          34.707019
        ]
      },
      "properties": {
        "NO": 53378,
        "共通ID": "E2820300098121",
        "都道府県名及び市町村名": "兵庫県明石市",
        "施設・場所名": "チャーム明石西二見",
        "住所": "兵庫県明石市二見町西二見駅前4-38-2",
        "指定緊急避難場所との住所同一": "",
        "その他市町村長が必要と認める事項": "",
        "受入対象者": "市が特定した者",
        "備考": ""
      }
    },
    {
      "type": "Feature",
      "geometry": {
        "type": "Point",
        "coordinates": [
          134.88917,
          34.693373
        ]
      },
      "properties": {
        "NO": 53379,
        "共通ID": "E2820300070121",
        "都道府県名及び市町村名": "兵庫県明石市",
        "施設・場所名": "ふれあいプラザあかし西",
        "住所": "兵庫県明石市二見町東二見1836-1",
        "指定緊急避難場所との住所同一": "1",
        "その他市町村長が必要と認める事項": null,
        "受入対象者": "市が特定した者",
        "備考": ""
      }
    },
    {
      "type": "Feature",
      "geometry": {
        "type": "Point",
        "coordinates": [
          134.887536,
          34.699135
        ]
      },
      "properties": {
        "NO": 53380,
        "共通ID": "E2820300071111",
        "都道府県名及び市町村名": "兵庫県明石市",
        "施設・場所名": "二見小学校",
        "住所": "兵庫県明石市二見町東二見454",
        "指定緊急避難場所との住所同一": "1",
        "その他市町村長が必要と認める事項": null,
        "受入対象者": null,
        "備考": ""
      }
    },
    {
      "type": "Feature",
      "geometry": {
        "type": "Point",
        "coordinates": [
          134.891824,
          34.711683
        ]
      },
      "properties": {
        "NO": 53381,
        "共通ID": "E2820300073111",
        "都道府県名及び市町村名": "兵庫県明石市",
        "施設・場所名": "二見北小学校",
        "住所": "兵庫県明石市二見町福里274",
        "指定緊急避難場所との住所同一": "1",
        "その他市町村長が必要と認める事項": null,
        "受入対象者": null,
        "備考": ""
      }
    },
    {
      "type": "Feature",
      "geometry": {
        "type": "Point",
        "coordinates": [
          134.982971,
          34.658169
        ]
      },
      "properties": {
        "NO": 53382,
        "共通ID": "E2820300081121",
        "都道府県名及び市町村名": "兵庫県明石市",
        "施設・場所名": "ウェルフェア・グランデ明石",
        "住所": "兵庫県明石市北王子町13-41",
        "指定緊急避難場所との住所同一": "",
        "その他市町村長が必要と認める事項": "",
        "受入対象者": "市が特定した者",
        "備考": ""
      }
    },
    {
      "type": "Feature",
      "geometry": {
        "type": "Point",
        "coordinates": [
          134.966573,
          34.673851
        ]
      },
      "properties": {
        "NO": 53383,
        "共通ID": "E2820300076111",
        "都道府県名及び市町村名": "兵庫県明石市",
        "施設・場所名": "明石南高等学校",
        "住所": "兵庫県明石市明南町3-2-1",
        "指定緊急避難場所との住所同一": "",
        "その他市町村長が必要と認める事項": null,
        "受入対象者": null,
        "備考": ""
      }
    },
    {
      "type": "Feature",
      "geometry": {
        "type": "Point",
        "coordinates": [
          134.966382,
          34.67607
        ]
      },
      "properties": {
        "NO": 53384,
        "共通ID": "E2820300077111",
        "都道府県名及び市町村名": "兵庫県明石市",
        "施設・場所名": "沢池小学校",
        "住所": "兵庫県明石市明南町3-3-1",
        "指定緊急避難場所との住所同一": "1",
        "その他市町村長が必要と認める事項": null,
        "受入対象者": null,
        "備考": ""
      }
    },
    {
      "type": "Feature",
      "geometry": {
        "type": "Point",
        "coordinates": [
          134.970477,
          34.665969
        ]
      },
      "properties": {
        "NO": 53385,
        "共通ID": "E2820300078111",
        "都道府県名及び市町村名": "兵庫県明石市",
        "施設・場所名": "鳥羽厚生館",
        "住所": "兵庫県明石市野々上1-11-14",
        "指定緊急避難場所との住所同一": "",
        "その他市町村長が必要と認める事項": null,
        "受入対象者": null,
        "備考": ""
      }
    },
    {
      "type": "Feature",
      "geometry": {
        "type": "Point",
        "coordinates": [
          134.971521,
          34.648563
        ]
      },
      "properties": {
        "NO": 53386,
        "共通ID": "E2820300079111",
        "都道府県名及び市町村名": "兵庫県明石市",
        "施設・場所名": "林小学校",
        "住所": "兵庫県明石市林崎町1-8-10",
        "指定緊急避難場所との住所同一": "1",
        "その他市町村長が必要と認める事項": null,
        "受入対象者": null,
        "備考": ""
      }
    },
    {
      "type": "Feature",
      "geometry": {
        "type": "Point",
        "coordinates": [
          134.964051,
          34.649947
        ]
      },
      "properties": {
        "NO": 53387,
        "共通ID": "E2820300088121",
        "都道府県名及び市町村名": "兵庫県明石市",
        "施設・場所名": "明石特別養護老人ホームラガール",
        "住所": "兵庫県明石市林崎町３丁目542-37",
        "指定緊急避難場所との住所同一": "",
        "その他市町村長が必要と認める事項": "",
        "受入対象者": "市が特定した者",
        "備考": ""
      }
    },
    {
      "type": "Feature",
      "geometry": {
        "type": "Point",
        "coordinates": [
          134.970606,
          34.662072
        ]
      },
      "properties": {
        "NO": 53388,
        "共通ID": "E2820300080111",
        "都道府県名及び市町村名": "兵庫県明石市",
        "施設・場所名": "和坂小学校",
        "住所": "兵庫県明石市和坂2-12-1",
        "指定緊急避難場所との住所同一": "1",
        "その他市町村長が必要と認める事項": null,
        "受入対象者": null,
        "備考": ""
      }
    }
  ]
}