{
  "type": "FeatureCollection",
  "name": "282090",
  "features": [
    {
      "type": "Feature",
      "geometry": {
        "type": "Point",
        "coordinates": [
          134.828212,
          35.533677
        ]
      },
      "properties": {
        "NO": 53838,
        "共通ID": "E2820900001121",
        "都道府県名及び市町村名": "兵庫県豊岡市",
        "施設・場所名": "養護老人ホーム　コスモス荘",
        "住所": "兵庫県豊岡市塩津町2-36",
        "指定緊急避難場所との住所同一": "",
        "その他市町村長が必要と認める事項": null,
        "受入対象者": "要援護者",
        "備考": ""
      }
    },
    {
      "type": "Feature",
      "geometry": {
        "type": "Point",
        "coordinates": [
          134.828347,
          35.534237
        ]
      },
      "properties": {
        "NO": 53839,
        "共通ID": "E2820900002121",
        "都道府県名及び市町村名": "兵庫県豊岡市",
        "施設・場所名": "特別養護老人ホーム　こうのとり荘",
        "住所": "兵庫県豊岡市塩津町2-37",
        "指定緊急避難場所との住所同一": "",
        "その他市町村長が必要と認める事項": null,
        "受入対象者": "要援護者",
        "備考": ""
      }
    },
    {
      "type": "Feature",
      "geometry": {
        "type": "Point",
        "coordinates": [
          134.83876,
          35.530148
        ]
      },
      "properties": {
        "NO": 53840,
        "共通ID": "E2820900005111",
        "都道府県名及び市町村名": "兵庫県豊岡市",
        "施設・場所名": "新田小学校体育館",
        "住所": "兵庫県豊岡市河谷596",
        "指定緊急避難場所との住所同一": "1",
        "その他市町村長が必要と認める事項": null,
        "受入対象者": null,
        "備考": ""
      }
    },
    {
      "type": "Feature",
      "geometry": {
        "type": "Point",
        "coordinates": [
          134.840047,
          35.634947
        ]
      },
      "properties": {
        "NO": 53841,
        "共通ID": "E2820900008111",
        "都道府県名及び市町村名": "兵庫県豊岡市",
        "施設・場所名": "港地区コミュニティセンター",
        "住所": "兵庫県豊岡市気比2435",
        "指定緊急避難場所との住所同一": "1",
        "その他市町村長が必要と認める事項": null,
        "受入対象者": null,
        "備考": ""
      }
    },
    {
      "type": "Feature",
      "geometry": {
        "type": "Point",
        "coordinates": [
          134.832491,
          35.640973
        ]
      },
      "properties": {
        "NO": 53842,
        "共通ID": "E2820900010111",
        "都道府県名及び市町村名": "兵庫県豊岡市",
        "施設・場所名": "港中学校",
        "住所": "兵庫県豊岡市気比3485",
        "指定緊急避難場所との住所同一": "1",
        "その他市町村長が必要と認める事項": null,
        "受入対象者": null,
        "備考": ""
      }
    },
    {
      "type": "Feature",
      "geometry": {
        "type": "Point",
        "coordinates": [
          134.774641,
          35.540139
        ]
      },
      "properties": {
        "NO": 53843,
        "共通ID": "E2820900020111",
        "都道府県名及び市町村名": "兵庫県豊岡市",
        "施設・場所名": "奈佐地区コミュニティセンター",
        "住所": "兵庫県豊岡市吉井593-5",
        "指定緊急避難場所との住所同一": "1",
        "その他市町村長が必要と認める事項": null,
        "受入対象者": null,
        "備考": ""
      }
    },
    {
      "type": "Feature",
      "geometry": {
        "type": "Point",
        "coordinates": [
          134.774432,
          35.540997
        ]
      },
      "properties": {
        "NO": 53844,
        "共通ID": "E2820900021111",
        "都道府県名及び市町村名": "兵庫県豊岡市",
        "施設・場所名": "旧奈佐小学校体育館",
        "住所": "兵庫県豊岡市吉井620",
        "指定緊急避難場所との住所同一": "1",
        "その他市町村長が必要と認める事項": "",
        "受入対象者": "",
        "備考": ""
      }
    },
    {
      "type": "Feature",
      "geometry": {
        "type": "Point",
        "coordinates": [
          134.823144,
          35.529641
        ]
      },
      "properties": {
        "NO": 53845,
        "共通ID": "E2820900023111",
        "都道府県名及び市町村名": "兵庫県豊岡市",
        "施設・場所名": "八条小学校",
        "住所": "兵庫県豊岡市九日市下町402",
        "指定緊急避難場所との住所同一": "1",
        "その他市町村長が必要と認める事項": null,
        "受入対象者": null,
        "備考": ""
      }
    },
    {
      "type": "Feature",
      "geometry": {
        "type": "Point",
        "coordinates": [
          134.823669,
          35.529182
        ]
      },
      "properties": {
        "NO": 53846,
        "共通ID": "E2820900023112",
        "都道府県名及び市町村名": "兵庫県豊岡市",
        "施設・場所名": "八条地区コミュニティセンター",
        "住所": "兵庫県豊岡市九日市下町402",
        "指定緊急避難場所との住所同一": "1",
        "その他市町村長が必要と認める事項": null,
        "受入対象者": null,
        "備考": ""
      }
    },
    {
      "type": "Feature",
      "geometry": {
        "type": "Point",
        "coordinates": [
          134.818646,
          35.515493
        ]
      },
      "properties": {
        "NO": 53847,
        "共通ID": "E2820900025121",
        "都道府県名及び市町村名": "兵庫県豊岡市",
        "施設・場所名": "特別養護老人ホーム　ここのか",
        "住所": "兵庫県豊岡市九日市上町785",
        "指定緊急避難場所との住所同一": "",
        "その他市町村長が必要と認める事項": null,
        "受入対象者": "要援護者",
        "備考": ""
      }
    },
    {
      "type": "Feature",
      "geometry": {
        "type": "Point",
        "coordinates": [
          134.805093,
          35.527885
        ]
      },
      "properties": {
        "NO": 53848,
        "共通ID": "E2820900027121",
        "都道府県名及び市町村名": "兵庫県豊岡市",
        "施設・場所名": "介護老人保健施設　豊岡シルバーステイ",
        "住所": "兵庫県豊岡市戸牧1132-2",
        "指定緊急避難場所との住所同一": "",
        "その他市町村長が必要と認める事項": null,
        "受入対象者": "要援護者",
        "備考": ""
      }
    },
    {
      "type": "Feature",
      "geometry": {
        "type": "Point",
        "coordinates": [
          134.804824,
          35.52752
        ]
      },
      "properties": {
        "NO": 53849,
        "共通ID": "E2820900028121",
        "都道府県名及び市町村名": "兵庫県豊岡市",
        "施設・場所名": "生活支援センター　ほおずき",
        "住所": "兵庫県豊岡市戸牧1510-6",
        "指定緊急避難場所との住所同一": "",
        "その他市町村長が必要と認める事項": null,
        "受入対象者": "要援護者",
        "備考": ""
      }
    },
    {
      "type": "Feature",
      "geometry": {
        "type": "Point",
        "coordinates": [
          134.85916,
          35.519943
        ]
      },
      "properties": {
        "NO": 53850,
        "共通ID": "E2820900029121",
        "都道府県名及び市町村名": "兵庫県豊岡市",
        "施設・場所名": "特別養護老人ホーム　とよおかの里",
        "住所": "兵庫県豊岡市香住1272",
        "指定緊急避難場所との住所同一": "",
        "その他市町村長が必要と認める事項": null,
        "受入対象者": "要援護者",
        "備考": ""
      }
    },
    {
      "type": "Feature",
      "geometry": {
        "type": "Point",
        "coordinates": [
          134.860181,
          35.521854
        ]
      },
      "properties": {
        "NO": 53851,
        "共通ID": "E2820900031111",
        "都道府県名及び市町村名": "兵庫県豊岡市",
        "施設・場所名": "神美小学校",
        "住所": "兵庫県豊岡市三宅45",
        "指定緊急避難場所との住所同一": "1",
        "その他市町村長が必要と認める事項": null,
        "受入対象者": null,
        "備考": ""
      }
    },
    {
      "type": "Feature",
      "geometry": {
        "type": "Point",
        "coordinates": [
          134.859022,
          35.521252
        ]
      },
      "properties": {
        "NO": 53852,
        "共通ID": "E2820900032111",
        "都道府県名及び市町村名": "兵庫県豊岡市",
        "施設・場所名": "神美地区コミュニティセンター",
        "住所": "兵庫県豊岡市三宅81-1",
        "指定緊急避難場所との住所同一": "1",
        "その他市町村長が必要と認める事項": null,
        "受入対象者": null,
        "備考": ""
      }
    },
    {
      "type": "Feature",
      "geometry": {
        "type": "Point",
        "coordinates": [
          134.812381,
          35.547294
        ]
      },
      "properties": {
        "NO": 53853,
        "共通ID": "E2820900033121",
        "都道府県名及び市町村名": "兵庫県豊岡市",
        "施設・場所名": "とよおか作業所　郷・とーぷ",
        "住所": "兵庫県豊岡市若松町3-14",
        "指定緊急避難場所との住所同一": "",
        "その他市町村長が必要と認める事項": null,
        "受入対象者": "要援護者",
        "備考": ""
      }
    },
    {
      "type": "Feature",
      "geometry": {
        "type": "Point",
        "coordinates": [
          134.817757,
          35.54612
        ]
      },
      "properties": {
        "NO": 53854,
        "共通ID": "E2820900034121",
        "都道府県名及び市町村名": "兵庫県豊岡市",
        "施設・場所名": "レインボーハウス",
        "住所": "兵庫県豊岡市寿町8-40",
        "指定緊急避難場所との住所同一": "",
        "その他市町村長が必要と認める事項": null,
        "受入対象者": "要援護者",
        "備考": ""
      }
    },
    {
      "type": "Feature",
      "geometry": {
        "type": "Point",
        "coordinates": [
          134.871139,
          35.490824
        ]
      },
      "properties": {
        "NO": 53855,
        "共通ID": "E2820900039111",
        "都道府県名及び市町村名": "兵庫県豊岡市",
        "施設・場所名": "小野地区コミュニティセンター",
        "住所": "兵庫県豊岡市出石町袴狭386-1",
        "指定緊急避難場所との住所同一": "1",
        "その他市町村長が必要と認める事項": null,
        "受入対象者": null,
        "備考": ""
      }
    },
    {
      "type": "Feature",
      "geometry": {
        "type": "Point",
        "coordinates": [
          134.87529,
          35.497694
        ]
      },
      "properties": {
        "NO": 53856,
        "共通ID": "E2820900040111",
        "都道府県名及び市町村名": "兵庫県豊岡市",
        "施設・場所名": "小野小学校",
        "住所": "兵庫県豊岡市出石町口小野153",
        "指定緊急避難場所との住所同一": "1",
        "その他市町村長が必要と認める事項": null,
        "受入対象者": null,
        "備考": ""
      }
    },
    {
      "type": "Feature",
      "geometry": {
        "type": "Point",
        "coordinates": [
          134.868727,
          35.467372
        ]
      },
      "properties": {
        "NO": 53857,
        "共通ID": "E2820900041111",
        "都道府県名及び市町村名": "兵庫県豊岡市",
        "施設・場所名": "出石中学校",
        "住所": "兵庫県豊岡市出石町弘原202-1",
        "指定緊急避難場所との住所同一": "1",
        "その他市町村長が必要と認める事項": null,
        "受入対象者": null,
        "備考": ""
      }
    },
    {
      "type": "Feature",
      "geometry": {
        "type": "Point",
        "coordinates": [
          134.834073,
          35.464374
        ]
      },
      "properties": {
        "NO": 53858,
        "共通ID": "E2820900042111",
        "都道府県名及び市町村名": "兵庫県豊岡市",
        "施設・場所名": "菅谷地区コミュニティセンター",
        "住所": "兵庫県豊岡市出石町荒木810",
        "指定緊急避難場所との住所同一": "1",
        "その他市町村長が必要と認める事項": null,
        "受入対象者": null,
        "備考": ""
      }
    },
    {
      "type": "Feature",
      "geometry": {
        "type": "Point",
        "coordinates": [
          134.895503,
          35.453361
        ]
      },
      "properties": {
        "NO": 53859,
        "共通ID": "E2820900044111",
        "都道府県名及び市町村名": "兵庫県豊岡市",
        "施設・場所名": "寺坂地区コミュニティセンター",
        "住所": "兵庫県豊岡市出石町寺坂157",
        "指定緊急避難場所との住所同一": "1",
        "その他市町村長が必要と認める事項": null,
        "受入対象者": null,
        "備考": ""
      }
    },
    {
      "type": "Feature",
      "geometry": {
        "type": "Point",
        "coordinates": [
          134.879348,
          35.464627
        ]
      },
      "properties": {
        "NO": 53860,
        "共通ID": "E2820900045111",
        "都道府県名及び市町村名": "兵庫県豊岡市",
        "施設・場所名": "弘道小学校",
        "住所": "兵庫県豊岡市出石町寺町345",
        "指定緊急避難場所との住所同一": "1",
        "その他市町村長が必要と認める事項": null,
        "受入対象者": null,
        "備考": ""
      }
    },
    {
      "type": "Feature",
      "geometry": {
        "type": "Point",
        "coordinates": [
          134.872222,
          35.459543
        ]
      },
      "properties": {
        "NO": 53861,
        "共通ID": "E2820900046121",
        "都道府県名及び市町村名": "兵庫県豊岡市",
        "施設・場所名": "地域活動支援センター　てっせんの会",
        "住所": "兵庫県豊岡市出石町小人129-23",
        "指定緊急避難場所との住所同一": "",
        "その他市町村長が必要と認める事項": null,
        "受入対象者": "要援護者",
        "備考": ""
      }
    },
    {
      "type": "Feature",
      "geometry": {
        "type": "Point",
        "coordinates": [
          134.874407,
          35.469965
        ]
      },
      "properties": {
        "NO": 53862,
        "共通ID": "E2820900052121",
        "都道府県名及び市町村名": "兵庫県豊岡市",
        "施設・場所名": "地域活動支援センター　ぴあほのか",
        "住所": "兵庫県豊岡市出石町町分492-1",
        "指定緊急避難場所との住所同一": "",
        "その他市町村長が必要と認める事項": null,
        "受入対象者": "要援護者",
        "備考": ""
      }
    },
    {
      "type": "Feature",
      "geometry": {
        "type": "Point",
        "coordinates": [
          134.849657,
          35.482583
        ]
      },
      "properties": {
        "NO": 53863,
        "共通ID": "E2820900054111",
        "都道府県名及び市町村名": "兵庫県豊岡市",
        "施設・場所名": "小坂小学校",
        "住所": "兵庫県豊岡市出石町鳥居31",
        "指定緊急避難場所との住所同一": "1",
        "その他市町村長が必要と認める事項": null,
        "受入対象者": null,
        "備考": ""
      }
    },
    {
      "type": "Feature",
      "geometry": {
        "type": "Point",
        "coordinates": [
          134.874694,
          35.461754
        ]
      },
      "properties": {
        "NO": 53864,
        "共通ID": "E2820900055111",
        "都道府県名及び市町村名": "兵庫県豊岡市",
        "施設・場所名": "弘道地区コミュニティセンター",
        "住所": "兵庫県豊岡市出石町内町1",
        "指定緊急避難場所との住所同一": "1",
        "その他市町村長が必要と認める事項": null,
        "受入対象者": null,
        "備考": ""
      }
    },
    {
      "type": "Feature",
      "geometry": {
        "type": "Point",
        "coordinates": [
          134.861205,
          35.466657
        ]
      },
      "properties": {
        "NO": 53865,
        "共通ID": "E2820900057121",
        "都道府県名及び市町村名": "兵庫県豊岡市",
        "施設・場所名": "特別養護老人ホーム　出石荘",
        "住所": "兵庫県豊岡市出石町福住1301",
        "指定緊急避難場所との住所同一": "",
        "その他市町村長が必要と認める事項": null,
        "受入対象者": "要援護者",
        "備考": ""
      }
    },
    {
      "type": "Feature",
      "geometry": {
        "type": "Point",
        "coordinates": [
          134.860777,
          35.46593
        ]
      },
      "properties": {
        "NO": 53866,
        "共通ID": "E2820900058121",
        "都道府県名及び市町村名": "兵庫県豊岡市",
        "施設・場所名": "ワークホーム大地",
        "住所": "兵庫県豊岡市出石町福住1302",
        "指定緊急避難場所との住所同一": "1",
        "その他市町村長が必要と認める事項": null,
        "受入対象者": "要援護者",
        "備考": ""
      }
    },
    {
      "type": "Feature",
      "geometry": {
        "type": "Point",
        "coordinates": [
          134.85888,
          35.46771
        ]
      },
      "properties": {
        "NO": 53867,
        "共通ID": "E2820900060121",
        "都道府県名及び市町村名": "兵庫県豊岡市",
        "施設・場所名": "介護老人保健施設　出石愛の園",
        "住所": "兵庫県豊岡市出石町福住1313",
        "指定緊急避難場所との住所同一": "",
        "その他市町村長が必要と認める事項": null,
        "受入対象者": "要援護者",
        "備考": ""
      }
    },
    {
      "type": "Feature",
      "geometry": {
        "type": "Point",
        "coordinates": [
          134.85826,
          35.468098
        ]
      },
      "properties": {
        "NO": 53868,
        "共通ID": "E2820900061121",
        "都道府県名及び市町村名": "兵庫県豊岡市",
        "施設・場所名": "特別養護老人ホーム　出石愛の園",
        "住所": "兵庫県豊岡市出石町福住1332",
        "指定緊急避難場所との住所同一": "",
        "その他市町村長が必要と認める事項": null,
        "受入対象者": "要援護者",
        "備考": ""
      }
    },
    {
      "type": "Feature",
      "geometry": {
        "type": "Point",
        "coordinates": [
          134.86186,
          35.456842
        ]
      },
      "properties": {
        "NO": 53869,
        "共通ID": "E2820900062111",
        "都道府県名及び市町村名": "兵庫県豊岡市",
        "施設・場所名": "福住小学校",
        "住所": "兵庫県豊岡市出石町福住209",
        "指定緊急避難場所との住所同一": "1",
        "その他市町村長が必要と認める事項": null,
        "受入対象者": null,
        "備考": ""
      }
    },
    {
      "type": "Feature",
      "geometry": {
        "type": "Point",
        "coordinates": [
          134.865746,
          35.4616
        ]
      },
      "properties": {
        "NO": 53870,
        "共通ID": "E2820900063111",
        "都道府県名及び市町村名": "兵庫県豊岡市",
        "施設・場所名": "福住地区コミュニティセンター",
        "住所": "兵庫県豊岡市出石町福住460-1",
        "指定緊急避難場所との住所同一": "1",
        "その他市町村長が必要と認める事項": null,
        "受入対象者": null,
        "備考": ""
      }
    },
    {
      "type": "Feature",
      "geometry": {
        "type": "Point",
        "coordinates": [
          134.822699,
          35.550664
        ]
      },
      "properties": {
        "NO": 53871,
        "共通ID": "E2820900065121",
        "都道府県名及び市町村名": "兵庫県豊岡市",
        "施設・場所名": "やすら樹",
        "住所": "兵庫県豊岡市小田井町8-6",
        "指定緊急避難場所との住所同一": "",
        "その他市町村長が必要と認める事項": null,
        "受入対象者": "要援護者",
        "備考": ""
      }
    },
    {
      "type": "Feature",
      "geometry": {
        "type": "Point",
        "coordinates": [
          134.843366,
          35.553079
        ]
      },
      "properties": {
        "NO": 53872,
        "共通ID": "E2820900069111",
        "都道府県名及び市町村名": "兵庫県豊岡市",
        "施設・場所名": "三江地区コミュニティセンター",
        "住所": "兵庫県豊岡市庄境626",
        "指定緊急避難場所との住所同一": "1",
        "その他市町村長が必要と認める事項": null,
        "受入対象者": null,
        "備考": ""
      }
    },
    {
      "type": "Feature",
      "geometry": {
        "type": "Point",
        "coordinates": [
          134.844117,
          35.552987
        ]
      },
      "properties": {
        "NO": 53873,
        "共通ID": "E2820900070111",
        "都道府県名及び市町村名": "兵庫県豊岡市",
        "施設・場所名": "三江小学校",
        "住所": "兵庫県豊岡市庄境648",
        "指定緊急避難場所との住所同一": "1",
        "その他市町村長が必要と認める事項": null,
        "受入対象者": null,
        "備考": ""
      }
    },
    {
      "type": "Feature",
      "geometry": {
        "type": "Point",
        "coordinates": [
          134.811388,
          35.547503
        ]
      },
      "properties": {
        "NO": 53874,
        "共通ID": "E2820900071111",
        "都道府県名及び市町村名": "兵庫県豊岡市",
        "施設・場所名": "五荘地区コミュニティセンター",
        "住所": "兵庫県豊岡市上陰137-7",
        "指定緊急避難場所との住所同一": "1",
        "その他市町村長が必要と認める事項": null,
        "受入対象者": null,
        "備考": ""
      }
    },
    {
      "type": "Feature",
      "geometry": {
        "type": "Point",
        "coordinates": [
          134.811284,
          35.547943
        ]
      },
      "properties": {
        "NO": 53875,
        "共通ID": "E2820900072121",
        "都道府県名及び市町村名": "兵庫県豊岡市",
        "施設・場所名": "とよおか作業所　愛・とーぷ",
        "住所": "兵庫県豊岡市上陰164",
        "指定緊急避難場所との住所同一": "",
        "その他市町村長が必要と認める事項": null,
        "受入対象者": "要援護者",
        "備考": ""
      }
    },
    {
      "type": "Feature",
      "geometry": {
        "type": "Point",
        "coordinates": [
          134.820156,
          35.620365
        ]
      },
      "properties": {
        "NO": 53876,
        "共通ID": "E2820900076121",
        "都道府県名及び市町村名": "兵庫県豊岡市",
        "施設・場所名": "特別養護老人ホーム　楽々むら",
        "住所": "兵庫県豊岡市城崎町楽々浦419",
        "指定緊急避難場所との住所同一": "",
        "その他市町村長が必要と認める事項": null,
        "受入対象者": "要援護者",
        "備考": ""
      }
    },
    {
      "type": "Feature",
      "geometry": {
        "type": "Point",
        "coordinates": [
          134.813484,
          35.628568
        ]
      },
      "properties": {
        "NO": 53877,
        "共通ID": "E2820900080111",
        "都道府県名及び市町村名": "兵庫県豊岡市",
        "施設・場所名": "城崎地区コミュニティセンター",
        "住所": "兵庫県豊岡市城崎町桃島1057-1",
        "指定緊急避難場所との住所同一": "1",
        "その他市町村長が必要と認める事項": null,
        "受入対象者": null,
        "備考": ""
      }
    },
    {
      "type": "Feature",
      "geometry": {
        "type": "Point",
        "coordinates": [
          134.803117,
          35.627157
        ]
      },
      "properties": {
        "NO": 53878,
        "共通ID": "E2820900082111",
        "都道府県名及び市町村名": "兵庫県豊岡市",
        "施設・場所名": "城崎中学校",
        "住所": "兵庫県豊岡市城崎町湯島617",
        "指定緊急避難場所との住所同一": "1",
        "その他市町村長が必要と認める事項": null,
        "受入対象者": null,
        "備考": ""
      }
    },
    {
      "type": "Feature",
      "geometry": {
        "type": "Point",
        "coordinates": [
          134.801379,
          35.627281
        ]
      },
      "properties": {
        "NO": 53879,
        "共通ID": "E2820900083121",
        "都道府県名及び市町村名": "兵庫県豊岡市",
        "施設・場所名": "地域活動支援センター　ゆのはな",
        "住所": "兵庫県豊岡市城崎町湯島625-9",
        "指定緊急避難場所との住所同一": "",
        "その他市町村長が必要と認める事項": null,
        "受入対象者": "要援護者",
        "備考": ""
      }
    },
    {
      "type": "Feature",
      "geometry": {
        "type": "Point",
        "coordinates": [
          134.812267,
          35.623126
        ]
      },
      "properties": {
        "NO": 53880,
        "共通ID": "E2820900084111",
        "都道府県名及び市町村名": "兵庫県豊岡市",
        "施設・場所名": "城崎小学校",
        "住所": "兵庫県豊岡市城崎町湯島72-4",
        "指定緊急避難場所との住所同一": "1",
        "その他市町村長が必要と認める事項": null,
        "受入対象者": null,
        "備考": ""
      }
    },
    {
      "type": "Feature",
      "geometry": {
        "type": "Point",
        "coordinates": [
          134.825057,
          35.540008
        ]
      },
      "properties": {
        "NO": 53881,
        "共通ID": "E2820900086121",
        "都道府県名及び市町村名": "兵庫県豊岡市",
        "施設・場所名": "しいの実作業所",
        "住所": "兵庫県豊岡市城南町23-6",
        "指定緊急避難場所との住所同一": "",
        "その他市町村長が必要と認める事項": null,
        "受入対象者": "要援護者",
        "備考": ""
      }
    },
    {
      "type": "Feature",
      "geometry": {
        "type": "Point",
        "coordinates": [
          134.825014,
          35.539829
        ]
      },
      "properties": {
        "NO": 53882,
        "共通ID": "E2820900086122",
        "都道府県名及び市町村名": "兵庫県豊岡市",
        "施設・場所名": "たじま聴覚障害者センター",
        "住所": "兵庫県豊岡市城南町23-6",
        "指定緊急避難場所との住所同一": "",
        "その他市町村長が必要と認める事項": null,
        "受入対象者": "要援護者",
        "備考": ""
      }
    },
    {
      "type": "Feature",
      "geometry": {
        "type": "Point",
        "coordinates": [
          134.825097,
          35.53975
        ]
      },
      "properties": {
        "NO": 53883,
        "共通ID": "E2820900086123",
        "都道府県名及び市町村名": "兵庫県豊岡市",
        "施設・場所名": "地域活動支援センター　ざくろ",
        "住所": "兵庫県豊岡市城南町23-6",
        "指定緊急避難場所との住所同一": "",
        "その他市町村長が必要と認める事項": null,
        "受入対象者": "要援護者",
        "備考": ""
      }
    },
    {
      "type": "Feature",
      "geometry": {
        "type": "Point",
        "coordinates": [
          134.828365,
          35.648179
        ]
      },
      "properties": {
        "NO": 53884,
        "共通ID": "E2820900091111",
        "都道府県名及び市町村名": "兵庫県豊岡市",
        "施設・場所名": "旧港西小学校",
        "住所": "兵庫県豊岡市瀬戸57",
        "指定緊急避難場所との住所同一": "1",
        "その他市町村長が必要と認める事項": null,
        "受入対象者": null,
        "備考": ""
      }
    },
    {
      "type": "Feature",
      "geometry": {
        "type": "Point",
        "coordinates": [
          134.828454,
          35.538125
        ]
      },
      "properties": {
        "NO": 53885,
        "共通ID": "E2820900093111",
        "都道府県名及び市町村名": "兵庫県豊岡市",
        "施設・場所名": "豊岡南中学校",
        "住所": "兵庫県豊岡市大磯町1-65",
        "指定緊急避難場所との住所同一": "1",
        "その他市町村長が必要と認める事項": null,
        "受入対象者": null,
        "備考": ""
      }
    },
    {
      "type": "Feature",
      "geometry": {
        "type": "Point",
        "coordinates": [
          134.826992,
          35.539204
        ]
      },
      "properties": {
        "NO": 53886,
        "共通ID": "E2820900211111",
        "都道府県名及び市町村名": "兵庫県豊岡市",
        "施設・場所名": "豊岡市立総合体育館",
        "住所": "兵庫県豊岡市大磯町1-75",
        "指定緊急避難場所との住所同一": "",
        "その他市町村長が必要と認める事項": null,
        "受入対象者": null,
        "備考": ""
      }
    },
    {
      "type": "Feature",
      "geometry": {
        "type": "Point",
        "coordinates": [
          134.81536,
          35.542497
        ]
      },
      "properties": {
        "NO": 53887,
        "共通ID": "E2820900094121",
        "都道府県名及び市町村名": "兵庫県豊岡市",
        "施設・場所名": "らいふステーション",
        "住所": "兵庫県豊岡市大手町2-25",
        "指定緊急避難場所との住所同一": "",
        "その他市町村長が必要と認める事項": null,
        "受入対象者": "要援護者",
        "備考": ""
      }
    },
    {
      "type": "Feature",
      "geometry": {
        "type": "Point",
        "coordinates": [
          135.0093,
          35.418569
        ]
      },
      "properties": {
        "NO": 53888,
        "共通ID": "E2820900099111",
        "都道府県名及び市町村名": "兵庫県豊岡市",
        "施設・場所名": "高橋地区コミュニティセンター",
        "住所": "兵庫県豊岡市但東町久畑830",
        "指定緊急避難場所との住所同一": "1",
        "その他市町村長が必要と認める事項": null,
        "受入対象者": null,
        "備考": ""
      }
    },
    {
      "type": "Feature",
      "geometry": {
        "type": "Point",
        "coordinates": [
          134.952702,
          35.477472
        ]
      },
      "properties": {
        "NO": 53889,
        "共通ID": "E2820900103111",
        "都道府県名及び市町村名": "兵庫県豊岡市",
        "施設・場所名": "但東中学校",
        "住所": "兵庫県豊岡市但東町三原108-1",
        "指定緊急避難場所との住所同一": "1",
        "その他市町村長が必要と認める事項": null,
        "受入対象者": null,
        "備考": ""
      }
    },
    {
      "type": "Feature",
      "geometry": {
        "type": "Point",
        "coordinates": [
          134.950121,
          35.470312
        ]
      },
      "properties": {
        "NO": 53890,
        "共通ID": "E2820900104111",
        "都道府県名及び市町村名": "兵庫県豊岡市",
        "施設・場所名": "合橋地区コミュニティセンター",
        "住所": "兵庫県豊岡市但東町出合150",
        "指定緊急避難場所との住所同一": "1",
        "その他市町村長が必要と認める事項": null,
        "受入対象者": null,
        "備考": ""
      }
    },
    {
      "type": "Feature",
      "geometry": {
        "type": "Point",
        "coordinates": [
          134.947595,
          35.471599
        ]
      },
      "properties": {
        "NO": 53891,
        "共通ID": "E2820900105121",
        "都道府県名及び市町村名": "兵庫県豊岡市",
        "施設・場所名": "サポートハウスすみれ",
        "住所": "兵庫県豊岡市但東町出合433-1",
        "指定緊急避難場所との住所同一": "1",
        "その他市町村長が必要と認める事項": null,
        "受入対象者": "要援護者",
        "備考": ""
      }
    },
    {
      "type": "Feature",
      "geometry": {
        "type": "Point",
        "coordinates": [
          134.939713,
          35.463842
        ]
      },
      "properties": {
        "NO": 53892,
        "共通ID": "E2820900107111",
        "都道府県名及び市町村名": "兵庫県豊岡市",
        "施設・場所名": "合橋小学校",
        "住所": "兵庫県豊岡市但東町出合市場391",
        "指定緊急避難場所との住所同一": "1",
        "その他市町村長が必要と認める事項": null,
        "受入対象者": null,
        "備考": ""
      }
    },
    {
      "type": "Feature",
      "geometry": {
        "type": "Point",
        "coordinates": [
          134.984018,
          35.494629
        ]
      },
      "properties": {
        "NO": 53893,
        "共通ID": "E2820900109121",
        "都道府県名及び市町村名": "兵庫県豊岡市",
        "施設・場所名": "特別養護老人ホーム　けやきホール",
        "住所": "兵庫県豊岡市但東町太田614",
        "指定緊急避難場所との住所同一": "",
        "その他市町村長が必要と認める事項": null,
        "受入対象者": "要援護者",
        "備考": ""
      }
    },
    {
      "type": "Feature",
      "geometry": {
        "type": "Point",
        "coordinates": [
          134.994749,
          35.496119
        ]
      },
      "properties": {
        "NO": 53894,
        "共通ID": "E2820900112111",
        "都道府県名及び市町村名": "兵庫県豊岡市",
        "施設・場所名": "資母地区コミュニティセンター",
        "住所": "兵庫県豊岡市但東町中山815",
        "指定緊急避難場所との住所同一": "1",
        "その他市町村長が必要と認める事項": null,
        "受入対象者": null,
        "備考": ""
      }
    },
    {
      "type": "Feature",
      "geometry": {
        "type": "Point",
        "coordinates": [
          134.993595,
          35.496641
        ]
      },
      "properties": {
        "NO": 53895,
        "共通ID": "E2820900113111",
        "都道府県名及び市町村名": "兵庫県豊岡市",
        "施設・場所名": "資母小学校",
        "住所": "兵庫県豊岡市但東町中山856",
        "指定緊急避難場所との住所同一": "1",
        "その他市町村長が必要と認める事項": null,
        "受入対象者": null,
        "備考": ""
      }
    },
    {
      "type": "Feature",
      "geometry": {
        "type": "Point",
        "coordinates": [
          134.753238,
          35.622533
        ]
      },
      "properties": {
        "NO": 53896,
        "共通ID": "E2820900124111",
        "都道府県名及び市町村名": "兵庫県豊岡市",
        "施設・場所名": "中竹野地区コミュニティセンター",
        "住所": "兵庫県豊岡市竹野町轟1051",
        "指定緊急避難場所との住所同一": "1",
        "その他市町村長が必要と認める事項": null,
        "受入対象者": null,
        "備考": ""
      }
    },
    {
      "type": "Feature",
      "geometry": {
        "type": "Point",
        "coordinates": [
          134.731079,
          35.579094
        ]
      },
      "properties": {
        "NO": 53897,
        "共通ID": "E2820900127111",
        "都道府県名及び市町村名": "兵庫県豊岡市",
        "施設・場所名": "竹野南地区コミュニティセンター",
        "住所": "兵庫県豊岡市竹野町森本984-1",
        "指定緊急避難場所との住所同一": "1",
        "その他市町村長が必要と認める事項": null,
        "受入対象者": null,
        "備考": ""
      }
    },
    {
      "type": "Feature",
      "geometry": {
        "type": "Point",
        "coordinates": [
          134.757229,
          35.639895
        ]
      },
      "properties": {
        "NO": 53898,
        "共通ID": "E2820900128121",
        "都道府県名及び市町村名": "兵庫県豊岡市",
        "施設・場所名": "なかよし園",
        "住所": "兵庫県豊岡市竹野町須谷1466-1",
        "指定緊急避難場所との住所同一": "",
        "その他市町村長が必要と認める事項": null,
        "受入対象者": "要援護者",
        "備考": ""
      }
    },
    {
      "type": "Feature",
      "geometry": {
        "type": "Point",
        "coordinates": [
          134.756328,
          35.640647
        ]
      },
      "properties": {
        "NO": 53899,
        "共通ID": "E2820900129121",
        "都道府県名及び市町村名": "兵庫県豊岡市",
        "施設・場所名": "特別養護老人ホーム　はまなす苑",
        "住所": "兵庫県豊岡市竹野町須谷433",
        "指定緊急避難場所との住所同一": "",
        "その他市町村長が必要と認める事項": null,
        "受入対象者": "要援護者",
        "備考": ""
      }
    },
    {
      "type": "Feature",
      "geometry": {
        "type": "Point",
        "coordinates": [
          134.757682,
          35.649898
        ]
      },
      "properties": {
        "NO": 53900,
        "共通ID": "E2820900137111",
        "都道府県名及び市町村名": "兵庫県豊岡市",
        "施設・場所名": "竹野地区コミュニティセンター",
        "住所": "兵庫県豊岡市竹野町竹野1585-1",
        "指定緊急避難場所との住所同一": "1",
        "その他市町村長が必要と認める事項": null,
        "受入対象者": null,
        "備考": ""
      }
    },
    {
      "type": "Feature",
      "geometry": {
        "type": "Point",
        "coordinates": [
          134.765675,
          35.651731
        ]
      },
      "properties": {
        "NO": 53901,
        "共通ID": "E2820900138111",
        "都道府県名及び市町村名": "兵庫県豊岡市",
        "施設・場所名": "竹野中学校",
        "住所": "兵庫県豊岡市竹野町竹野2056",
        "指定緊急避難場所との住所同一": "1",
        "その他市町村長が必要と認める事項": null,
        "受入対象者": null,
        "備考": ""
      }
    },
    {
      "type": "Feature",
      "geometry": {
        "type": "Point",
        "coordinates": [
          134.762828,
          35.657592
        ]
      },
      "properties": {
        "NO": 53902,
        "共通ID": "E2820900140111",
        "都道府県名及び市町村名": "兵庫県豊岡市",
        "施設・場所名": "竹野小学校",
        "住所": "兵庫県豊岡市竹野町竹野300",
        "指定緊急避難場所との住所同一": "1",
        "その他市町村長が必要と認める事項": null,
        "受入対象者": null,
        "備考": ""
      }
    },
    {
      "type": "Feature",
      "geometry": {
        "type": "Point",
        "coordinates": [
          134.748025,
          35.598513
        ]
      },
      "properties": {
        "NO": 53903,
        "共通ID": "E2820900152121",
        "都道府県名及び市町村名": "兵庫県豊岡市",
        "施設・場所名": "しょうがい者就労支援施設　楓の杜",
        "住所": "兵庫県豊岡市竹野町林600",
        "指定緊急避難場所との住所同一": "",
        "その他市町村長が必要と認める事項": null,
        "受入対象者": "要援護者",
        "備考": ""
      }
    },
    {
      "type": "Feature",
      "geometry": {
        "type": "Point",
        "coordinates": [
          134.803367,
          35.548682
        ]
      },
      "properties": {
        "NO": 53904,
        "共通ID": "E2820900157111",
        "都道府県名及び市町村名": "兵庫県豊岡市",
        "施設・場所名": "五荘小学校",
        "住所": "兵庫県豊岡市中陰1",
        "指定緊急避難場所との住所同一": "1",
        "その他市町村長が必要と認める事項": null,
        "受入対象者": null,
        "備考": ""
      }
    },
    {
      "type": "Feature",
      "geometry": {
        "type": "Point",
        "coordinates": [
          134.80368,
          35.55204
        ]
      },
      "properties": {
        "NO": 53905,
        "共通ID": "E2820900158111",
        "都道府県名及び市町村名": "兵庫県豊岡市",
        "施設・場所名": "豊岡北中学校",
        "住所": "兵庫県豊岡市中陰250",
        "指定緊急避難場所との住所同一": "1",
        "その他市町村長が必要と認める事項": null,
        "受入対象者": null,
        "備考": ""
      }
    },
    {
      "type": "Feature",
      "geometry": {
        "type": "Point",
        "coordinates": [
          134.807468,
          35.550108
        ]
      },
      "properties": {
        "NO": 53906,
        "共通ID": "E2820900159121",
        "都道府県名及び市町村名": "兵庫県豊岡市",
        "施設・場所名": "サポートきぼう",
        "住所": "兵庫県豊岡市中陰296-1",
        "指定緊急避難場所との住所同一": "",
        "その他市町村長が必要と認める事項": null,
        "受入対象者": "要援護者",
        "備考": ""
      }
    },
    {
      "type": "Feature",
      "geometry": {
        "type": "Point",
        "coordinates": [
          134.808333,
          35.551883
        ]
      },
      "properties": {
        "NO": 53907,
        "共通ID": "E2820900160121",
        "都道府県名及び市町村名": "兵庫県豊岡市",
        "施設・場所名": "ロマンハウス",
        "住所": "兵庫県豊岡市中陰376-12",
        "指定緊急避難場所との住所同一": "",
        "その他市町村長が必要と認める事項": null,
        "受入対象者": "要援護者",
        "備考": ""
      }
    },
    {
      "type": "Feature",
      "geometry": {
        "type": "Point",
        "coordinates": [
          134.821822,
          35.5414
        ]
      },
      "properties": {
        "NO": 53908,
        "共通ID": "E2820900161111",
        "都道府県名及び市町村名": "兵庫県豊岡市",
        "施設・場所名": "豊岡小学校",
        "住所": "兵庫県豊岡市中央町16-5",
        "指定緊急避難場所との住所同一": "1",
        "その他市町村長が必要と認める事項": null,
        "受入対象者": null,
        "備考": ""
      }
    },
    {
      "type": "Feature",
      "geometry": {
        "type": "Point",
        "coordinates": [
          134.819653,
          35.502513
        ]
      },
      "properties": {
        "NO": 53909,
        "共通ID": "E2820900170111",
        "都道府県名及び市町村名": "兵庫県豊岡市",
        "施設・場所名": "中筋小学校",
        "住所": "兵庫県豊岡市土渕27",
        "指定緊急避難場所との住所同一": "1",
        "その他市町村長が必要と認める事項": null,
        "受入対象者": null,
        "備考": ""
      }
    },
    {
      "type": "Feature",
      "geometry": {
        "type": "Point",
        "coordinates": [
          134.820418,
          35.501488
        ]
      },
      "properties": {
        "NO": 53910,
        "共通ID": "E2820900171111",
        "都道府県名及び市町村名": "兵庫県豊岡市",
        "施設・場所名": "中筋地区コミュニティセンター",
        "住所": "兵庫県豊岡市土渕281-1",
        "指定緊急避難場所との住所同一": "1",
        "その他市町村長が必要と認める事項": null,
        "受入対象者": null,
        "備考": ""
      }
    },
    {
      "type": "Feature",
      "geometry": {
        "type": "Point",
        "coordinates": [
          134.733567,
          35.46079
        ]
      },
      "properties": {
        "NO": 53911,
        "共通ID": "E2820900174121",
        "都道府県名及び市町村名": "兵庫県豊岡市",
        "施設・場所名": "特別養護老人ホーム　やすらぎの里ひだか",
        "住所": "兵庫県豊岡市日高町伊府707",
        "指定緊急避難場所との住所同一": "",
        "その他市町村長が必要と認める事項": null,
        "受入対象者": "要援護者",
        "備考": ""
      }
    },
    {
      "type": "Feature",
      "geometry": {
        "type": "Point",
        "coordinates": [
          134.772327,
          35.468328
        ]
      },
      "properties": {
        "NO": 53912,
        "共通ID": "E2820900175111",
        "都道府県名及び市町村名": "兵庫県豊岡市",
        "施設・場所名": "日高小学校",
        "住所": "兵庫県豊岡市日高町岩中22",
        "指定緊急避難場所との住所同一": "1",
        "その他市町村長が必要と認める事項": null,
        "受入対象者": null,
        "備考": ""
      }
    },
    {
      "type": "Feature",
      "geometry": {
        "type": "Point",
        "coordinates": [
          134.723504,
          35.456433
        ]
      },
      "properties": {
        "NO": 53913,
        "共通ID": "E2820900176111",
        "都道府県名及び市町村名": "兵庫県豊岡市",
        "施設・場所名": "三方小学校",
        "住所": "兵庫県豊岡市日高町栗山735",
        "指定緊急避難場所との住所同一": "1",
        "その他市町村長が必要と認める事項": null,
        "受入対象者": null,
        "備考": ""
      }
    },
    {
      "type": "Feature",
      "geometry": {
        "type": "Point",
        "coordinates": [
          134.721083,
          35.454987
        ]
      },
      "properties": {
        "NO": 53914,
        "共通ID": "E2820900177111",
        "都道府県名及び市町村名": "兵庫県豊岡市",
        "施設・場所名": "三方地区コミュニティセンター",
        "住所": "兵庫県豊岡市日高町栗山901-2",
        "指定緊急避難場所との住所同一": "1",
        "その他市町村長が必要と認める事項": null,
        "受入対象者": null,
        "備考": ""
      }
    },
    {
      "type": "Feature",
      "geometry": {
        "type": "Point",
        "coordinates": [
          134.771713,
          35.470608
        ]
      },
      "properties": {
        "NO": 53915,
        "共通ID": "E2820900179111",
        "都道府県名及び市町村名": "兵庫県豊岡市",
        "施設・場所名": "日高地区コミュニティセンター",
        "住所": "兵庫県豊岡市日高町国分寺850",
        "指定緊急避難場所との住所同一": "1",
        "その他市町村長が必要と認める事項": null,
        "受入対象者": null,
        "備考": ""
      }
    },
    {
      "type": "Feature",
      "geometry": {
        "type": "Point",
        "coordinates": [
          134.695428,
          35.487546
        ]
      },
      "properties": {
        "NO": 53916,
        "共通ID": "E2820900180111",
        "都道府県名及び市町村名": "兵庫県豊岡市",
        "施設・場所名": "清滝地区コミュニティセンター",
        "住所": "兵庫県豊岡市日高町山宮1337-1",
        "指定緊急避難場所との住所同一": "1",
        "その他市町村長が必要と認める事項": null,
        "受入対象者": null,
        "備考": ""
      }
    },
    {
      "type": "Feature",
      "geometry": {
        "type": "Point",
        "coordinates": [
          134.696206,
          35.488472
        ]
      },
      "properties": {
        "NO": 53917,
        "共通ID": "E2820900181111",
        "都道府県名及び市町村名": "兵庫県豊岡市",
        "施設・場所名": "清滝小学校",
        "住所": "兵庫県豊岡市日高町山宮1357-1",
        "指定緊急避難場所との住所同一": "1",
        "その他市町村長が必要と認める事項": null,
        "受入対象者": null,
        "備考": ""
      }
    },
    {
      "type": "Feature",
      "geometry": {
        "type": "Point",
        "coordinates": [
          134.719537,
          35.477533
        ]
      },
      "properties": {
        "NO": 53918,
        "共通ID": "E2820900182121",
        "都道府県名及び市町村名": "兵庫県豊岡市",
        "施設・場所名": "特別養護老人ホーム　たじま荘",
        "住所": "兵庫県豊岡市日高町十戸455",
        "指定緊急避難場所との住所同一": "",
        "その他市町村長が必要と認める事項": null,
        "受入対象者": "要援護者",
        "備考": ""
      }
    },
    {
      "type": "Feature",
      "geometry": {
        "type": "Point",
        "coordinates": [
          134.722015,
          35.472511
        ]
      },
      "properties": {
        "NO": 53919,
        "共通ID": "E2820900183111",
        "都道府県名及び市町村名": "兵庫県豊岡市",
        "施設・場所名": "日高西中学校",
        "住所": "兵庫県豊岡市日高町庄境410",
        "指定緊急避難場所との住所同一": "1",
        "その他市町村長が必要と認める事項": null,
        "受入対象者": null,
        "備考": ""
      }
    },
    {
      "type": "Feature",
      "geometry": {
        "type": "Point",
        "coordinates": [
          134.774535,
          35.47972
        ]
      },
      "properties": {
        "NO": 53920,
        "共通ID": "E2820900184111",
        "都道府県名及び市町村名": "兵庫県豊岡市",
        "施設・場所名": "日高東中学校",
        "住所": "兵庫県豊岡市日高町水上160",
        "指定緊急避難場所との住所同一": "1",
        "その他市町村長が必要と認める事項": null,
        "受入対象者": null,
        "備考": ""
      }
    },
    {
      "type": "Feature",
      "geometry": {
        "type": "Point",
        "coordinates": [
          134.760833,
          35.49572
        ]
      },
      "properties": {
        "NO": 53921,
        "共通ID": "E2820900188111",
        "都道府県名及び市町村名": "兵庫県豊岡市",
        "施設・場所名": "八代小学校",
        "住所": "兵庫県豊岡市日高町中320-1",
        "指定緊急避難場所との住所同一": "1",
        "その他市町村長が必要と認める事項": null,
        "受入対象者": null,
        "備考": ""
      }
    },
    {
      "type": "Feature",
      "geometry": {
        "type": "Point",
        "coordinates": [
          134.761292,
          35.494957
        ]
      },
      "properties": {
        "NO": 53922,
        "共通ID": "E2820900189111",
        "都道府県名及び市町村名": "兵庫県豊岡市",
        "施設・場所名": "八代ふれあいセンター",
        "住所": "兵庫県豊岡市日高町中333-1",
        "指定緊急避難場所との住所同一": "1",
        "その他市町村長が必要と認める事項": null,
        "受入対象者": null,
        "備考": ""
      }
    },
    {
      "type": "Feature",
      "geometry": {
        "type": "Point",
        "coordinates": [
          134.664882,
          35.510097
        ]
      },
      "properties": {
        "NO": 53923,
        "共通ID": "E2820900190111",
        "都道府県名及び市町村名": "兵庫県豊岡市",
        "施設・場所名": "西気地区コミュニティセンター",
        "住所": "兵庫県豊岡市日高町東河内608-2",
        "指定緊急避難場所との住所同一": "1",
        "その他市町村長が必要と認める事項": null,
        "受入対象者": null,
        "備考": ""
      }
    },
    {
      "type": "Feature",
      "geometry": {
        "type": "Point",
        "coordinates": [
          134.76496,
          35.464696
        ]
      },
      "properties": {
        "NO": 53924,
        "共通ID": "E2820900193121",
        "都道府県名及び市町村名": "兵庫県豊岡市",
        "施設・場所名": "養護老人ホーム　ことぶき苑",
        "住所": "兵庫県豊岡市日高町祢布1304",
        "指定緊急避難場所との住所同一": "",
        "その他市町村長が必要と認める事項": null,
        "受入対象者": "要援護者",
        "備考": ""
      }
    },
    {
      "type": "Feature",
      "geometry": {
        "type": "Point",
        "coordinates": [
          134.76503,
          35.464653
        ]
      },
      "properties": {
        "NO": 53925,
        "共通ID": "E2820900213121",
        "都道府県名及び市町村名": "兵庫県豊岡市",
        "施設・場所名": "日高共同作業所",
        "住所": "兵庫県豊岡市日高町祢布1304-11",
        "指定緊急避難場所との住所同一": "",
        "その他市町村長が必要と認める事項": "",
        "受入対象者": "要援護者",
        "備考": ""
      }
    },
    {
      "type": "Feature",
      "geometry": {
        "type": "Point",
        "coordinates": [
          134.769816,
          35.469795
        ]
      },
      "properties": {
        "NO": 53926,
        "共通ID": "E2820900194122",
        "都道府県名及び市町村名": "兵庫県豊岡市",
        "施設・場所名": "ＳｏＬａ",
        "住所": "兵庫県豊岡市日高町祢布891-2",
        "指定緊急避難場所との住所同一": "",
        "その他市町村長が必要と認める事項": null,
        "受入対象者": "要援護者",
        "備考": ""
      }
    },
    {
      "type": "Feature",
      "geometry": {
        "type": "Point",
        "coordinates": [
          134.769891,
          35.469891
        ]
      },
      "properties": {
        "NO": 53927,
        "共通ID": "E2820900194121",
        "都道府県名及び市町村名": "兵庫県豊岡市",
        "施設・場所名": "そら",
        "住所": "兵庫県豊岡市日高町祢布891-2",
        "指定緊急避難場所との住所同一": "",
        "その他市町村長が必要と認める事項": null,
        "受入対象者": "要援護者",
        "備考": ""
      }
    },
    {
      "type": "Feature",
      "geometry": {
        "type": "Point",
        "coordinates": [
          134.800726,
          35.491316
        ]
      },
      "properties": {
        "NO": 53928,
        "共通ID": "E2820900198111",
        "都道府県名及び市町村名": "兵庫県豊岡市",
        "施設・場所名": "府中小学校",
        "住所": "兵庫県豊岡市日高町野々庄934",
        "指定緊急避難場所との住所同一": "1",
        "その他市町村長が必要と認める事項": null,
        "受入対象者": null,
        "備考": ""
      }
    },
    {
      "type": "Feature",
      "geometry": {
        "type": "Point",
        "coordinates": [
          134.800425,
          35.491762
        ]
      },
      "properties": {
        "NO": 53929,
        "共通ID": "E2820900199111",
        "都道府県名及び市町村名": "兵庫県豊岡市",
        "施設・場所名": "国府地区コミュニティーセンター",
        "住所": "兵庫県豊岡市日高町野々庄934-2",
        "指定緊急避難場所との住所同一": "1",
        "その他市町村長が必要と認める事項": null,
        "受入対象者": null,
        "備考": ""
      }
    },
    {
      "type": "Feature",
      "geometry": {
        "type": "Point",
        "coordinates": [
          134.813656,
          35.53313
        ]
      },
      "properties": {
        "NO": 53930,
        "共通ID": "E2820900205111",
        "都道府県名及び市町村名": "兵庫県豊岡市",
        "施設・場所名": "但馬文教府",
        "住所": "兵庫県豊岡市妙楽寺41-1",
        "指定緊急避難場所との住所同一": "1",
        "その他市町村長が必要と認める事項": null,
        "受入対象者": null,
        "備考": ""
      }
    },
    {
      "type": "Feature",
      "geometry": {
        "type": "Point",
        "coordinates": [
          134.819379,
          35.562684
        ]
      },
      "properties": {
        "NO": 53931,
        "共通ID": "E2820900208111",
        "都道府県名及び市町村名": "兵庫県豊岡市",
        "施設・場所名": "田鶴野小学校",
        "住所": "兵庫県豊岡市野上162",
        "指定緊急避難場所との住所同一": "1",
        "その他市町村長が必要と認める事項": null,
        "受入対象者": null,
        "備考": ""
      }
    },
    {
      "type": "Feature",
      "geometry": {
        "type": "Point",
        "coordinates": [
          134.819739,
          35.563029
        ]
      },
      "properties": {
        "NO": 53932,
        "共通ID": "E2820900208112",
        "都道府県名及び市町村名": "兵庫県豊岡市",
        "施設・場所名": "田鶴野地区コミュニティセンター",
        "住所": "兵庫県豊岡市野上162",
        "指定緊急避難場所との住所同一": "1",
        "その他市町村長が必要と認める事項": null,
        "受入対象者": null,
        "備考": ""
      }
    },
    {
      "type": "Feature",
      "geometry": {
        "type": "Point",
        "coordinates": [
          134.825761,
          35.543772
        ]
      },
      "properties": {
        "NO": 53933,
        "共通ID": "E2820900209111",
        "都道府県名及び市町村名": "兵庫県豊岡市",
        "施設・場所名": "豊岡地区コミュニティセンター",
        "住所": "兵庫県豊岡市立野町1-4",
        "指定緊急避難場所との住所同一": "1",
        "その他市町村長が必要と認める事項": null,
        "受入対象者": null,
        "備考": ""
      }
    }
  ]
}