{
  "type": "FeatureCollection",
  "name": "282260",
  "features": [
    {
      "type": "Feature",
      "geometry": {
        "type": "Point",
        "coordinates": [
          134.89644,
          34.525097
        ]
      },
      "properties": {
        "NO": 54773,
        "共通ID": "E2822600001111",
        "都道府県名及び市町村名": "兵庫県淡路市",
        "施設・場所名": "育波体育センター",
        "住所": "兵庫県淡路市育波1345",
        "指定緊急避難場所との住所同一": "1",
        "その他市町村長が必要と認める事項": "",
        "受入対象者": "",
        "備考": ""
      }
    },
    {
      "type": "Feature",
      "geometry": {
        "type": "Point",
        "coordinates": [
          134.893084,
          34.527333
        ]
      },
      "properties": {
        "NO": 54774,
        "共通ID": "E2822600002111",
        "都道府県名及び市町村名": "兵庫県淡路市",
        "施設・場所名": "育波公民館",
        "住所": "兵庫県淡路市育波1554",
        "指定緊急避難場所との住所同一": "1",
        "その他市町村長が必要と認める事項": null,
        "受入対象者": null,
        "備考": ""
      }
    },
    {
      "type": "Feature",
      "geometry": {
        "type": "Point",
        "coordinates": [
          134.989042,
          34.538371
        ]
      },
      "properties": {
        "NO": 54775,
        "共通ID": "E2822600003111",
        "都道府県名及び市町村名": "兵庫県淡路市",
        "施設・場所名": "東浦農林漁家高齢者センター",
        "住所": "兵庫県淡路市浦623",
        "指定緊急避難場所との住所同一": "",
        "その他市町村長が必要と認める事項": "",
        "受入対象者": "",
        "備考": ""
      }
    },
    {
      "type": "Feature",
      "geometry": {
        "type": "Point",
        "coordinates": [
          134.990431,
          34.539125
        ]
      },
      "properties": {
        "NO": 54776,
        "共通ID": "E2822600004111",
        "都道府県名及び市町村名": "兵庫県淡路市",
        "施設・場所名": "淡路市立浦小学校",
        "住所": "兵庫県淡路市浦701",
        "指定緊急避難場所との住所同一": "1",
        "その他市町村長が必要と認める事項": null,
        "受入対象者": null,
        "備考": ""
      }
    },
    {
      "type": "Feature",
      "geometry": {
        "type": "Point",
        "coordinates": [
          134.870242,
          34.470119
        ]
      },
      "properties": {
        "NO": 54777,
        "共通ID": "E2822600005111",
        "都道府県名及び市町村名": "兵庫県淡路市",
        "施設・場所名": "淡路市尾崎老人福祉センター",
        "住所": "兵庫県淡路市遠田1547",
        "指定緊急避難場所との住所同一": "1",
        "その他市町村長が必要と認める事項": null,
        "受入対象者": null,
        "備考": ""
      }
    },
    {
      "type": "Feature",
      "geometry": {
        "type": "Point",
        "coordinates": [
          134.887832,
          34.411443
        ]
      },
      "properties": {
        "NO": 54778,
        "共通ID": "E2822600006111",
        "都道府県名及び市町村名": "兵庫県淡路市",
        "施設・場所名": "淡路市立塩田小学校",
        "住所": "兵庫県淡路市塩尾430-2",
        "指定緊急避難場所との住所同一": "1",
        "その他市町村長が必要と認める事項": null,
        "受入対象者": null,
        "備考": ""
      }
    },
    {
      "type": "Feature",
      "geometry": {
        "type": "Point",
        "coordinates": [
          134.895065,
          34.417166
        ]
      },
      "properties": {
        "NO": 54779,
        "共通ID": "E2822600007111",
        "都道府県名及び市町村名": "兵庫県淡路市",
        "施設・場所名": "津名漁業協同組合塩田支所",
        "住所": "兵庫県淡路市塩尾615-14",
        "指定緊急避難場所との住所同一": "1",
        "その他市町村長が必要と認める事項": null,
        "受入対象者": null,
        "備考": ""
      }
    },
    {
      "type": "Feature",
      "geometry": {
        "type": "Point",
        "coordinates": [
          134.886889,
          34.408581
        ]
      },
      "properties": {
        "NO": 54780,
        "共通ID": "E2822600008111",
        "都道府県名及び市町村名": "兵庫県淡路市",
        "施設・場所名": "淡路市立塩田会館",
        "住所": "兵庫県淡路市下司1177-1",
        "指定緊急避難場所との住所同一": "1",
        "その他市町村長が必要と認める事項": null,
        "受入対象者": null,
        "備考": ""
      }
    },
    {
      "type": "Feature",
      "geometry": {
        "type": "Point",
        "coordinates": [
          134.97077,
          34.497679
        ]
      },
      "properties": {
        "NO": 54781,
        "共通ID": "E2822600009111",
        "都道府県名及び市町村名": "兵庫県淡路市",
        "施設・場所名": "淡路市釜口老人福祉センター",
        "住所": "兵庫県淡路市釜口1288-1",
        "指定緊急避難場所との住所同一": "1",
        "その他市町村長が必要と認める事項": null,
        "受入対象者": null,
        "備考": ""
      }
    },
    {
      "type": "Feature",
      "geometry": {
        "type": "Point",
        "coordinates": [
          134.971605,
          34.498121
        ]
      },
      "properties": {
        "NO": 54782,
        "共通ID": "E2822600010111",
        "都道府県名及び市町村名": "兵庫県淡路市",
        "施設・場所名": "東浦体育センター",
        "住所": "兵庫県淡路市釜口1326",
        "指定緊急避難場所との住所同一": "1",
        "その他市町村長が必要と認める事項": "",
        "受入対象者": "",
        "備考": ""
      }
    },
    {
      "type": "Feature",
      "geometry": {
        "type": "Point",
        "coordinates": [
          135.014344,
          34.593404
        ]
      },
      "properties": {
        "NO": 54783,
        "共通ID": "E2822600011111",
        "都道府県名及び市町村名": "兵庫県淡路市",
        "施設・場所名": "淡路市岩屋保健センター",
        "住所": "兵庫県淡路市岩屋1514-18",
        "指定緊急避難場所との住所同一": "1",
        "その他市町村長が必要と認める事項": null,
        "受入対象者": null,
        "備考": ""
      }
    },
    {
      "type": "Feature",
      "geometry": {
        "type": "Point",
        "coordinates": [
          135.023567,
          34.577315
        ]
      },
      "properties": {
        "NO": 54784,
        "共通ID": "E2822600012111",
        "都道府県名及び市町村名": "兵庫県淡路市",
        "施設・場所名": "淡路市立岩屋中学校",
        "住所": "兵庫県淡路市岩屋2875",
        "指定緊急避難場所との住所同一": "1",
        "その他市町村長が必要と認める事項": null,
        "受入対象者": null,
        "備考": ""
      }
    },
    {
      "type": "Feature",
      "geometry": {
        "type": "Point",
        "coordinates": [
          135.017095,
          34.587564
        ]
      },
      "properties": {
        "NO": 54785,
        "共通ID": "E2822600013111",
        "都道府県名及び市町村名": "兵庫県淡路市",
        "施設・場所名": "学童保育石屋",
        "住所": "兵庫県淡路市岩屋488-1",
        "指定緊急避難場所との住所同一": "1",
        "その他市町村長が必要と認める事項": null,
        "受入対象者": null,
        "備考": ""
      }
    },
    {
      "type": "Feature",
      "geometry": {
        "type": "Point",
        "coordinates": [
          135.018648,
          34.587764
        ]
      },
      "properties": {
        "NO": 54786,
        "共通ID": "E2822600014111",
        "都道府県名及び市町村名": "兵庫県淡路市",
        "施設・場所名": "旧淡路市立岩屋公民館",
        "住所": "兵庫県淡路市岩屋515-1",
        "指定緊急避難場所との住所同一": "1",
        "その他市町村長が必要と認める事項": null,
        "受入対象者": null,
        "備考": ""
      }
    },
    {
      "type": "Feature",
      "geometry": {
        "type": "Point",
        "coordinates": [
          135.017984,
          34.587369
        ]
      },
      "properties": {
        "NO": 54787,
        "共通ID": "E2822600015111",
        "都道府県名及び市町村名": "兵庫県淡路市",
        "施設・場所名": "淡路市立石屋小学校",
        "住所": "兵庫県淡路市岩屋529-1",
        "指定緊急避難場所との住所同一": "1",
        "その他市町村長が必要と認める事項": null,
        "受入対象者": null,
        "備考": ""
      }
    },
    {
      "type": "Feature",
      "geometry": {
        "type": "Point",
        "coordinates": [
          134.986154,
          34.516933
        ]
      },
      "properties": {
        "NO": 54788,
        "共通ID": "E2822600016111",
        "都道府県名及び市町村名": "兵庫県淡路市",
        "施設・場所名": "淡路市立学習小学校",
        "住所": "兵庫県淡路市久留麻1724-1",
        "指定緊急避難場所との住所同一": "1",
        "その他市町村長が必要と認める事項": null,
        "受入対象者": null,
        "備考": ""
      }
    },
    {
      "type": "Feature",
      "geometry": {
        "type": "Point",
        "coordinates": [
          134.98615,
          34.517644
        ]
      },
      "properties": {
        "NO": 54789,
        "共通ID": "E2822600017111",
        "都道府県名及び市町村名": "兵庫県淡路市",
        "施設・場所名": "淡路市子育て支援センター",
        "住所": "兵庫県淡路市久留麻1741-1",
        "指定緊急避難場所との住所同一": "1",
        "その他市町村長が必要と認める事項": null,
        "受入対象者": null,
        "備考": ""
      }
    },
    {
      "type": "Feature",
      "geometry": {
        "type": "Point",
        "coordinates": [
          134.987603,
          34.524231
        ]
      },
      "properties": {
        "NO": 54790,
        "共通ID": "E2822600018111",
        "都道府県名及び市町村名": "兵庫県淡路市",
        "施設・場所名": "淡路市久留麻老人福祉センター",
        "住所": "兵庫県淡路市久留麻1894-1",
        "指定緊急避難場所との住所同一": "1",
        "その他市町村長が必要と認める事項": null,
        "受入対象者": null,
        "備考": ""
      }
    },
    {
      "type": "Feature",
      "geometry": {
        "type": "Point",
        "coordinates": [
          134.990287,
          34.532763
        ]
      },
      "properties": {
        "NO": 54791,
        "共通ID": "E2822600019111",
        "都道府県名及び市町村名": "兵庫県淡路市",
        "施設・場所名": "淡路市東浦保健センター「東浦すこやかセンター」",
        "住所": "兵庫県淡路市久留麻244-3",
        "指定緊急避難場所との住所同一": "1",
        "その他市町村長が必要と認める事項": null,
        "受入対象者": null,
        "備考": ""
      }
    },
    {
      "type": "Feature",
      "geometry": {
        "type": "Point",
        "coordinates": [
          134.986015,
          34.520571
        ]
      },
      "properties": {
        "NO": 54792,
        "共通ID": "E2822600020111",
        "都道府県名及び市町村名": "兵庫県淡路市",
        "施設・場所名": "淡路市立東浦中学校",
        "住所": "兵庫県淡路市久留麻2600-1",
        "指定緊急避難場所との住所同一": "1",
        "その他市町村長が必要と認める事項": null,
        "受入対象者": null,
        "備考": ""
      }
    },
    {
      "type": "Feature",
      "geometry": {
        "type": "Point",
        "coordinates": [
          134.846905,
          34.471638
        ]
      },
      "properties": {
        "NO": 54793,
        "共通ID": "E2822600021111",
        "都道府県名及び市町村名": "兵庫県淡路市",
        "施設・場所名": "淡路市立郡家会館",
        "住所": "兵庫県淡路市郡家117-1",
        "指定緊急避難場所との住所同一": "1",
        "その他市町村長が必要と認める事項": "",
        "受入対象者": "",
        "備考": ""
      }
    },
    {
      "type": "Feature",
      "geometry": {
        "type": "Point",
        "coordinates": [
          134.846937,
          34.473622
        ]
      },
      "properties": {
        "NO": 54794,
        "共通ID": "E2822600022111",
        "都道府県名及び市町村名": "兵庫県淡路市",
        "施設・場所名": "淡路市立一宮公民館",
        "住所": "兵庫県淡路市郡家396-1",
        "指定緊急避難場所との住所同一": "1",
        "その他市町村長が必要と認める事項": null,
        "受入対象者": null,
        "備考": ""
      }
    },
    {
      "type": "Feature",
      "geometry": {
        "type": "Point",
        "coordinates": [
          134.846901,
          34.475619
        ]
      },
      "properties": {
        "NO": 54795,
        "共通ID": "E2822600023111",
        "都道府県名及び市町村名": "兵庫県淡路市",
        "施設・場所名": "淡路市一宮老人福祉センター",
        "住所": "兵庫県淡路市郡家686",
        "指定緊急避難場所との住所同一": "",
        "その他市町村長が必要と認める事項": "",
        "受入対象者": "",
        "備考": ""
      }
    },
    {
      "type": "Feature",
      "geometry": {
        "type": "Point",
        "coordinates": [
          134.827386,
          34.464872
        ]
      },
      "properties": {
        "NO": 54796,
        "共通ID": "E2822600024111",
        "都道府県名及び市町村名": "兵庫県淡路市",
        "施設・場所名": "淡路市江井コミュニティセンター",
        "住所": "兵庫県淡路市江井2863-1",
        "指定緊急避難場所との住所同一": "1",
        "その他市町村長が必要と認める事項": null,
        "受入対象者": null,
        "備考": ""
      }
    },
    {
      "type": "Feature",
      "geometry": {
        "type": "Point",
        "coordinates": [
          134.824169,
          34.466213
        ]
      },
      "properties": {
        "NO": 54797,
        "共通ID": "E2822600025111",
        "都道府県名及び市町村名": "兵庫県淡路市",
        "施設・場所名": "江井体育センター",
        "住所": "兵庫県淡路市江井2920",
        "指定緊急避難場所との住所同一": "1",
        "その他市町村長が必要と認める事項": "",
        "受入対象者": "",
        "備考": ""
      }
    },
    {
      "type": "Feature",
      "geometry": {
        "type": "Point",
        "coordinates": [
          134.820931,
          34.437872
        ]
      },
      "properties": {
        "NO": 54798,
        "共通ID": "E2822600026111",
        "都道府県名及び市町村名": "兵庫県淡路市",
        "施設・場所名": "淡路市一宮高山農業研修所",
        "住所": "兵庫県淡路市高山乙195-3",
        "指定緊急避難場所との住所同一": "1",
        "その他市町村長が必要と認める事項": null,
        "受入対象者": null,
        "備考": ""
      }
    },
    {
      "type": "Feature",
      "geometry": {
        "type": "Point",
        "coordinates": [
          134.811532,
          34.434606
        ]
      },
      "properties": {
        "NO": 54799,
        "共通ID": "E2822600027111",
        "都道府県名及び市町村名": "兵庫県淡路市",
        "施設・場所名": "山田体育センター",
        "住所": "兵庫県淡路市高山甲357",
        "指定緊急避難場所との住所同一": "1",
        "その他市町村長が必要と認める事項": "",
        "受入対象者": "",
        "備考": ""
      }
    },
    {
      "type": "Feature",
      "geometry": {
        "type": "Point",
        "coordinates": [
          134.939374,
          34.466036
        ]
      },
      "properties": {
        "NO": 54800,
        "共通ID": "E2822600118111",
        "都道府県名及び市町村名": "兵庫県淡路市",
        "施設・場所名": "さの小テラス",
        "住所": "兵庫県淡路市佐野844-7",
        "指定緊急避難場所との住所同一": "1",
        "その他市町村長が必要と認める事項": "",
        "受入対象者": "",
        "備考": ""
      }
    },
    {
      "type": "Feature",
      "geometry": {
        "type": "Point",
        "coordinates": [
          134.939374,
          34.46605
        ]
      },
      "properties": {
        "NO": 54801,
        "共通ID": "E2822600029112",
        "都道府県名及び市町村名": "兵庫県淡路市",
        "施設・場所名": "株式会社　さの小",
        "住所": "兵庫県淡路市佐野900",
        "指定緊急避難場所との住所同一": "1",
        "その他市町村長が必要と認める事項": "",
        "受入対象者": "",
        "備考": ""
      }
    },
    {
      "type": "Feature",
      "geometry": {
        "type": "Point",
        "coordinates": [
          134.901589,
          34.435413
        ]
      },
      "properties": {
        "NO": 54802,
        "共通ID": "E2822600030111",
        "都道府県名及び市町村名": "兵庫県淡路市",
        "施設・場所名": "淡路市立志筑小学校",
        "住所": "兵庫県淡路市志筑1578",
        "指定緊急避難場所との住所同一": "1",
        "その他市町村長が必要と認める事項": null,
        "受入対象者": null,
        "備考": ""
      }
    },
    {
      "type": "Feature",
      "geometry": {
        "type": "Point",
        "coordinates": [
          134.898937,
          34.437359
        ]
      },
      "properties": {
        "NO": 54803,
        "共通ID": "E2822600117111",
        "都道府県名及び市町村名": "兵庫県淡路市",
        "施設・場所名": "志筑公民館",
        "住所": "兵庫県淡路市志筑1605-1",
        "指定緊急避難場所との住所同一": "1",
        "その他市町村長が必要と認める事項": "",
        "受入対象者": "",
        "備考": ""
      }
    },
    {
      "type": "Feature",
      "geometry": {
        "type": "Point",
        "coordinates": [
          134.906826,
          34.439256
        ]
      },
      "properties": {
        "NO": 54804,
        "共通ID": "E2822600031111",
        "都道府県名及び市町村名": "兵庫県淡路市",
        "施設・場所名": "兵庫県立津名高等学校",
        "住所": "兵庫県淡路市志筑249-1",
        "指定緊急避難場所との住所同一": "1",
        "その他市町村長が必要と認める事項": null,
        "受入対象者": null,
        "備考": ""
      }
    },
    {
      "type": "Feature",
      "geometry": {
        "type": "Point",
        "coordinates": [
          134.899995,
          34.428415
        ]
      },
      "properties": {
        "NO": 54805,
        "共通ID": "E2822600033111",
        "都道府県名及び市町村名": "兵庫県淡路市",
        "施設・場所名": "明神会館",
        "住所": "兵庫県淡路市志筑3057-1",
        "指定緊急避難場所との住所同一": "1",
        "その他市町村長が必要と認める事項": null,
        "受入対象者": null,
        "備考": ""
      }
    },
    {
      "type": "Feature",
      "geometry": {
        "type": "Point",
        "coordinates": [
          134.901117,
          34.430791
        ]
      },
      "properties": {
        "NO": 54806,
        "共通ID": "E2822600034111",
        "都道府県名及び市町村名": "兵庫県淡路市",
        "施設・場所名": "淡路市立津名公民館",
        "住所": "兵庫県淡路市志筑3117-1",
        "指定緊急避難場所との住所同一": "1",
        "その他市町村長が必要と認める事項": null,
        "受入対象者": null,
        "備考": ""
      }
    },
    {
      "type": "Feature",
      "geometry": {
        "type": "Point",
        "coordinates": [
          134.900409,
          34.425614
        ]
      },
      "properties": {
        "NO": 54807,
        "共通ID": "E2822600035111",
        "都道府県名及び市町村名": "兵庫県淡路市",
        "施設・場所名": "関西総合リハビリテーション専門学校",
        "住所": "兵庫県淡路市志筑新島7-4",
        "指定緊急避難場所との住所同一": "1",
        "その他市町村長が必要と認める事項": null,
        "受入対象者": null,
        "備考": ""
      }
    },
    {
      "type": "Feature",
      "geometry": {
        "type": "Point",
        "coordinates": [
          134.881722,
          34.519685
        ]
      },
      "properties": {
        "NO": 54808,
        "共通ID": "E2822600036111",
        "都道府県名及び市町村名": "兵庫県淡路市",
        "施設・場所名": "室津ふれあいセンター",
        "住所": "兵庫県淡路市室津128",
        "指定緊急避難場所との住所同一": "1",
        "その他市町村長が必要と認める事項": null,
        "受入対象者": null,
        "備考": ""
      }
    },
    {
      "type": "Feature",
      "geometry": {
        "type": "Point",
        "coordinates": [
          134.876232,
          34.518131
        ]
      },
      "properties": {
        "NO": 54809,
        "共通ID": "E2822600037111",
        "都道府県名及び市町村名": "兵庫県淡路市",
        "施設・場所名": "室津西消防器具庫２階",
        "住所": "兵庫県淡路市室津2340",
        "指定緊急避難場所との住所同一": "1",
        "その他市町村長が必要と認める事項": null,
        "受入対象者": null,
        "備考": ""
      }
    },
    {
      "type": "Feature",
      "geometry": {
        "type": "Point",
        "coordinates": [
          134.938853,
          34.549868
        ]
      },
      "properties": {
        "NO": 54810,
        "共通ID": "E2822600038111",
        "都道府県名及び市町村名": "兵庫県淡路市",
        "施設・場所名": "北淡震災公園セミナーハウス",
        "住所": "兵庫県淡路市小倉177",
        "指定緊急避難場所との住所同一": "1",
        "その他市町村長が必要と認める事項": null,
        "受入対象者": null,
        "備考": ""
      }
    },
    {
      "type": "Feature",
      "geometry": {
        "type": "Point",
        "coordinates": [
          134.946546,
          34.530597
        ]
      },
      "properties": {
        "NO": 54811,
        "共通ID": "E2822600039111",
        "都道府県名及び市町村名": "兵庫県淡路市",
        "施設・場所名": "仁井公民館",
        "住所": "兵庫県淡路市仁井58",
        "指定緊急避難場所との住所同一": "1",
        "その他市町村長が必要と認める事項": null,
        "受入対象者": null,
        "備考": ""
      }
    },
    {
      "type": "Feature",
      "geometry": {
        "type": "Point",
        "coordinates": [
          134.900055,
          34.49987
        ]
      },
      "properties": {
        "NO": 54812,
        "共通ID": "E2822600040111",
        "都道府県名及び市町村名": "兵庫県淡路市",
        "施設・場所名": "生田集会所",
        "住所": "兵庫県淡路市生田畑55",
        "指定緊急避難場所との住所同一": "1",
        "その他市町村長が必要と認める事項": null,
        "受入対象者": null,
        "備考": ""
      }
    },
    {
      "type": "Feature",
      "geometry": {
        "type": "Point",
        "coordinates": [
          134.917688,
          34.45328
        ]
      },
      "properties": {
        "NO": 54813,
        "共通ID": "E2822600041111",
        "都道府県名及び市町村名": "兵庫県淡路市",
        "施設・場所名": "淡路市立生穂会館",
        "住所": "兵庫県淡路市生穂2243-2",
        "指定緊急避難場所との住所同一": "1",
        "その他市町村長が必要と認める事項": null,
        "受入対象者": null,
        "備考": ""
      }
    },
    {
      "type": "Feature",
      "geometry": {
        "type": "Point",
        "coordinates": [
          134.915783,
          34.453926
        ]
      },
      "properties": {
        "NO": 54814,
        "共通ID": "E2822600042111",
        "都道府県名及び市町村名": "兵庫県淡路市",
        "施設・場所名": "淡路市立津名東小学校",
        "住所": "兵庫県淡路市生穂2346-2",
        "指定緊急避難場所との住所同一": "1",
        "その他市町村長が必要と認める事項": null,
        "受入対象者": null,
        "備考": ""
      }
    },
    {
      "type": "Feature",
      "geometry": {
        "type": "Point",
        "coordinates": [
          134.913352,
          34.532233
        ]
      },
      "properties": {
        "NO": 54815,
        "共通ID": "E2822600076111",
        "都道府県名及び市町村名": "兵庫県淡路市",
        "施設・場所名": "北淡総合福祉センター",
        "住所": "兵庫県淡路市浅野2-40",
        "指定緊急避難場所との住所同一": "",
        "その他市町村長が必要と認める事項": "",
        "受入対象者": "",
        "備考": ""
      }
    },
    {
      "type": "Feature",
      "geometry": {
        "type": "Point",
        "coordinates": [
          134.917311,
          34.535728
        ]
      },
      "properties": {
        "NO": 54816,
        "共通ID": "E2822600043111",
        "都道府県名及び市町村名": "兵庫県淡路市",
        "施設・場所名": "淡路市立北淡中学校",
        "住所": "兵庫県淡路市浅野神田114-1",
        "指定緊急避難場所との住所同一": "1",
        "その他市町村長が必要と認める事項": null,
        "受入対象者": null,
        "備考": ""
      }
    },
    {
      "type": "Feature",
      "geometry": {
        "type": "Point",
        "coordinates": [
          134.914465,
          34.533319
        ]
      },
      "properties": {
        "NO": 54817,
        "共通ID": "E2822600044111",
        "都道府県名及び市町村名": "兵庫県淡路市",
        "施設・場所名": "淡路市立北淡小学校",
        "住所": "兵庫県淡路市浅野神田78",
        "指定緊急避難場所との住所同一": "1",
        "その他市町村長が必要と認める事項": null,
        "受入対象者": null,
        "備考": ""
      }
    },
    {
      "type": "Feature",
      "geometry": {
        "type": "Point",
        "coordinates": [
          134.913394,
          34.532324
        ]
      },
      "properties": {
        "NO": 54818,
        "共通ID": "E2822600045111",
        "都道府県名及び市町村名": "兵庫県淡路市",
        "施設・場所名": "淡路市北淡総合福祉センター",
        "住所": "兵庫県淡路市浅野南2-40",
        "指定緊急避難場所との住所同一": "1",
        "その他市町村長が必要と認める事項": null,
        "受入対象者": null,
        "備考": ""
      }
    },
    {
      "type": "Feature",
      "geometry": {
        "type": "Point",
        "coordinates": [
          134.801712,
          34.442006
        ]
      },
      "properties": {
        "NO": 54819,
        "共通ID": "E2822600046111",
        "都道府県名及び市町村名": "兵庫県淡路市",
        "施設・場所名": "淡路市立草香会館",
        "住所": "兵庫県淡路市草香690-5",
        "指定緊急避難場所との住所同一": "1",
        "その他市町村長が必要と認める事項": null,
        "受入対象者": null,
        "備考": ""
      }
    },
    {
      "type": "Feature",
      "geometry": {
        "type": "Point",
        "coordinates": [
          134.853889,
          34.45877
        ]
      },
      "properties": {
        "NO": 54820,
        "共通ID": "E2822600047111",
        "都道府県名及び市町村名": "兵庫県淡路市",
        "施設・場所名": "淡路市立多賀小学校",
        "住所": "兵庫県淡路市多賀104",
        "指定緊急避難場所との住所同一": "1",
        "その他市町村長が必要と認める事項": null,
        "受入対象者": null,
        "備考": ""
      }
    },
    {
      "type": "Feature",
      "geometry": {
        "type": "Point",
        "coordinates": [
          134.853084,
          34.457676
        ]
      },
      "properties": {
        "NO": 54821,
        "共通ID": "E2822600048111",
        "都道府県名及び市町村名": "兵庫県淡路市",
        "施設・場所名": "淡路市立多賀集会所",
        "住所": "兵庫県淡路市多賀127-1",
        "指定緊急避難場所との住所同一": "1",
        "その他市町村長が必要と認める事項": null,
        "受入対象者": null,
        "備考": ""
      }
    },
    {
      "type": "Feature",
      "geometry": {
        "type": "Point",
        "coordinates": [
          134.853107,
          34.456856
        ]
      },
      "properties": {
        "NO": 54822,
        "共通ID": "E2822600049111",
        "都道府県名及び市町村名": "兵庫県淡路市",
        "施設・場所名": "淡路市立一宮中学校",
        "住所": "兵庫県淡路市多賀145",
        "指定緊急避難場所との住所同一": "",
        "その他市町村長が必要と認める事項": "",
        "受入対象者": "",
        "備考": ""
      }
    },
    {
      "type": "Feature",
      "geometry": {
        "type": "Point",
        "coordinates": [
          134.851535,
          34.456928
        ]
      },
      "properties": {
        "NO": 54823,
        "共通ID": "E2822600050111",
        "都道府県名及び市町村名": "兵庫県淡路市",
        "施設・場所名": "淡路市地域総合センター",
        "住所": "兵庫県淡路市多賀197",
        "指定緊急避難場所との住所同一": "1",
        "その他市町村長が必要と認める事項": null,
        "受入対象者": null,
        "備考": ""
      }
    },
    {
      "type": "Feature",
      "geometry": {
        "type": "Point",
        "coordinates": [
          134.851105,
          34.455631
        ]
      },
      "properties": {
        "NO": 54824,
        "共通ID": "E2822600116111",
        "都道府県名及び市町村名": "兵庫県淡路市",
        "施設・場所名": "一宮体育センター",
        "住所": "兵庫県淡路市多賀227",
        "指定緊急避難場所との住所同一": "1",
        "その他市町村長が必要と認める事項": null,
        "受入対象者": null,
        "備考": ""
      }
    },
    {
      "type": "Feature",
      "geometry": {
        "type": "Point",
        "coordinates": [
          134.908163,
          34.439773
        ]
      },
      "properties": {
        "NO": 54825,
        "共通ID": "E2822600052111",
        "都道府県名及び市町村名": "兵庫県淡路市",
        "施設・場所名": "淡路市立津名中学校",
        "住所": "兵庫県淡路市大谷1003",
        "指定緊急避難場所との住所同一": "1",
        "その他市町村長が必要と認める事項": null,
        "受入対象者": null,
        "備考": ""
      }
    },
    {
      "type": "Feature",
      "geometry": {
        "type": "Point",
        "coordinates": [
          134.914935,
          34.447912
        ]
      },
      "properties": {
        "NO": 54826,
        "共通ID": "E2822600053111",
        "都道府県名及び市町村名": "兵庫県淡路市",
        "施設・場所名": "津名体育センター",
        "住所": "兵庫県淡路市大谷176-1",
        "指定緊急避難場所との住所同一": "1",
        "その他市町村長が必要と認める事項": null,
        "受入対象者": null,
        "備考": ""
      }
    },
    {
      "type": "Feature",
      "geometry": {
        "type": "Point",
        "coordinates": [
          134.857445,
          34.426107
        ]
      },
      "properties": {
        "NO": 54827,
        "共通ID": "E2822600054111",
        "都道府県名及び市町村名": "兵庫県淡路市",
        "施設・場所名": "淡路市立大町小学校",
        "住所": "兵庫県淡路市大町上461",
        "指定緊急避難場所との住所同一": "1",
        "その他市町村長が必要と認める事項": null,
        "受入対象者": null,
        "備考": ""
      }
    },
    {
      "type": "Feature",
      "geometry": {
        "type": "Point",
        "coordinates": [
          134.856791,
          34.425496
        ]
      },
      "properties": {
        "NO": 54828,
        "共通ID": "E2822600055111",
        "都道府県名及び市町村名": "兵庫県淡路市",
        "施設・場所名": "淡路市立大町会館",
        "住所": "兵庫県淡路市大町上485-1",
        "指定緊急避難場所との住所同一": "1",
        "その他市町村長が必要と認める事項": null,
        "受入対象者": null,
        "備考": ""
      }
    },
    {
      "type": "Feature",
      "geometry": {
        "type": "Point",
        "coordinates": [
          134.882304,
          34.437301
        ]
      },
      "properties": {
        "NO": 54829,
        "共通ID": "E2822600056111",
        "都道府県名及び市町村名": "兵庫県淡路市",
        "施設・場所名": "淡路市立中田小学校",
        "住所": "兵庫県淡路市中田4390",
        "指定緊急避難場所との住所同一": "1",
        "その他市町村長が必要と認める事項": null,
        "受入対象者": null,
        "備考": ""
      }
    },
    {
      "type": "Feature",
      "geometry": {
        "type": "Point",
        "coordinates": [
          134.88295,
          34.436785
        ]
      },
      "properties": {
        "NO": 54830,
        "共通ID": "E2822600057111",
        "都道府県名及び市町村名": "兵庫県淡路市",
        "施設・場所名": "淡路市立中田会館",
        "住所": "兵庫県淡路市中田558-1",
        "指定緊急避難場所との住所同一": "1",
        "その他市町村長が必要と認める事項": null,
        "受入対象者": null,
        "備考": ""
      }
    },
    {
      "type": "Feature",
      "geometry": {
        "type": "Point",
        "coordinates": [
          134.903689,
          34.485203
        ]
      },
      "properties": {
        "NO": 54831,
        "共通ID": "E2822600058111",
        "都道府県名及び市町村名": "兵庫県淡路市",
        "施設・場所名": "長沢会館",
        "住所": "兵庫県淡路市長沢628-1",
        "指定緊急避難場所との住所同一": "1",
        "その他市町村長が必要と認める事項": null,
        "受入対象者": null,
        "備考": ""
      }
    },
    {
      "type": "Feature",
      "geometry": {
        "type": "Point",
        "coordinates": [
          134.860484,
          34.496062
        ]
      },
      "properties": {
        "NO": 54832,
        "共通ID": "E2822600060111",
        "都道府県名及び市町村名": "兵庫県淡路市",
        "施設・場所名": "淡路市立尾崎会館",
        "住所": "兵庫県淡路市尾崎1624-2",
        "指定緊急避難場所との住所同一": "1",
        "その他市町村長が必要と認める事項": null,
        "受入対象者": null,
        "備考": ""
      }
    },
    {
      "type": "Feature",
      "geometry": {
        "type": "Point",
        "coordinates": [
          134.86111,
          34.493933
        ]
      },
      "properties": {
        "NO": 54833,
        "共通ID": "E2822600061111",
        "都道府県名及び市町村名": "兵庫県淡路市",
        "施設・場所名": "尾崎体育センター",
        "住所": "兵庫県淡路市尾崎1800",
        "指定緊急避難場所との住所同一": "1",
        "その他市町村長が必要と認める事項": null,
        "受入対象者": null,
        "備考": ""
      }
    },
    {
      "type": "Feature",
      "geometry": {
        "type": "Point",
        "coordinates": [
          134.924575,
          34.545817
        ]
      },
      "properties": {
        "NO": 54834,
        "共通ID": "E2822600062111",
        "都道府県名及び市町村名": "兵庫県淡路市",
        "施設・場所名": "富島体育センター",
        "住所": "兵庫県淡路市富島100",
        "指定緊急避難場所との住所同一": "1",
        "その他市町村長が必要と認める事項": "",
        "受入対象者": "",
        "備考": ""
      }
    },
    {
      "type": "Feature",
      "geometry": {
        "type": "Point",
        "coordinates": [
          134.923587,
          34.54464
        ]
      },
      "properties": {
        "NO": 54835,
        "共通ID": "E2822600063111",
        "都道府県名及び市町村名": "兵庫県淡路市",
        "施設・場所名": "兵庫県立淡路高等学校",
        "住所": "兵庫県淡路市富島171-2",
        "指定緊急避難場所との住所同一": "1",
        "その他市町村長が必要と認める事項": "",
        "受入対象者": "",
        "備考": ""
      }
    },
    {
      "type": "Feature",
      "geometry": {
        "type": "Point",
        "coordinates": [
          134.9251,
          34.54731
        ]
      },
      "properties": {
        "NO": 54836,
        "共通ID": "E2822600064111",
        "都道府県名及び市町村名": "兵庫県淡路市",
        "施設・場所名": "北淡事務所・北淡公民館",
        "住所": "兵庫県淡路市富島25-41",
        "指定緊急避難場所との住所同一": "1",
        "その他市町村長が必要と認める事項": null,
        "受入対象者": null,
        "備考": ""
      }
    },
    {
      "type": "Feature",
      "geometry": {
        "type": "Point",
        "coordinates": [
          134.850695,
          34.47063
        ]
      },
      "properties": {
        "NO": 54837,
        "共通ID": "E2822600065111",
        "都道府県名及び市町村名": "兵庫県淡路市",
        "施設・場所名": "淡路市立一宮小学校",
        "住所": "兵庫県淡路市北山1600",
        "指定緊急避難場所との住所同一": "1",
        "その他市町村長が必要と認める事項": null,
        "受入対象者": null,
        "備考": ""
      }
    },
    {
      "type": "Feature",
      "geometry": {
        "type": "Point",
        "coordinates": [
          134.852649,
          34.46843
        ]
      },
      "properties": {
        "NO": 54838,
        "共通ID": "E2822600066111",
        "都道府県名及び市町村名": "兵庫県淡路市",
        "施設・場所名": "淡路市高齢者生活福祉センター",
        "住所": "兵庫県淡路市北山712",
        "指定緊急避難場所との住所同一": "1",
        "その他市町村長が必要と認める事項": null,
        "受入対象者": null,
        "備考": ""
      }
    },
    {
      "type": "Feature",
      "geometry": {
        "type": "Point",
        "coordinates": [
          134.960666,
          34.553074
        ]
      },
      "properties": {
        "NO": 54839,
        "共通ID": "E2822600067111",
        "都道府県名及び市町村名": "兵庫県淡路市",
        "施設・場所名": "常盤集会所",
        "住所": "兵庫県淡路市野島常盤414-3",
        "指定緊急避難場所との住所同一": "1",
        "その他市町村長が必要と認める事項": null,
        "受入対象者": null,
        "備考": ""
      }
    },
    {
      "type": "Feature",
      "geometry": {
        "type": "Point",
        "coordinates": [
          134.949861,
          34.56131
        ]
      },
      "properties": {
        "NO": 54840,
        "共通ID": "E2822600071112",
        "都道府県名及び市町村名": "兵庫県淡路市",
        "施設・場所名": "野島体育センター",
        "住所": "兵庫県淡路市野島蟇浦843",
        "指定緊急避難場所との住所同一": "1",
        "その他市町村長が必要と認める事項": "",
        "受入対象者": "",
        "備考": ""
      }
    },
    {
      "type": "Feature",
      "geometry": {
        "type": "Point",
        "coordinates": [
          134.837636,
          34.450778
        ]
      },
      "properties": {
        "NO": 54841,
        "共通ID": "E2822600069111",
        "都道府県名及び市町村名": "兵庫県淡路市",
        "施設・場所名": "淡路市柳沢老人福祉センター",
        "住所": "兵庫県淡路市柳沢甲16-4",
        "指定緊急避難場所との住所同一": "1",
        "その他市町村長が必要と認める事項": null,
        "受入対象者": null,
        "備考": ""
      }
    },
    {
      "type": "Feature",
      "geometry": {
        "type": "Point",
        "coordinates": [
          134.898953,
          34.338904
        ]
      },
      "properties": {
        "NO": 54842,
        "共通ID": "E2822600070111",
        "都道府県名及び市町村名": "兵庫県淡路市",
        "施設・場所名": "淡路市立青少年センター",
        "住所": "兵庫県淡路市柳沢甲17-3",
        "指定緊急避難場所との住所同一": "1",
        "その他市町村長が必要と認める事項": null,
        "受入対象者": null,
        "備考": ""
      }
    }
  ]
}