{
  "type": "FeatureCollection",
  "name": "282278",
  "features": [
    {
      "type": "Feature",
      "geometry": {
        "type": "Point",
        "coordinates": [
          134.578331,
          35.110621
        ]
      },
      "properties": {
        "NO": 54843,
        "共通ID": "E2822700001111",
        "都道府県名及び市町村名": "兵庫県宍粟市",
        "施設・場所名": "県立伊和高等学校",
        "住所": "兵庫県宍粟市一宮町安積616-2",
        "指定緊急避難場所との住所同一": "1",
        "その他市町村長が必要と認める事項": "",
        "受入対象者": "",
        "備考": ""
      }
    },
    {
      "type": "Feature",
      "geometry": {
        "type": "Point",
        "coordinates": [
          134.62316,
          35.183097
        ]
      },
      "properties": {
        "NO": 54844,
        "共通ID": "E2822700003111",
        "都道府県名及び市町村名": "兵庫県宍粟市",
        "施設・場所名": "一宮北中学校",
        "住所": "兵庫県宍粟市一宮町三方町274",
        "指定緊急避難場所との住所同一": "1",
        "その他市町村長が必要と認める事項": "",
        "受入対象者": "",
        "備考": ""
      }
    },
    {
      "type": "Feature",
      "geometry": {
        "type": "Point",
        "coordinates": [
          134.650312,
          35.200816
        ]
      },
      "properties": {
        "NO": 54845,
        "共通ID": "E2822700005111",
        "都道府県名及び市町村名": "兵庫県宍粟市",
        "施設・場所名": "ゲストハウス繁盛校",
        "住所": "兵庫県宍粟市一宮町上岸田576",
        "指定緊急避難場所との住所同一": "1",
        "その他市町村長が必要と認める事項": "",
        "受入対象者": "",
        "備考": ""
      }
    },
    {
      "type": "Feature",
      "geometry": {
        "type": "Point",
        "coordinates": [
          134.611062,
          35.150125
        ]
      },
      "properties": {
        "NO": 54846,
        "共通ID": "E2822700007111",
        "都道府県名及び市町村名": "兵庫県宍粟市",
        "施設・場所名": "旧下三方小学校",
        "住所": "兵庫県宍粟市一宮町生栖851-1",
        "指定緊急避難場所との住所同一": "1",
        "その他市町村長が必要と認める事項": "",
        "受入対象者": "",
        "備考": ""
      }
    },
    {
      "type": "Feature",
      "geometry": {
        "type": "Point",
        "coordinates": [
          134.590616,
          35.091554
        ]
      },
      "properties": {
        "NO": 54847,
        "共通ID": "E2822700008111",
        "都道府県名及び市町村名": "兵庫県宍粟市",
        "施設・場所名": "スポニックパーク一宮",
        "住所": "兵庫県宍粟市一宮町東市場1090-3",
        "指定緊急避難場所との住所同一": "1",
        "その他市町村長が必要と認める事項": "",
        "受入対象者": "",
        "備考": ""
      }
    },
    {
      "type": "Feature",
      "geometry": {
        "type": "Point",
        "coordinates": [
          134.586385,
          35.095679
        ]
      },
      "properties": {
        "NO": 54848,
        "共通ID": "E2822700009111",
        "都道府県名及び市町村名": "兵庫県宍粟市",
        "施設・場所名": "はりま一宮小学校",
        "住所": "兵庫県宍粟市一宮町東市場788",
        "指定緊急避難場所との住所同一": "1",
        "その他市町村長が必要と認める事項": "",
        "受入対象者": "",
        "備考": ""
      }
    },
    {
      "type": "Feature",
      "geometry": {
        "type": "Point",
        "coordinates": [
          134.587767,
          35.096211
        ]
      },
      "properties": {
        "NO": 54849,
        "共通ID": "E2822700010111",
        "都道府県名及び市町村名": "兵庫県宍粟市",
        "施設・場所名": "一宮南中学校",
        "住所": "兵庫県宍粟市一宮町東市場834",
        "指定緊急避難場所との住所同一": "1",
        "その他市町村長が必要と認める事項": "",
        "受入対象者": "",
        "備考": ""
      }
    },
    {
      "type": "Feature",
      "geometry": {
        "type": "Point",
        "coordinates": [
          134.613342,
          35.117519
        ]
      },
      "properties": {
        "NO": 54850,
        "共通ID": "E2822700011111",
        "都道府県名及び市町村名": "兵庫県宍粟市",
        "施設・場所名": "県立森林大学校",
        "住所": "兵庫県宍粟市一宮町能倉772",
        "指定緊急避難場所との住所同一": "1",
        "その他市町村長が必要と認める事項": "",
        "受入対象者": "",
        "備考": ""
      }
    },
    {
      "type": "Feature",
      "geometry": {
        "type": "Point",
        "coordinates": [
          134.551119,
          34.968802
        ]
      },
      "properties": {
        "NO": 54851,
        "共通ID": "E2822700012111",
        "都道府県名及び市町村名": "兵庫県宍粟市",
        "施設・場所名": "旧戸原小学校",
        "住所": "兵庫県宍粟市山崎町宇原337",
        "指定緊急避難場所との住所同一": "1",
        "その他市町村長が必要と認める事項": "",
        "受入対象者": "",
        "備考": ""
      }
    },
    {
      "type": "Feature",
      "geometry": {
        "type": "Point",
        "coordinates": [
          134.5225,
          35.033351
        ]
      },
      "properties": {
        "NO": 54852,
        "共通ID": "E2822700013111",
        "都道府県名及び市町村名": "兵庫県宍粟市",
        "施設・場所名": "蔦沢小学校",
        "住所": "兵庫県宍粟市山崎町宇野419-1",
        "指定緊急避難場所との住所同一": "1",
        "その他市町村長が必要と認める事項": "",
        "受入対象者": "",
        "備考": ""
      }
    },
    {
      "type": "Feature",
      "geometry": {
        "type": "Point",
        "coordinates": [
          134.443885,
          35.067818
        ]
      },
      "properties": {
        "NO": 54853,
        "共通ID": "E2822700014111",
        "都道府県名及び市町村名": "兵庫県宍粟市",
        "施設・場所名": "相生学院高等学校宍粟校",
        "住所": "兵庫県宍粟市山崎町塩山37-17",
        "指定緊急避難場所との住所同一": "1",
        "その他市町村長が必要と認める事項": "",
        "受入対象者": "",
        "備考": ""
      }
    },
    {
      "type": "Feature",
      "geometry": {
        "type": "Point",
        "coordinates": [
          134.530518,
          35.009853
        ]
      },
      "properties": {
        "NO": 54854,
        "共通ID": "E2822700061111",
        "都道府県名及び市町村名": "兵庫県宍粟市",
        "施設・場所名": "県立山崎高等学校",
        "住所": "兵庫県宍粟市山崎町加生340",
        "指定緊急避難場所との住所同一": "1",
        "その他市町村長が必要と認める事項": "",
        "受入対象者": "",
        "備考": ""
      }
    },
    {
      "type": "Feature",
      "geometry": {
        "type": "Point",
        "coordinates": [
          134.537815,
          34.988036
        ]
      },
      "properties": {
        "NO": 54855,
        "共通ID": "E2822700017111",
        "都道府県名及び市町村名": "兵庫県宍粟市",
        "施設・場所名": "山崎南中学校",
        "住所": "兵庫県宍粟市山崎町金谷40",
        "指定緊急避難場所との住所同一": "1",
        "その他市町村長が必要と認める事項": "",
        "受入対象者": "",
        "備考": ""
      }
    },
    {
      "type": "Feature",
      "geometry": {
        "type": "Point",
        "coordinates": [
          134.539599,
          34.987648
        ]
      },
      "properties": {
        "NO": 54856,
        "共通ID": "E2822700018111",
        "都道府県名及び市町村名": "兵庫県宍粟市",
        "施設・場所名": "山崎南小学校",
        "住所": "兵庫県宍粟市山崎町御名20-2",
        "指定緊急避難場所との住所同一": "1",
        "その他市町村長が必要と認める事項": "",
        "受入対象者": "",
        "備考": ""
      }
    },
    {
      "type": "Feature",
      "geometry": {
        "type": "Point",
        "coordinates": [
          134.547104,
          35.016459
        ]
      },
      "properties": {
        "NO": 54857,
        "共通ID": "E2822700019111",
        "都道府県名及び市町村名": "兵庫県宍粟市",
        "施設・場所名": "山崎東中学校",
        "住所": "兵庫県宍粟市山崎町三津371",
        "指定緊急避難場所との住所同一": "1",
        "その他市町村長が必要と認める事項": "",
        "受入対象者": "",
        "備考": ""
      }
    },
    {
      "type": "Feature",
      "geometry": {
        "type": "Point",
        "coordinates": [
          134.541364,
          35.003951
        ]
      },
      "properties": {
        "NO": 54858,
        "共通ID": "E2822700020121",
        "都道府県名及び市町村名": "兵庫県宍粟市",
        "施設・場所名": "宍粟防災センター",
        "住所": "兵庫県宍粟市山崎町鹿沢65-3",
        "指定緊急避難場所との住所同一": "1",
        "その他市町村長が必要と認める事項": null,
        "受入対象者": "要配慮者",
        "備考": ""
      }
    },
    {
      "type": "Feature",
      "geometry": {
        "type": "Point",
        "coordinates": [
          134.541364,
          35.003951
        ]
      },
      "properties": {
        "NO": 54859,
        "共通ID": "E2822700020111",
        "都道府県名及び市町村名": "兵庫県宍粟市",
        "施設・場所名": "宍粟防災センター",
        "住所": "兵庫県宍粟市山崎町鹿沢65-3",
        "指定緊急避難場所との住所同一": "1",
        "その他市町村長が必要と認める事項": "",
        "受入対象者": "",
        "備考": ""
      }
    },
    {
      "type": "Feature",
      "geometry": {
        "type": "Point",
        "coordinates": [
          134.540622,
          35.00281
        ]
      },
      "properties": {
        "NO": 54860,
        "共通ID": "E2822700021111",
        "都道府県名及び市町村名": "兵庫県宍粟市",
        "施設・場所名": "山崎小学校",
        "住所": "兵庫県宍粟市山崎町鹿沢82",
        "指定緊急避難場所との住所同一": "1",
        "その他市町村長が必要と認める事項": "",
        "受入対象者": "",
        "備考": ""
      }
    },
    {
      "type": "Feature",
      "geometry": {
        "type": "Point",
        "coordinates": [
          134.536172,
          35.003258
        ]
      },
      "properties": {
        "NO": 54861,
        "共通ID": "E2822700022111",
        "都道府県名及び市町村名": "兵庫県宍粟市",
        "施設・場所名": "山崎西中学校",
        "住所": "兵庫県宍粟市山崎町鹿沢88-2",
        "指定緊急避難場所との住所同一": "1",
        "その他市町村長が必要と認める事項": "",
        "受入対象者": "",
        "備考": ""
      }
    },
    {
      "type": "Feature",
      "geometry": {
        "type": "Point",
        "coordinates": [
          134.556684,
          35.023018
        ]
      },
      "properties": {
        "NO": 54862,
        "共通ID": "E2822700023111",
        "都道府県名及び市町村名": "兵庫県宍粟市",
        "施設・場所名": "河東小学校",
        "住所": "兵庫県宍粟市山崎町神谷377",
        "指定緊急避難場所との住所同一": "1",
        "その他市町村長が必要と認める事項": "",
        "受入対象者": "",
        "備考": ""
      }
    },
    {
      "type": "Feature",
      "geometry": {
        "type": "Point",
        "coordinates": [
          134.497724,
          35.02766
        ]
      },
      "properties": {
        "NO": 54863,
        "共通ID": "E2822700024111",
        "都道府県名及び市町村名": "兵庫県宍粟市",
        "施設・場所名": "山崎西小学校",
        "住所": "兵庫県宍粟市山崎町青木106",
        "指定緊急避難場所との住所同一": "1",
        "その他市町村長が必要と認める事項": "",
        "受入対象者": "",
        "備考": ""
      }
    },
    {
      "type": "Feature",
      "geometry": {
        "type": "Point",
        "coordinates": [
          134.497147,
          35.074614
        ]
      },
      "properties": {
        "NO": 54864,
        "共通ID": "E2822700028111",
        "都道府県名及び市町村名": "兵庫県宍粟市",
        "施設・場所名": "旧都多小学校",
        "住所": "兵庫県宍粟市山崎町中野1110",
        "指定緊急避難場所との住所同一": "1",
        "その他市町村長が必要と認める事項": "",
        "受入対象者": "",
        "備考": ""
      }
    },
    {
      "type": "Feature",
      "geometry": {
        "type": "Point",
        "coordinates": [
          134.565161,
          35.046278
        ]
      },
      "properties": {
        "NO": 54865,
        "共通ID": "E2822700030111",
        "都道府県名及び市町村名": "兵庫県宍粟市",
        "施設・場所名": "神野小学校",
        "住所": "兵庫県宍粟市山崎町田井645-9",
        "指定緊急避難場所との住所同一": "1",
        "その他市町村長が必要と認める事項": "",
        "受入対象者": "",
        "備考": ""
      }
    },
    {
      "type": "Feature",
      "geometry": {
        "type": "Point",
        "coordinates": [
          134.512029,
          35.051841
        ]
      },
      "properties": {
        "NO": 54866,
        "共通ID": "E2822700032111",
        "都道府県名及び市町村名": "兵庫県宍粟市",
        "施設・場所名": "生涯学習センター学遊館",
        "住所": "兵庫県宍粟市山崎町東下野18",
        "指定緊急避難場所との住所同一": "1",
        "その他市町村長が必要と認める事項": "",
        "受入対象者": "",
        "備考": ""
      }
    },
    {
      "type": "Feature",
      "geometry": {
        "type": "Point",
        "coordinates": [
          134.449205,
          35.159966
        ]
      },
      "properties": {
        "NO": 54867,
        "共通ID": "E2822700034111",
        "都道府県名及び市町村名": "兵庫県宍粟市",
        "施設・場所名": "千種中学校",
        "住所": "兵庫県宍粟市千種町河呂60-5",
        "指定緊急避難場所との住所同一": "1",
        "その他市町村長が必要と認める事項": "",
        "受入対象者": "",
        "備考": ""
      }
    },
    {
      "type": "Feature",
      "geometry": {
        "type": "Point",
        "coordinates": [
          134.443859,
          35.151476
        ]
      },
      "properties": {
        "NO": 54868,
        "共通ID": "E2822700036111",
        "都道府県名及び市町村名": "兵庫県宍粟市",
        "施設・場所名": "千種小学校",
        "住所": "兵庫県宍粟市千種町千草29",
        "指定緊急避難場所との住所同一": "1",
        "その他市町村長が必要と認める事項": "",
        "受入対象者": "",
        "備考": ""
      }
    },
    {
      "type": "Feature",
      "geometry": {
        "type": "Point",
        "coordinates": [
          134.446144,
          35.157267
        ]
      },
      "properties": {
        "NO": 54869,
        "共通ID": "E2822700037111",
        "都道府県名及び市町村名": "兵庫県宍粟市",
        "施設・場所名": "県立千種高等学校",
        "住所": "兵庫県宍粟市千種町千草727-2",
        "指定緊急避難場所との住所同一": "1",
        "その他市町村長が必要と認める事項": "",
        "受入対象者": "",
        "備考": ""
      }
    },
    {
      "type": "Feature",
      "geometry": {
        "type": "Point",
        "coordinates": [
          134.543011,
          35.154565
        ]
      },
      "properties": {
        "NO": 54870,
        "共通ID": "E2822700038111",
        "都道府県名及び市町村名": "兵庫県宍粟市",
        "施設・場所名": "波賀中学校",
        "住所": "兵庫県宍粟市波賀町安賀244",
        "指定緊急避難場所との住所同一": "1",
        "その他市町村長が必要と認める事項": "",
        "受入対象者": "",
        "備考": ""
      }
    },
    {
      "type": "Feature",
      "geometry": {
        "type": "Point",
        "coordinates": [
          134.542757,
          35.157684
        ]
      },
      "properties": {
        "NO": 54871,
        "共通ID": "E2822700039111",
        "都道府県名及び市町村名": "兵庫県宍粟市",
        "施設・場所名": "波賀小学校",
        "住所": "兵庫県宍粟市波賀町安賀748-2",
        "指定緊急避難場所との住所同一": "1",
        "その他市町村長が必要と認める事項": "",
        "受入対象者": "",
        "備考": ""
      }
    },
    {
      "type": "Feature",
      "geometry": {
        "type": "Point",
        "coordinates": [
          134.530638,
          35.187339
        ]
      },
      "properties": {
        "NO": 54872,
        "共通ID": "E2822700041111",
        "都道府県名及び市町村名": "兵庫県宍粟市",
        "施設・場所名": "旧野原小学校",
        "住所": "兵庫県宍粟市波賀町野尻119-2",
        "指定緊急避難場所との住所同一": "1",
        "その他市町村長が必要と認める事項": "",
        "受入対象者": "",
        "備考": ""
      }
    },
    {
      "type": "Feature",
      "geometry": {
        "type": "Point",
        "coordinates": [
          134.541948,
          35.160794
        ]
      },
      "properties": {
        "NO": 54873,
        "共通ID": "E2822700043111",
        "都道府県名及び市町村名": "兵庫県宍粟市",
        "施設・場所名": "波賀Ｂ＆Ｇ海洋センター",
        "住所": "兵庫県宍粟市波賀町有賀29-1",
        "指定緊急避難場所との住所同一": "1",
        "その他市町村長が必要と認める事項": "",
        "受入対象者": "",
        "備考": ""
      }
    }
  ]
}