{
  "type": "FeatureCollection",
  "name": "292036",
  "features": [
    {
      "type": "Feature",
      "geometry": {
        "type": "Point",
        "coordinates": [
          135.805797,
          34.623691
        ]
      },
      "properties": {
        "NO": 55463,
        "共通ID": "E2920300041111",
        "都道府県名及び市町村名": "奈良県大和郡山市",
        "施設・場所名": "大和郡山市立治道認定こども園",
        "住所": "奈良県大和郡山市横田町254",
        "指定緊急避難場所との住所同一": "1",
        "その他市町村長が必要と認める事項": "",
        "受入対象者": "",
        "備考": ""
      }
    },
    {
      "type": "Feature",
      "geometry": {
        "type": "Point",
        "coordinates": [
          135.805883,
          34.623903
        ]
      },
      "properties": {
        "NO": 55464,
        "共通ID": "E2920300041112",
        "都道府県名及び市町村名": "奈良県大和郡山市",
        "施設・場所名": "大和郡山市立治道小学校",
        "住所": "奈良県大和郡山市横田町254",
        "指定緊急避難場所との住所同一": "1",
        "その他市町村長が必要と認める事項": "",
        "受入対象者": "",
        "備考": ""
      }
    },
    {
      "type": "Feature",
      "geometry": {
        "type": "Point",
        "coordinates": [
          135.806613,
          34.623444
        ]
      },
      "properties": {
        "NO": 55465,
        "共通ID": "E2920300042111",
        "都道府県名及び市町村名": "奈良県大和郡山市",
        "施設・場所名": "大和郡山市立治道地区公民館",
        "住所": "奈良県大和郡山市横田町261-1",
        "指定緊急避難場所との住所同一": "1",
        "その他市町村長が必要と認める事項": "",
        "受入対象者": "",
        "備考": ""
      }
    },
    {
      "type": "Feature",
      "geometry": {
        "type": "Point",
        "coordinates": [
          135.780038,
          34.608282
        ]
      },
      "properties": {
        "NO": 55466,
        "共通ID": "E2920300043112",
        "都道府県名及び市町村名": "奈良県大和郡山市",
        "施設・場所名": "大和郡山市立昭和小学校",
        "住所": "奈良県大和郡山市額田部北町555",
        "指定緊急避難場所との住所同一": "1",
        "その他市町村長が必要と認める事項": "",
        "受入対象者": "",
        "備考": ""
      }
    },
    {
      "type": "Feature",
      "geometry": {
        "type": "Point",
        "coordinates": [
          135.775942,
          34.606358
        ]
      },
      "properties": {
        "NO": 55467,
        "共通ID": "E2920300044111",
        "都道府県名及び市町村名": "奈良県大和郡山市",
        "施設・場所名": "大和郡山市額田部運動公園施設",
        "住所": "奈良県大和郡山市額田部北町642",
        "指定緊急避難場所との住所同一": "1",
        "その他市町村長が必要と認める事項": "",
        "受入対象者": "",
        "備考": ""
      }
    },
    {
      "type": "Feature",
      "geometry": {
        "type": "Point",
        "coordinates": [
          135.790584,
          34.647508
        ]
      },
      "properties": {
        "NO": 55468,
        "共通ID": "E2920300045111",
        "都道府県名及び市町村名": "奈良県大和郡山市",
        "施設・場所名": "大和郡山市民交流館",
        "住所": "奈良県大和郡山市高田町92-16",
        "指定緊急避難場所との住所同一": "1",
        "その他市町村長が必要と認める事項": "",
        "受入対象者": "",
        "備考": ""
      }
    },
    {
      "type": "Feature",
      "geometry": {
        "type": "Point",
        "coordinates": [
          135.745136,
          34.630683
        ]
      },
      "properties": {
        "NO": 55469,
        "共通ID": "E2920300046111",
        "都道府県名及び市町村名": "奈良県大和郡山市",
        "施設・場所名": "大和郡山市立矢田南幼稚園",
        "住所": "奈良県大和郡山市山田町82",
        "指定緊急避難場所との住所同一": "1",
        "その他市町村長が必要と認める事項": "",
        "受入対象者": "",
        "備考": ""
      }
    },
    {
      "type": "Feature",
      "geometry": {
        "type": "Point",
        "coordinates": [
          135.743671,
          34.631487
        ]
      },
      "properties": {
        "NO": 55470,
        "共通ID": "E2920300047111",
        "都道府県名及び市町村名": "奈良県大和郡山市",
        "施設・場所名": "大和郡山市立矢田南小学校",
        "住所": "奈良県大和郡山市山田町83",
        "指定緊急避難場所との住所同一": "1",
        "その他市町村長が必要と認める事項": "",
        "受入対象者": "",
        "備考": ""
      }
    },
    {
      "type": "Feature",
      "geometry": {
        "type": "Point",
        "coordinates": [
          135.797558,
          34.63568
        ]
      },
      "properties": {
        "NO": 55471,
        "共通ID": "E2920300048111",
        "都道府県名及び市町村名": "奈良県大和郡山市",
        "施設・場所名": "大和郡山市立郡山東中学校",
        "住所": "奈良県大和郡山市若槻町134-2",
        "指定緊急避難場所との住所同一": "1",
        "その他市町村長が必要と認める事項": "",
        "受入対象者": "",
        "備考": ""
      }
    },
    {
      "type": "Feature",
      "geometry": {
        "type": "Point",
        "coordinates": [
          135.800605,
          34.639352
        ]
      },
      "properties": {
        "NO": 55472,
        "共通ID": "E2920300049111",
        "都道府県名及び市町村名": "奈良県大和郡山市",
        "施設・場所名": "大和郡山市立平和地区公民館",
        "住所": "奈良県大和郡山市若槻町4-4",
        "指定緊急避難場所との住所同一": "1",
        "その他市町村長が必要と認める事項": "",
        "受入対象者": "",
        "備考": ""
      }
    },
    {
      "type": "Feature",
      "geometry": {
        "type": "Point",
        "coordinates": [
          135.76343,
          34.62945
        ]
      },
      "properties": {
        "NO": 55473,
        "共通ID": "E2920300050111",
        "都道府県名及び市町村名": "奈良県大和郡山市",
        "施設・場所名": "大和郡山市立片桐地区公民館",
        "住所": "奈良県大和郡山市小泉町105-1",
        "指定緊急避難場所との住所同一": "1",
        "その他市町村長が必要と認める事項": "",
        "受入対象者": "",
        "備考": ""
      }
    },
    {
      "type": "Feature",
      "geometry": {
        "type": "Point",
        "coordinates": [
          135.75593,
          34.630542
        ]
      },
      "properties": {
        "NO": 55474,
        "共通ID": "E2920300051111",
        "都道府県名及び市町村名": "奈良県大和郡山市",
        "施設・場所名": "大和郡山市立片桐西小学校",
        "住所": "奈良県大和郡山市小泉町1618",
        "指定緊急避難場所との住所同一": "1",
        "その他市町村長が必要と認める事項": "",
        "受入対象者": "",
        "備考": ""
      }
    },
    {
      "type": "Feature",
      "geometry": {
        "type": "Point",
        "coordinates": [
          135.755222,
          34.630489
        ]
      },
      "properties": {
        "NO": 55475,
        "共通ID": "E2920300052111",
        "都道府県名及び市町村名": "奈良県大和郡山市",
        "施設・場所名": "大和郡山市立片桐西幼稚園",
        "住所": "奈良県大和郡山市小泉町1658",
        "指定緊急避難場所との住所同一": "1",
        "その他市町村長が必要と認める事項": "",
        "受入対象者": "",
        "備考": ""
      }
    },
    {
      "type": "Feature",
      "geometry": {
        "type": "Point",
        "coordinates": [
          135.761073,
          34.628441
        ]
      },
      "properties": {
        "NO": 55476,
        "共通ID": "E2920300053111",
        "都道府県名及び市町村名": "奈良県大和郡山市",
        "施設・場所名": "大和郡山市立片桐中学校",
        "住所": "奈良県大和郡山市小泉町173-1",
        "指定緊急避難場所との住所同一": "1",
        "その他市町村長が必要と認める事項": "",
        "受入対象者": "",
        "備考": ""
      }
    },
    {
      "type": "Feature",
      "geometry": {
        "type": "Point",
        "coordinates": [
          135.779705,
          34.653898
        ]
      },
      "properties": {
        "NO": 55477,
        "共通ID": "E2920300039121",
        "都道府県名及び市町村名": "奈良県大和郡山市",
        "施設・場所名": "大和郡山市老人福祉センター",
        "住所": "奈良県大和郡山市植槻町3-11",
        "指定緊急避難場所との住所同一": "1",
        "その他市町村長が必要と認める事項": "",
        "受入対象者": "要配慮者",
        "備考": ""
      }
    },
    {
      "type": "Feature",
      "geometry": {
        "type": "Point",
        "coordinates": [
          135.779932,
          34.653529
        ]
      },
      "properties": {
        "NO": 55478,
        "共通ID": "E2920300040121",
        "都道府県名及び市町村名": "奈良県大和郡山市",
        "施設・場所名": "大和郡山市社会福祉会館",
        "住所": "奈良県大和郡山市植槻町3-8",
        "指定緊急避難場所との住所同一": "1",
        "その他市町村長が必要と認める事項": "",
        "受入対象者": "要配慮者",
        "備考": ""
      }
    },
    {
      "type": "Feature",
      "geometry": {
        "type": "Point",
        "coordinates": [
          135.783095,
          34.62611
        ]
      },
      "properties": {
        "NO": 55479,
        "共通ID": "E2920300054111",
        "都道府県名及び市町村名": "奈良県大和郡山市",
        "施設・場所名": "大和郡山市立筒井幼稚園",
        "住所": "奈良県大和郡山市丹後庄町177-3",
        "指定緊急避難場所との住所同一": "1",
        "その他市町村長が必要と認める事項": "",
        "受入対象者": "",
        "備考": ""
      }
    },
    {
      "type": "Feature",
      "geometry": {
        "type": "Point",
        "coordinates": [
          135.764985,
          34.6301
        ]
      },
      "properties": {
        "NO": 55480,
        "共通ID": "E2920300055111",
        "都道府県名及び市町村名": "奈良県大和郡山市",
        "施設・場所名": "大和郡山市立片桐小学校",
        "住所": "奈良県大和郡山市池ノ内町117",
        "指定緊急避難場所との住所同一": "1",
        "その他市町村長が必要と認める事項": "",
        "受入対象者": "",
        "備考": ""
      }
    },
    {
      "type": "Feature",
      "geometry": {
        "type": "Point",
        "coordinates": [
          135.764942,
          34.629235
        ]
      },
      "properties": {
        "NO": 55481,
        "共通ID": "E2920300056111",
        "都道府県名及び市町村名": "奈良県大和郡山市",
        "施設・場所名": "大和郡山市立片桐幼稚園",
        "住所": "奈良県大和郡山市池之内町167",
        "指定緊急避難場所との住所同一": "1",
        "その他市町村長が必要と認める事項": "",
        "受入対象者": "",
        "備考": ""
      }
    },
    {
      "type": "Feature",
      "geometry": {
        "type": "Point",
        "coordinates": [
          135.770135,
          34.648496
        ]
      },
      "properties": {
        "NO": 55482,
        "共通ID": "E2920300057111",
        "都道府県名及び市町村名": "奈良県大和郡山市",
        "施設・場所名": "大和郡山市立郡山西小学校",
        "住所": "奈良県大和郡山市田中町632",
        "指定緊急避難場所との住所同一": "1",
        "その他市町村長が必要と認める事項": "",
        "受入対象者": "",
        "備考": ""
      }
    },
    {
      "type": "Feature",
      "geometry": {
        "type": "Point",
        "coordinates": [
          135.769427,
          34.647931
        ]
      },
      "properties": {
        "NO": 55483,
        "共通ID": "E2920300058111",
        "都道府県名及び市町村名": "奈良県大和郡山市",
        "施設・場所名": "大和郡山市立郡山西幼稚園",
        "住所": "奈良県大和郡山市田中町723",
        "指定緊急避難場所との住所同一": "1",
        "その他市町村長が必要と認める事項": "",
        "受入対象者": "",
        "備考": ""
      }
    },
    {
      "type": "Feature",
      "geometry": {
        "type": "Point",
        "coordinates": [
          135.764577,
          34.643783
        ]
      },
      "properties": {
        "NO": 55484,
        "共通ID": "E2920300059111",
        "都道府県名及び市町村名": "奈良県大和郡山市",
        "施設・場所名": "大和郡山市立郡山西中学校",
        "住所": "奈良県大和郡山市田中町767",
        "指定緊急避難場所との住所同一": "1",
        "その他市町村長が必要と認める事項": "",
        "受入対象者": "",
        "備考": ""
      }
    },
    {
      "type": "Feature",
      "geometry": {
        "type": "Point",
        "coordinates": [
          135.781855,
          34.627062
        ]
      },
      "properties": {
        "NO": 55485,
        "共通ID": "E2920300060111",
        "都道府県名及び市町村名": "奈良県大和郡山市",
        "施設・場所名": "大和郡山市立筒井小学校",
        "住所": "奈良県大和郡山市筒井町120",
        "指定緊急避難場所との住所同一": "1",
        "その他市町村長が必要と認める事項": "",
        "受入対象者": "",
        "備考": ""
      }
    },
    {
      "type": "Feature",
      "geometry": {
        "type": "Point",
        "coordinates": [
          135.778653,
          34.623691
        ]
      },
      "properties": {
        "NO": 55486,
        "共通ID": "E2920300061111",
        "都道府県名及び市町村名": "奈良県大和郡山市",
        "施設・場所名": "大和郡山市立郡山南中学校",
        "住所": "奈良県大和郡山市筒井町398",
        "指定緊急避難場所との住所同一": "1",
        "その他市町村長が必要と認める事項": "",
        "受入対象者": "",
        "備考": ""
      }
    },
    {
      "type": "Feature",
      "geometry": {
        "type": "Point",
        "coordinates": [
          135.779426,
          34.620601
        ]
      },
      "properties": {
        "NO": 55487,
        "共通ID": "E2920300062111",
        "都道府県名及び市町村名": "奈良県大和郡山市",
        "施設・場所名": "大和郡山市立南部公民館",
        "住所": "奈良県大和郡山市筒井町600-4",
        "指定緊急避難場所との住所同一": "1",
        "その他市町村長が必要と認める事項": "",
        "受入対象者": "",
        "備考": ""
      }
    },
    {
      "type": "Feature",
      "geometry": {
        "type": "Point",
        "coordinates": [
          135.782258,
          34.648267
        ]
      },
      "properties": {
        "NO": 55488,
        "共通ID": "E2920300063111",
        "都道府県名及び市町村名": "奈良県大和郡山市",
        "施設・場所名": "大和郡山市立中央公民館",
        "住所": "奈良県大和郡山市南郡山町529-1",
        "指定緊急避難場所との住所同一": "1",
        "その他市町村長が必要と認める事項": "",
        "受入対象者": "",
        "備考": ""
      }
    },
    {
      "type": "Feature",
      "geometry": {
        "type": "Point",
        "coordinates": [
          135.781074,
          34.610002
        ]
      },
      "properties": {
        "NO": 55489,
        "共通ID": "E2920300064111",
        "都道府県名及び市町村名": "奈良県大和郡山市",
        "施設・場所名": "大和郡山市立昭和地区公民館",
        "住所": "奈良県大和郡山市馬司町331-56",
        "指定緊急避難場所との住所同一": "1",
        "その他市町村長が必要と認める事項": "",
        "受入対象者": "",
        "備考": ""
      }
    },
    {
      "type": "Feature",
      "geometry": {
        "type": "Point",
        "coordinates": [
          135.805111,
          34.639493
        ]
      },
      "properties": {
        "NO": 55490,
        "共通ID": "E2920300065111",
        "都道府県名及び市町村名": "奈良県大和郡山市",
        "施設・場所名": "大和郡山市立平和小学校",
        "住所": "奈良県大和郡山市美濃庄町262",
        "指定緊急避難場所との住所同一": "1",
        "その他市町村長が必要と認める事項": "",
        "受入対象者": "",
        "備考": ""
      }
    },
    {
      "type": "Feature",
      "geometry": {
        "type": "Point",
        "coordinates": [
          135.80719,
          34.640874
        ]
      },
      "properties": {
        "NO": 55491,
        "共通ID": "E2920300066111",
        "都道府県名及び市町村名": "奈良県大和郡山市",
        "施設・場所名": "大和郡山市立平和認定こども園",
        "住所": "奈良県大和郡山市美濃庄町533",
        "指定緊急避難場所との住所同一": "1",
        "その他市町村長が必要と認める事項": "",
        "受入対象者": "",
        "備考": ""
      }
    },
    {
      "type": "Feature",
      "geometry": {
        "type": "Point",
        "coordinates": [
          135.786872,
          34.653756
        ]
      },
      "properties": {
        "NO": 55492,
        "共通ID": "E2920300067112",
        "都道府県名及び市町村名": "奈良県大和郡山市",
        "施設・場所名": "大和郡山市立郡山北小学校",
        "住所": "奈良県大和郡山市北郡山町115",
        "指定緊急避難場所との住所同一": "1",
        "その他市町村長が必要と認める事項": "",
        "受入対象者": "",
        "備考": ""
      }
    },
    {
      "type": "Feature",
      "geometry": {
        "type": "Point",
        "coordinates": [
          135.786271,
          34.654586
        ]
      },
      "properties": {
        "NO": 55493,
        "共通ID": "E2920300067111",
        "都道府県名及び市町村名": "奈良県大和郡山市",
        "施設・場所名": "大和郡山市立郡山北幼稚園",
        "住所": "奈良県大和郡山市北郡山町115",
        "指定緊急避難場所との住所同一": "1",
        "その他市町村長が必要と認める事項": "",
        "受入対象者": "",
        "備考": ""
      }
    },
    {
      "type": "Feature",
      "geometry": {
        "type": "Point",
        "coordinates": [
          135.782366,
          34.652309
        ]
      },
      "properties": {
        "NO": 55494,
        "共通ID": "E2920300068111",
        "都道府県名及び市町村名": "奈良県大和郡山市",
        "施設・場所名": "やまと郡山城ホール",
        "住所": "奈良県大和郡山市北郡山町211-3",
        "指定緊急避難場所との住所同一": "1",
        "その他市町村長が必要と認める事項": "",
        "受入対象者": "",
        "備考": ""
      }
    },
    {
      "type": "Feature",
      "geometry": {
        "type": "Point",
        "coordinates": [
          135.745885,
          34.64626
        ]
      },
      "properties": {
        "NO": 55495,
        "共通ID": "E2920300069111",
        "都道府県名及び市町村名": "奈良県大和郡山市",
        "施設・場所名": "大和郡山市総合公園多目的体育館",
        "住所": "奈良県大和郡山市矢田山町2",
        "指定緊急避難場所との住所同一": "1",
        "その他市町村長が必要と認める事項": "",
        "受入対象者": "",
        "備考": ""
      }
    },
    {
      "type": "Feature",
      "geometry": {
        "type": "Point",
        "coordinates": [
          135.746952,
          34.647921
        ]
      },
      "properties": {
        "NO": 55496,
        "共通ID": "E2920300070111",
        "都道府県名及び市町村名": "奈良県大和郡山市",
        "施設・場所名": "大和郡山市矢田コミュニティ会館",
        "住所": "奈良県大和郡山市矢田町4547",
        "指定緊急避難場所との住所同一": "1",
        "その他市町村長が必要と認める事項": "",
        "受入対象者": "",
        "備考": ""
      }
    },
    {
      "type": "Feature",
      "geometry": {
        "type": "Point",
        "coordinates": [
          135.754937,
          34.647984
        ]
      },
      "properties": {
        "NO": 55497,
        "共通ID": "E2920300071111",
        "都道府県名及び市町村名": "奈良県大和郡山市",
        "施設・場所名": "大和郡山市立矢田認定こども園",
        "住所": "奈良県大和郡山市矢田町774",
        "指定緊急避難場所との住所同一": "1",
        "その他市町村長が必要と認める事項": "",
        "受入対象者": "",
        "備考": ""
      }
    },
    {
      "type": "Feature",
      "geometry": {
        "type": "Point",
        "coordinates": [
          135.749106,
          34.651956
        ]
      },
      "properties": {
        "NO": 55498,
        "共通ID": "E2920300072111",
        "都道府県名及び市町村名": "奈良県大和郡山市",
        "施設・場所名": "大和郡山市立矢田小学校",
        "住所": "奈良県大和郡山市矢田町966-2",
        "指定緊急避難場所との住所同一": "1",
        "その他市町村長が必要と認める事項": "",
        "受入対象者": "",
        "備考": ""
      }
    },
    {
      "type": "Feature",
      "geometry": {
        "type": "Point",
        "coordinates": [
          135.771508,
          34.654339
        ]
      },
      "properties": {
        "NO": 55499,
        "共通ID": "E2920300073111",
        "都道府県名及び市町村名": "奈良県大和郡山市",
        "施設・場所名": "大和郡山市立郡山中学校",
        "住所": "奈良県大和郡山市柳町404",
        "指定緊急避難場所との住所同一": "1",
        "その他市町村長が必要と認める事項": "",
        "受入対象者": "",
        "備考": ""
      }
    },
    {
      "type": "Feature",
      "geometry": {
        "type": "Point",
        "coordinates": [
          135.786164,
          34.645548
        ]
      },
      "properties": {
        "NO": 55500,
        "共通ID": "E2920300074111",
        "都道府県名及び市町村名": "奈良県大和郡山市",
        "施設・場所名": "大和郡山市立郡山南幼稚園",
        "住所": "奈良県大和郡山市柳町85",
        "指定緊急避難場所との住所同一": "1",
        "その他市町村長が必要と認める事項": "",
        "受入対象者": "",
        "備考": ""
      }
    },
    {
      "type": "Feature",
      "geometry": {
        "type": "Point",
        "coordinates": [
          135.787129,
          34.645672
        ]
      },
      "properties": {
        "NO": 55501,
        "共通ID": "E2920300074112",
        "都道府県名及び市町村名": "奈良県大和郡山市",
        "施設・場所名": "大和郡山市立郡山南小学校",
        "住所": "奈良県大和郡山市柳町85",
        "指定緊急避難場所との住所同一": "1",
        "その他市町村長が必要と認める事項": "",
        "受入対象者": "",
        "備考": ""
      }
    }
  ]
}