{
  "type": "FeatureCollection",
  "name": "292028",
  "features": [
    {
      "type": "Feature",
      "geometry": {
        "type": "Point",
        "coordinates": [
          135.747475,
          34.511952
        ]
      },
      "properties": {
        "NO": 55443,
        "共通ID": "E2920200001111",
        "都道府県名及び市町村名": "奈良県大和高田市",
        "施設・場所名": "片塩小学校",
        "住所": "奈良県大和高田市旭北町2-1",
        "指定緊急避難場所との住所同一": "1",
        "その他市町村長が必要と認める事項": null,
        "受入対象者": null,
        "備考": ""
      }
    },
    {
      "type": "Feature",
      "geometry": {
        "type": "Point",
        "coordinates": [
          135.747621,
          34.517773
        ]
      },
      "properties": {
        "NO": 55444,
        "共通ID": "E2920200002111",
        "都道府県名及び市町村名": "奈良県大和高田市",
        "施設・場所名": "武道館",
        "住所": "奈良県大和高田市幸町11-14",
        "指定緊急避難場所との住所同一": "1",
        "その他市町村長が必要と認める事項": null,
        "受入対象者": null,
        "備考": ""
      }
    },
    {
      "type": "Feature",
      "geometry": {
        "type": "Point",
        "coordinates": [
          135.755753,
          34.518048
        ]
      },
      "properties": {
        "NO": 55445,
        "共通ID": "E2920200003111",
        "都道府県名及び市町村名": "奈良県大和高田市",
        "施設・場所名": "市立高田商業高等学校",
        "住所": "奈良県大和高田市材木町8-3",
        "指定緊急避難場所との住所同一": "1",
        "その他市町村長が必要と認める事項": null,
        "受入対象者": null,
        "備考": ""
      }
    },
    {
      "type": "Feature",
      "geometry": {
        "type": "Point",
        "coordinates": [
          135.739366,
          34.499259
        ]
      },
      "properties": {
        "NO": 55446,
        "共通ID": "E2920200004111",
        "都道府県名及び市町村名": "奈良県大和高田市",
        "施設・場所名": "浮孔西小学校",
        "住所": "奈良県大和高田市曽大根1-5-1",
        "指定緊急避難場所との住所同一": "1",
        "その他市町村長が必要と認める事項": null,
        "受入対象者": null,
        "備考": ""
      }
    },
    {
      "type": "Feature",
      "geometry": {
        "type": "Point",
        "coordinates": [
          135.756058,
          34.486243
        ]
      },
      "properties": {
        "NO": 55447,
        "共通ID": "E2920200005111",
        "都道府県名及び市町村名": "奈良県大和高田市",
        "施設・場所名": "菅原校区公民館",
        "住所": "奈良県大和高田市大字吉井77-1",
        "指定緊急避難場所との住所同一": "1",
        "その他市町村長が必要と認める事項": null,
        "受入対象者": null,
        "備考": ""
      }
    },
    {
      "type": "Feature",
      "geometry": {
        "type": "Point",
        "coordinates": [
          135.758374,
          34.482872
        ]
      },
      "properties": {
        "NO": 55448,
        "共通ID": "E2920200006111",
        "都道府県名及び市町村名": "奈良県大和高田市",
        "施設・場所名": "菅原小学校",
        "住所": "奈良県大和高田市大字根成柿436",
        "指定緊急避難場所との住所同一": "1",
        "その他市町村長が必要と認める事項": null,
        "受入対象者": null,
        "備考": ""
      }
    },
    {
      "type": "Feature",
      "geometry": {
        "type": "Point",
        "coordinates": [
          135.747541,
          34.491317
        ]
      },
      "properties": {
        "NO": 55449,
        "共通ID": "E2920200007111",
        "都道府県名及び市町村名": "奈良県大和高田市",
        "施設・場所名": "総合公園コミュニティプール",
        "住所": "奈良県大和高田市大字西坊城414",
        "指定緊急避難場所との住所同一": "1",
        "その他市町村長が必要と認める事項": "",
        "受入対象者": "",
        "備考": ""
      }
    },
    {
      "type": "Feature",
      "geometry": {
        "type": "Point",
        "coordinates": [
          135.743706,
          34.49577
        ]
      },
      "properties": {
        "NO": 55450,
        "共通ID": "E2920200008111",
        "都道府県名及び市町村名": "奈良県大和高田市",
        "施設・場所名": "葛城コミュニティセンター",
        "住所": "奈良県大和高田市大字曽大根783-1",
        "指定緊急避難場所との住所同一": "1",
        "その他市町村長が必要と認める事項": null,
        "受入対象者": null,
        "備考": ""
      }
    },
    {
      "type": "Feature",
      "geometry": {
        "type": "Point",
        "coordinates": [
          135.724611,
          34.519208
        ]
      },
      "properties": {
        "NO": 55451,
        "共通ID": "E2920200009111",
        "都道府県名及び市町村名": "奈良県大和高田市",
        "施設・場所名": "陵西小学校",
        "住所": "奈良県大和高田市大字池田3",
        "指定緊急避難場所との住所同一": "1",
        "その他市町村長が必要と認める事項": null,
        "受入対象者": null,
        "備考": ""
      }
    },
    {
      "type": "Feature",
      "geometry": {
        "type": "Point",
        "coordinates": [
          135.729383,
          34.516621
        ]
      },
      "properties": {
        "NO": 55452,
        "共通ID": "E2920200010111",
        "都道府県名及び市町村名": "奈良県大和高田市",
        "施設・場所名": "高田西中学校",
        "住所": "奈良県大和高田市大字池田330",
        "指定緊急避難場所との住所同一": "1",
        "その他市町村長が必要と認める事項": null,
        "受入対象者": null,
        "備考": ""
      }
    },
    {
      "type": "Feature",
      "geometry": {
        "type": "Point",
        "coordinates": [
          135.73155,
          34.519393
        ]
      },
      "properties": {
        "NO": 55453,
        "共通ID": "E2920200011111",
        "都道府県名及び市町村名": "奈良県大和高田市",
        "施設・場所名": "総合福祉会館（ゆうゆうセンター）",
        "住所": "奈良県大和高田市大字池田418-1",
        "指定緊急避難場所との住所同一": "1",
        "その他市町村長が必要と認める事項": null,
        "受入対象者": null,
        "備考": ""
      }
    },
    {
      "type": "Feature",
      "geometry": {
        "type": "Point",
        "coordinates": [
          135.717535,
          34.517117
        ]
      },
      "properties": {
        "NO": 55454,
        "共通ID": "E2920200012111",
        "都道府県名及び市町村名": "奈良県大和高田市",
        "施設・場所名": "勤労青少年ホーム",
        "住所": "奈良県大和高田市大字野口20-1",
        "指定緊急避難場所との住所同一": "1",
        "その他市町村長が必要と認める事項": null,
        "受入対象者": null,
        "備考": ""
      }
    },
    {
      "type": "Feature",
      "geometry": {
        "type": "Point",
        "coordinates": [
          135.739018,
          34.518524
        ]
      },
      "properties": {
        "NO": 55455,
        "共通ID": "E2920200013111",
        "都道府県名及び市町村名": "奈良県大和高田市",
        "施設・場所名": "磐園小学校",
        "住所": "奈良県大和高田市大字有井1",
        "指定緊急避難場所との住所同一": "1",
        "その他市町村長が必要と認める事項": null,
        "受入対象者": null,
        "備考": ""
      }
    },
    {
      "type": "Feature",
      "geometry": {
        "type": "Point",
        "coordinates": [
          135.740233,
          34.513152
        ]
      },
      "properties": {
        "NO": 55456,
        "共通ID": "E2920200014111",
        "都道府県名及び市町村名": "奈良県大和高田市",
        "施設・場所名": "高田小学校",
        "住所": "奈良県大和高田市大中東町5-15",
        "指定緊急避難場所との住所同一": "1",
        "その他市町村長が必要と認める事項": null,
        "受入対象者": null,
        "備考": ""
      }
    },
    {
      "type": "Feature",
      "geometry": {
        "type": "Point",
        "coordinates": [
          135.738918,
          34.513317
        ]
      },
      "properties": {
        "NO": 55457,
        "共通ID": "E2920200015111",
        "都道府県名及び市町村名": "奈良県大和高田市",
        "施設・場所名": "高田中学校",
        "住所": "奈良県大和高田市大中東町5-48",
        "指定緊急避難場所との住所同一": "1",
        "その他市町村長が必要と認める事項": null,
        "受入対象者": null,
        "備考": ""
      }
    },
    {
      "type": "Feature",
      "geometry": {
        "type": "Point",
        "coordinates": [
          135.745787,
          34.502168
        ]
      },
      "properties": {
        "NO": 55458,
        "共通ID": "E2920200016111",
        "都道府県名及び市町村名": "奈良県大和高田市",
        "施設・場所名": "浮孔小学校",
        "住所": "奈良県大和高田市中三倉堂2-5-43",
        "指定緊急避難場所との住所同一": "1",
        "その他市町村長が必要と認める事項": null,
        "受入対象者": null,
        "備考": ""
      }
    },
    {
      "type": "Feature",
      "geometry": {
        "type": "Point",
        "coordinates": [
          135.746127,
          34.50107
        ]
      },
      "properties": {
        "NO": 55459,
        "共通ID": "E2920200017111",
        "都道府県名及び市町村名": "奈良県大和高田市",
        "施設・場所名": "片塩中学校",
        "住所": "奈良県大和高田市中三倉堂2-9-28",
        "指定緊急避難場所との住所同一": "1",
        "その他市町村長が必要と認める事項": null,
        "受入対象者": null,
        "備考": ""
      }
    },
    {
      "type": "Feature",
      "geometry": {
        "type": "Point",
        "coordinates": [
          135.755864,
          34.521198
        ]
      },
      "properties": {
        "NO": 55460,
        "共通ID": "E2920200018111",
        "都道府県名及び市町村名": "奈良県大和高田市",
        "施設・場所名": "土庫小学校",
        "住所": "奈良県大和高田市土庫3-2-61",
        "指定緊急避難場所との住所同一": "1",
        "その他市町村長が必要と認める事項": null,
        "受入対象者": null,
        "備考": ""
      }
    },
    {
      "type": "Feature",
      "geometry": {
        "type": "Point",
        "coordinates": [
          135.744154,
          34.513734
        ]
      },
      "properties": {
        "NO": 55461,
        "共通ID": "E2920200019111",
        "都道府県名及び市町村名": "奈良県大和高田市",
        "施設・場所名": "文化会館（さざんかホール）",
        "住所": "奈良県大和高田市本郷町6-36",
        "指定緊急避難場所との住所同一": "1",
        "その他市町村長が必要と認める事項": null,
        "受入対象者": null,
        "備考": ""
      }
    },
    {
      "type": "Feature",
      "geometry": {
        "type": "Point",
        "coordinates": [
          135.73964,
          34.509047
        ]
      },
      "properties": {
        "NO": 55462,
        "共通ID": "E2920200020111",
        "都道府県名及び市町村名": "奈良県大和高田市",
        "施設・場所名": "県立高田高等学校",
        "住所": "奈良県大和高田市礒野東町6-6",
        "指定緊急避難場所との住所同一": "1",
        "その他市町村長が必要と認める事項": null,
        "受入対象者": null,
        "備考": ""
      }
    }
  ]
}