{
  "type": "FeatureCollection",
  "name": "292095",
  "features": [
    {
      "type": "Feature",
      "geometry": {
        "type": "Point",
        "coordinates": [
          135.716641,
          34.709957
        ]
      },
      "properties": {
        "NO": 55728,
        "共通ID": "E2920900001111",
        "都道府県名及び市町村名": "奈良県生駒市",
        "施設・場所名": "あすか野小学校",
        "住所": "奈良県生駒市あすか野南2-5-1",
        "指定緊急避難場所との住所同一": "1",
        "その他市町村長が必要と認める事項": null,
        "受入対象者": null,
        "備考": ""
      }
    },
    {
      "type": "Feature",
      "geometry": {
        "type": "Point",
        "coordinates": [
          135.715232,
          34.672093
        ]
      },
      "properties": {
        "NO": 55729,
        "共通ID": "E2920900002111",
        "都道府県名及び市町村名": "奈良県生駒市",
        "施設・場所名": "壱分小学校",
        "住所": "奈良県生駒市壱分町356-1",
        "指定緊急避難場所との住所同一": "1",
        "その他市町村長が必要と認める事項": null,
        "受入対象者": null,
        "備考": ""
      }
    },
    {
      "type": "Feature",
      "geometry": {
        "type": "Point",
        "coordinates": [
          135.69869,
          34.692038
        ]
      },
      "properties": {
        "NO": 55730,
        "共通ID": "E2920900003111",
        "都道府県名及び市町村名": "奈良県生駒市",
        "施設・場所名": "コミュニティセンター",
        "住所": "奈良県生駒市元町1-6-12",
        "指定緊急避難場所との住所同一": "1",
        "その他市町村長が必要と認める事項": null,
        "受入対象者": null,
        "備考": ""
      }
    },
    {
      "type": "Feature",
      "geometry": {
        "type": "Point",
        "coordinates": [
          135.710546,
          34.770416
        ]
      },
      "properties": {
        "NO": 55731,
        "共通ID": "E2920900004111",
        "都道府県名及び市町村名": "奈良県生駒市",
        "施設・場所名": "生駒北スポーツセンター",
        "住所": "奈良県生駒市高山町166-2",
        "指定緊急避難場所との住所同一": "1",
        "その他市町村長が必要と認める事項": null,
        "受入対象者": null,
        "備考": ""
      }
    },
    {
      "type": "Feature",
      "geometry": {
        "type": "Point",
        "coordinates": [
          135.721319,
          34.739251
        ]
      },
      "properties": {
        "NO": 55732,
        "共通ID": "E2920900005111",
        "都道府県名及び市町村名": "奈良県生駒市",
        "施設・場所名": "生駒北小中学校",
        "住所": "奈良県生駒市高山町6794",
        "指定緊急避難場所との住所同一": "1",
        "その他市町村長が必要と認める事項": "",
        "受入対象者": "",
        "備考": ""
      }
    },
    {
      "type": "Feature",
      "geometry": {
        "type": "Point",
        "coordinates": [
          135.705151,
          34.698528
        ]
      },
      "properties": {
        "NO": 55733,
        "共通ID": "E2920900006111",
        "都道府県名及び市町村名": "奈良県生駒市",
        "施設・場所名": "桜ヶ丘小学校",
        "住所": "奈良県生駒市桜ケ丘7-15",
        "指定緊急避難場所との住所同一": "1",
        "その他市町村長が必要と認める事項": "",
        "受入対象者": "",
        "備考": ""
      }
    },
    {
      "type": "Feature",
      "geometry": {
        "type": "Point",
        "coordinates": [
          135.706141,
          34.69116
        ]
      },
      "properties": {
        "NO": 55734,
        "共通ID": "E2920900007111",
        "都道府県名及び市町村名": "奈良県生駒市",
        "施設・場所名": "生駒小学校",
        "住所": "奈良県生駒市山崎町4-44",
        "指定緊急避難場所との住所同一": "1",
        "その他市町村長が必要と認める事項": null,
        "受入対象者": null,
        "備考": ""
      }
    },
    {
      "type": "Feature",
      "geometry": {
        "type": "Point",
        "coordinates": [
          135.746435,
          34.734863
        ]
      },
      "properties": {
        "NO": 55735,
        "共通ID": "E2920900008111",
        "都道府県名及び市町村名": "奈良県生駒市",
        "施設・場所名": "鹿ノ台小学校",
        "住所": "奈良県生駒市鹿ノ台西1-5-2",
        "指定緊急避難場所との住所同一": "1",
        "その他市町村長が必要と認める事項": null,
        "受入対象者": null,
        "備考": ""
      }
    },
    {
      "type": "Feature",
      "geometry": {
        "type": "Point",
        "coordinates": [
          135.747863,
          34.733552
        ]
      },
      "properties": {
        "NO": 55736,
        "共通ID": "E2920900009111",
        "都道府県名及び市町村名": "奈良県生駒市",
        "施設・場所名": "鹿ノ台中学校",
        "住所": "奈良県生駒市鹿ノ台南2-16",
        "指定緊急避難場所との住所同一": "1",
        "その他市町村長が必要と認める事項": null,
        "受入対象者": null,
        "備考": ""
      }
    },
    {
      "type": "Feature",
      "geometry": {
        "type": "Point",
        "coordinates": [
          135.749078,
          34.733921
        ]
      },
      "properties": {
        "NO": 55737,
        "共通ID": "E2920900010111",
        "都道府県名及び市町村名": "奈良県生駒市",
        "施設・場所名": "鹿ノ台ふれあいホール",
        "住所": "奈良県生駒市鹿ノ台南2-3-3",
        "指定緊急避難場所との住所同一": "1",
        "その他市町村長が必要と認める事項": null,
        "受入対象者": null,
        "備考": ""
      }
    },
    {
      "type": "Feature",
      "geometry": {
        "type": "Point",
        "coordinates": [
          135.706827,
          34.666217
        ]
      },
      "properties": {
        "NO": 55738,
        "共通ID": "E2920900011111",
        "都道府県名及び市町村名": "奈良県生駒市",
        "施設・場所名": "南コミュニティセンターせせらぎ",
        "住所": "奈良県生駒市小瀬町18",
        "指定緊急避難場所との住所同一": "1",
        "その他市町村長が必要と認める事項": null,
        "受入対象者": null,
        "備考": ""
      }
    },
    {
      "type": "Feature",
      "geometry": {
        "type": "Point",
        "coordinates": [
          135.717887,
          34.665745
        ]
      },
      "properties": {
        "NO": 55739,
        "共通ID": "E2920900012111",
        "都道府県名及び市町村名": "奈良県生駒市",
        "施設・場所名": "大瀬中学校",
        "住所": "奈良県生駒市小瀬町911-1",
        "指定緊急避難場所との住所同一": "1",
        "その他市町村長が必要と認める事項": null,
        "受入対象者": null,
        "備考": ""
      }
    },
    {
      "type": "Feature",
      "geometry": {
        "type": "Point",
        "coordinates": [
          135.703386,
          34.658094
        ]
      },
      "properties": {
        "NO": 55740,
        "共通ID": "E2920900014111",
        "都道府県名及び市町村名": "奈良県生駒市",
        "施設・場所名": "小平尾南体育館",
        "住所": "奈良県生駒市小平尾町1629",
        "指定緊急避難場所との住所同一": "1",
        "その他市町村長が必要と認める事項": null,
        "受入対象者": null,
        "備考": ""
      }
    },
    {
      "type": "Feature",
      "geometry": {
        "type": "Point",
        "coordinates": [
          135.707099,
          34.652945
        ]
      },
      "properties": {
        "NO": 55741,
        "共通ID": "E2920900015111",
        "都道府県名及び市町村名": "奈良県生駒市",
        "施設・場所名": "井出山体育館",
        "住所": "奈良県生駒市小平尾町1766-1",
        "指定緊急避難場所との住所同一": "1",
        "その他市町村長が必要と認める事項": null,
        "受入対象者": null,
        "備考": ""
      }
    },
    {
      "type": "Feature",
      "geometry": {
        "type": "Point",
        "coordinates": [
          135.707786,
          34.654381
        ]
      },
      "properties": {
        "NO": 55742,
        "共通ID": "E2920900016111",
        "都道府県名及び市町村名": "奈良県生駒市",
        "施設・場所名": "生駒南第二小学校",
        "住所": "奈良県生駒市小平尾町927",
        "指定緊急避難場所との住所同一": "1",
        "その他市町村長が必要と認める事項": null,
        "受入対象者": null,
        "備考": ""
      }
    },
    {
      "type": "Feature",
      "geometry": {
        "type": "Point",
        "coordinates": [
          135.710685,
          34.711708
        ]
      },
      "properties": {
        "NO": 55743,
        "共通ID": "E2920900017111",
        "都道府県名及び市町村名": "奈良県生駒市",
        "施設・場所名": "総合公園体育館",
        "住所": "奈良県生駒市小明町1807-1",
        "指定緊急避難場所との住所同一": "1",
        "その他市町村長が必要と認める事項": null,
        "受入対象者": null,
        "備考": ""
      }
    },
    {
      "type": "Feature",
      "geometry": {
        "type": "Point",
        "coordinates": [
          135.70814,
          34.712331
        ]
      },
      "properties": {
        "NO": 55744,
        "共通ID": "E2920900018111",
        "都道府県名及び市町村名": "奈良県生駒市",
        "施設・場所名": "光明中学校",
        "住所": "奈良県生駒市小明町55",
        "指定緊急避難場所との住所同一": "1",
        "その他市町村長が必要と認める事項": null,
        "受入対象者": null,
        "備考": ""
      }
    },
    {
      "type": "Feature",
      "geometry": {
        "type": "Point",
        "coordinates": [
          135.722509,
          34.718474
        ]
      },
      "properties": {
        "NO": 55745,
        "共通ID": "E2920900019111",
        "都道府県名及び市町村名": "奈良県生駒市",
        "施設・場所名": "北コミュニティセンターＩＳＴＡはばたき",
        "住所": "奈良県生駒市上町1543",
        "指定緊急避難場所との住所同一": "1",
        "その他市町村長が必要と認める事項": null,
        "受入対象者": null,
        "備考": ""
      }
    },
    {
      "type": "Feature",
      "geometry": {
        "type": "Point",
        "coordinates": [
          135.716425,
          34.72468
        ]
      },
      "properties": {
        "NO": 55746,
        "共通ID": "E2920900020111",
        "都道府県名及び市町村名": "奈良県生駒市",
        "施設・場所名": "上中学校",
        "住所": "奈良県生駒市上町3000",
        "指定緊急避難場所との住所同一": "1",
        "その他市町村長が必要と認める事項": null,
        "受入対象者": null,
        "備考": ""
      }
    },
    {
      "type": "Feature",
      "geometry": {
        "type": "Point",
        "coordinates": [
          135.702275,
          34.709604
        ]
      },
      "properties": {
        "NO": 55747,
        "共通ID": "E2920900021111",
        "都道府県名及び市町村名": "奈良県生駒市",
        "施設・場所名": "生駒台小学校",
        "住所": "奈良県生駒市新生駒台1-33",
        "指定緊急避難場所との住所同一": "1",
        "その他市町村長が必要と認める事項": null,
        "受入対象者": null,
        "備考": ""
      }
    },
    {
      "type": "Feature",
      "geometry": {
        "type": "Point",
        "coordinates": [
          135.726035,
          34.720238
        ]
      },
      "properties": {
        "NO": 55748,
        "共通ID": "E2920900022111",
        "都道府県名及び市町村名": "奈良県生駒市",
        "施設・場所名": "真弓小学校",
        "住所": "奈良県生駒市真弓1-11-15",
        "指定緊急避難場所との住所同一": "1",
        "その他市町村長が必要と認める事項": null,
        "受入対象者": null,
        "備考": ""
      }
    },
    {
      "type": "Feature",
      "geometry": {
        "type": "Point",
        "coordinates": [
          135.693745,
          34.699019
        ]
      },
      "properties": {
        "NO": 55749,
        "共通ID": "E2920900025111",
        "都道府県名及び市町村名": "奈良県生駒市",
        "施設・場所名": "生駒中学校",
        "住所": "奈良県生駒市西松ケ丘9-19",
        "指定緊急避難場所との住所同一": "1",
        "その他市町村長が必要と認める事項": null,
        "受入対象者": null,
        "備考": ""
      }
    },
    {
      "type": "Feature",
      "geometry": {
        "type": "Point",
        "coordinates": [
          135.708543,
          34.696378
        ]
      },
      "properties": {
        "NO": 55750,
        "共通ID": "E2920900026111",
        "都道府県名及び市町村名": "奈良県生駒市",
        "施設・場所名": "図書会館",
        "住所": "奈良県生駒市辻町238",
        "指定緊急避難場所との住所同一": "1",
        "その他市町村長が必要と認める事項": null,
        "受入対象者": null,
        "備考": ""
      }
    },
    {
      "type": "Feature",
      "geometry": {
        "type": "Point",
        "coordinates": [
          135.715593,
          34.680509
        ]
      },
      "properties": {
        "NO": 55751,
        "共通ID": "E2920900027111",
        "都道府県名及び市町村名": "奈良県生駒市",
        "施設・場所名": "生駒東小学校",
        "住所": "奈良県生駒市東生駒4-398-110",
        "指定緊急避難場所との住所同一": "1",
        "その他市町村長が必要と認める事項": null,
        "受入対象者": null,
        "備考": ""
      }
    },
    {
      "type": "Feature",
      "geometry": {
        "type": "Point",
        "coordinates": [
          135.705854,
          34.665555
        ]
      },
      "properties": {
        "NO": 55752,
        "共通ID": "E2920900028111",
        "都道府県名及び市町村名": "奈良県生駒市",
        "施設・場所名": "生駒南小学校",
        "住所": "奈良県生駒市萩原町335",
        "指定緊急避難場所との住所同一": "1",
        "その他市町村長が必要と認める事項": null,
        "受入対象者": null,
        "備考": ""
      }
    },
    {
      "type": "Feature",
      "geometry": {
        "type": "Point",
        "coordinates": [
          135.697064,
          34.66321
        ]
      },
      "properties": {
        "NO": 55753,
        "共通ID": "E2920900029111",
        "都道府県名及び市町村名": "奈良県生駒市",
        "施設・場所名": "むかいやま公園体育館",
        "住所": "奈良県生駒市萩原町673",
        "指定緊急避難場所との住所同一": "1",
        "その他市町村長が必要と認める事項": null,
        "受入対象者": null,
        "備考": ""
      }
    },
    {
      "type": "Feature",
      "geometry": {
        "type": "Point",
        "coordinates": [
          135.70601,
          34.667315
        ]
      },
      "properties": {
        "NO": 55754,
        "共通ID": "E2920900030111",
        "都道府県名及び市町村名": "奈良県生駒市",
        "施設・場所名": "生駒南中学校",
        "住所": "奈良県生駒市萩原町90",
        "指定緊急避難場所との住所同一": "1",
        "その他市町村長が必要と認める事項": null,
        "受入対象者": null,
        "備考": ""
      }
    },
    {
      "type": "Feature",
      "geometry": {
        "type": "Point",
        "coordinates": [
          135.688887,
          34.705712
        ]
      },
      "properties": {
        "NO": 55755,
        "共通ID": "E2920900031111",
        "都道府県名及び市町村名": "奈良県生駒市",
        "施設・場所名": "俵口小学校",
        "住所": "奈良県生駒市俵口町614-1",
        "指定緊急避難場所との住所同一": "1",
        "その他市町村長が必要と認める事項": null,
        "受入対象者": null,
        "備考": ""
      }
    },
    {
      "type": "Feature",
      "geometry": {
        "type": "Point",
        "coordinates": [
          135.696684,
          34.693954
        ]
      },
      "properties": {
        "NO": 55756,
        "共通ID": "E2920900032111",
        "都道府県名及び市町村名": "奈良県生駒市",
        "施設・場所名": "たけまるホール",
        "住所": "奈良県生駒市北新町9-28",
        "指定緊急避難場所との住所同一": "1",
        "その他市町村長が必要と認める事項": null,
        "受入対象者": null,
        "備考": ""
      }
    },
    {
      "type": "Feature",
      "geometry": {
        "type": "Point",
        "coordinates": [
          135.735147,
          34.721437
        ]
      },
      "properties": {
        "NO": 55757,
        "共通ID": "E2920900033111",
        "都道府県名及び市町村名": "奈良県生駒市",
        "施設・場所名": "北大和体育館",
        "住所": "奈良県生駒市北大和3-5077",
        "指定緊急避難場所との住所同一": "1",
        "その他市町村長が必要と認める事項": null,
        "受入対象者": null,
        "備考": ""
      }
    },
    {
      "type": "Feature",
      "geometry": {
        "type": "Point",
        "coordinates": [
          135.690271,
          34.687783
        ]
      },
      "properties": {
        "NO": 55758,
        "共通ID": "E2920900034111",
        "都道府県名及び市町村名": "奈良県生駒市",
        "施設・場所名": "市民体育館",
        "住所": "奈良県生駒市門前町9-20",
        "指定緊急避難場所との住所同一": "1",
        "その他市町村長が必要と認める事項": null,
        "受入対象者": null,
        "備考": ""
      }
    },
    {
      "type": "Feature",
      "geometry": {
        "type": "Point",
        "coordinates": [
          135.698786,
          34.683462
        ]
      },
      "properties": {
        "NO": 55759,
        "共通ID": "E2920900035111",
        "都道府県名及び市町村名": "奈良県生駒市",
        "施設・場所名": "緑ヶ丘中学校",
        "住所": "奈良県生駒市緑ケ丘2232",
        "指定緊急避難場所との住所同一": "1",
        "その他市町村長が必要と認める事項": "",
        "受入対象者": "",
        "備考": ""
      }
    }
  ]
}