{
  "type": "FeatureCollection",
  "name": "292079",
  "features": [
    {
      "type": "Feature",
      "geometry": {
        "type": "Point",
        "coordinates": [
          135.698213,
          34.356279
        ]
      },
      "properties": {
        "NO": 55647,
        "共通ID": "E2920700003111",
        "都道府県名及び市町村名": "奈良県五條市",
        "施設・場所名": "岡口コミニュティセンター",
        "住所": "奈良県五條市岡口1-9-18",
        "指定緊急避難場所との住所同一": "",
        "その他市町村長が必要と認める事項": "",
        "受入対象者": "",
        "備考": ""
      }
    },
    {
      "type": "Feature",
      "geometry": {
        "type": "Point",
        "coordinates": [
          135.694136,
          34.369653
        ]
      },
      "properties": {
        "NO": 55648,
        "共通ID": "E2920700004111",
        "都道府県名及び市町村名": "奈良県五條市",
        "施設・場所名": "五條高等学校",
        "住所": "奈良県五條市岡町1428",
        "指定緊急避難場所との住所同一": "1",
        "その他市町村長が必要と認める事項": null,
        "受入対象者": null,
        "備考": ""
      }
    },
    {
      "type": "Feature",
      "geometry": {
        "type": "Point",
        "coordinates": [
          135.699146,
          34.362483
        ]
      },
      "properties": {
        "NO": 55649,
        "共通ID": "E2920700005111",
        "都道府県名及び市町村名": "奈良県五條市",
        "施設・場所名": "宇智体育館",
        "住所": "奈良県五條市岡町989",
        "指定緊急避難場所との住所同一": "1",
        "その他市町村長が必要と認める事項": null,
        "受入対象者": null,
        "備考": ""
      }
    },
    {
      "type": "Feature",
      "geometry": {
        "type": "Point",
        "coordinates": [
          135.689471,
          34.352915
        ]
      },
      "properties": {
        "NO": 55650,
        "共通ID": "E2920700006111",
        "都道府県名及び市町村名": "奈良県五條市",
        "施設・場所名": "五條中学校",
        "住所": "奈良県五條市下之町50",
        "指定緊急避難場所との住所同一": "1",
        "その他市町村長が必要と認める事項": null,
        "受入対象者": null,
        "備考": ""
      }
    },
    {
      "type": "Feature",
      "geometry": {
        "type": "Point",
        "coordinates": [
          135.704796,
          34.389193
        ]
      },
      "properties": {
        "NO": 55651,
        "共通ID": "E2920700007111",
        "都道府県名及び市町村名": "奈良県五條市",
        "施設・場所名": "旧北宇智小学校",
        "住所": "奈良県五條市近内町1158",
        "指定緊急避難場所との住所同一": "1",
        "その他市町村長が必要と認める事項": "",
        "受入対象者": "",
        "備考": ""
      }
    },
    {
      "type": "Feature",
      "geometry": {
        "type": "Point",
        "coordinates": [
          135.705764,
          34.382959
        ]
      },
      "properties": {
        "NO": 55652,
        "共通ID": "E2920700008111",
        "都道府県名及び市町村名": "奈良県五條市",
        "施設・場所名": "北宇智公民館",
        "住所": "奈良県五條市近内町735",
        "指定緊急避難場所との住所同一": "1",
        "その他市町村長が必要と認める事項": null,
        "受入対象者": null,
        "備考": ""
      }
    },
    {
      "type": "Feature",
      "geometry": {
        "type": "Point",
        "coordinates": [
          135.707732,
          34.382441
        ]
      },
      "properties": {
        "NO": 55653,
        "共通ID": "E2920700009111",
        "都道府県名及び市町村名": "奈良県五條市",
        "施設・場所名": "北宇智体育館",
        "住所": "奈良県五條市近内町779",
        "指定緊急避難場所との住所同一": "1",
        "その他市町村長が必要と認める事項": null,
        "受入対象者": null,
        "備考": ""
      }
    },
    {
      "type": "Feature",
      "geometry": {
        "type": "Point",
        "coordinates": [
          135.746661,
          34.363078
        ]
      },
      "properties": {
        "NO": 55654,
        "共通ID": "E2920700010111",
        "都道府県名及び市町村名": "奈良県五條市",
        "施設・場所名": "旧阿太小学校",
        "住所": "奈良県五條市原町225",
        "指定緊急避難場所との住所同一": "1",
        "その他市町村長が必要と認める事項": null,
        "受入対象者": null,
        "備考": ""
      }
    },
    {
      "type": "Feature",
      "geometry": {
        "type": "Point",
        "coordinates": [
          135.701662,
          34.351367
        ]
      },
      "properties": {
        "NO": 55655,
        "共通ID": "E2920700013111",
        "都道府県名及び市町村名": "奈良県五條市",
        "施設・場所名": "人権総合センター",
        "住所": "奈良県五條市五條4-1-3",
        "指定緊急避難場所との住所同一": "1",
        "その他市町村長が必要と認める事項": null,
        "受入対象者": null,
        "備考": ""
      }
    },
    {
      "type": "Feature",
      "geometry": {
        "type": "Point",
        "coordinates": [
          135.703113,
          34.351876
        ]
      },
      "properties": {
        "NO": 55656,
        "共通ID": "E2920700014111",
        "都道府県名及び市町村名": "奈良県五條市",
        "施設・場所名": "五條東体育館",
        "住所": "奈良県五條市五條4-2-6",
        "指定緊急避難場所との住所同一": "1",
        "その他市町村長が必要と認める事項": null,
        "受入対象者": null,
        "備考": ""
      }
    },
    {
      "type": "Feature",
      "geometry": {
        "type": "Point",
        "coordinates": [
          135.706372,
          34.356942
        ]
      },
      "properties": {
        "NO": 55657,
        "共通ID": "E2920700015111",
        "都道府県名及び市町村名": "奈良県五條市",
        "施設・場所名": "今井コミュニティセンター",
        "住所": "奈良県五條市今井3-3-20",
        "指定緊急避難場所との住所同一": "1",
        "その他市町村長が必要と認める事項": null,
        "受入対象者": null,
        "備考": ""
      }
    },
    {
      "type": "Feature",
      "geometry": {
        "type": "Point",
        "coordinates": [
          135.705288,
          34.358209
        ]
      },
      "properties": {
        "NO": 55658,
        "共通ID": "E2920700016111",
        "都道府県名及び市町村名": "奈良県五條市",
        "施設・場所名": "宇智公民館",
        "住所": "奈良県五條市今井3-3-48",
        "指定緊急避難場所との住所同一": "1",
        "その他市町村長が必要と認める事項": null,
        "受入対象者": null,
        "備考": ""
      }
    },
    {
      "type": "Feature",
      "geometry": {
        "type": "Point",
        "coordinates": [
          135.710741,
          34.357841
        ]
      },
      "properties": {
        "NO": 55659,
        "共通ID": "E2920700017111",
        "都道府県名及び市町村名": "奈良県五條市",
        "施設・場所名": "五條東中学校",
        "住所": "奈良県五條市今井5-7-12",
        "指定緊急避難場所との住所同一": "1",
        "その他市町村長が必要と認める事項": null,
        "受入対象者": null,
        "備考": ""
      }
    },
    {
      "type": "Feature",
      "geometry": {
        "type": "Point",
        "coordinates": [
          135.709605,
          34.361597
        ]
      },
      "properties": {
        "NO": 55660,
        "共通ID": "E2920700019111",
        "都道府県名及び市町村名": "奈良県五條市",
        "施設・場所名": "五條東小学校",
        "住所": "奈良県五條市今井町1153",
        "指定緊急避難場所との住所同一": "1",
        "その他市町村長が必要と認める事項": null,
        "受入対象者": null,
        "備考": ""
      }
    },
    {
      "type": "Feature",
      "geometry": {
        "type": "Point",
        "coordinates": [
          135.729339,
          34.381694
        ]
      },
      "properties": {
        "NO": 55661,
        "共通ID": "E2920700021111",
        "都道府県名及び市町村名": "奈良県五條市",
        "施設・場所名": "阿田峯公園",
        "住所": "奈良県五條市三在町1680",
        "指定緊急避難場所との住所同一": "1",
        "その他市町村長が必要と認める事項": null,
        "受入対象者": null,
        "備考": ""
      }
    },
    {
      "type": "Feature",
      "geometry": {
        "type": "Point",
        "coordinates": [
          135.74858,
          34.368175
        ]
      },
      "properties": {
        "NO": 55662,
        "共通ID": "E2920700022111",
        "都道府県名及び市町村名": "奈良県五條市",
        "施設・場所名": "阿太ミニ体育館",
        "住所": "奈良県五條市山田町2",
        "指定緊急避難場所との住所同一": "1",
        "その他市町村長が必要と認める事項": null,
        "受入対象者": null,
        "備考": ""
      }
    },
    {
      "type": "Feature",
      "geometry": {
        "type": "Point",
        "coordinates": [
          135.671772,
          34.335877
        ]
      },
      "properties": {
        "NO": 55663,
        "共通ID": "E2920700023111",
        "都道府県名及び市町村名": "奈良県五條市",
        "施設・場所名": "上野公園総合体育館（シダーアリーナ）",
        "住所": "奈良県五條市上野町246",
        "指定緊急避難場所との住所同一": "1",
        "その他市町村長が必要と認める事項": null,
        "受入対象者": null,
        "備考": ""
      }
    },
    {
      "type": "Feature",
      "geometry": {
        "type": "Point",
        "coordinates": [
          135.691166,
          34.34902
        ]
      },
      "properties": {
        "NO": 55664,
        "共通ID": "E2920700024111",
        "都道府県名及び市町村名": "奈良県五條市",
        "施設・場所名": "新町公民館",
        "住所": "奈良県五條市新町1-7-10",
        "指定緊急避難場所との住所同一": "",
        "その他市町村長が必要と認める事項": null,
        "受入対象者": null,
        "備考": ""
      }
    },
    {
      "type": "Feature",
      "geometry": {
        "type": "Point",
        "coordinates": [
          135.69866,
          34.353684
        ]
      },
      "properties": {
        "NO": 55665,
        "共通ID": "E2920700026111",
        "都道府県名及び市町村名": "奈良県五條市",
        "施設・場所名": "須恵公民館",
        "住所": "奈良県五條市須恵3-4-44",
        "指定緊急避難場所との住所同一": "1",
        "その他市町村長が必要と認める事項": null,
        "受入対象者": null,
        "備考": ""
      }
    },
    {
      "type": "Feature",
      "geometry": {
        "type": "Point",
        "coordinates": [
          135.724148,
          34.305081
        ]
      },
      "properties": {
        "NO": 55666,
        "共通ID": "E2920700027111",
        "都道府県名及び市町村名": "奈良県五條市",
        "施設・場所名": "西吉野農業高等学校",
        "住所": "奈良県五條市西吉野町江出174-1",
        "指定緊急避難場所との住所同一": "1",
        "その他市町村長が必要と認める事項": null,
        "受入対象者": null,
        "備考": ""
      }
    },
    {
      "type": "Feature",
      "geometry": {
        "type": "Point",
        "coordinates": [
          135.748611,
          34.263756
        ]
      },
      "properties": {
        "NO": 55667,
        "共通ID": "E2920700029111",
        "都道府県名及び市町村名": "奈良県五條市",
        "施設・場所名": "旧西吉野小学校",
        "住所": "奈良県五條市西吉野町宗川野77-1",
        "指定緊急避難場所との住所同一": "1",
        "その他市町村長が必要と認める事項": null,
        "受入対象者": null,
        "備考": ""
      }
    },
    {
      "type": "Feature",
      "geometry": {
        "type": "Point",
        "coordinates": [
          135.748677,
          34.262307
        ]
      },
      "properties": {
        "NO": 55668,
        "共通ID": "E2920700030111",
        "都道府県名及び市町村名": "奈良県五條市",
        "施設・場所名": "宗桧公民館",
        "住所": "奈良県五條市西吉野町宗川野97",
        "指定緊急避難場所との住所同一": "",
        "その他市町村長が必要と認める事項": null,
        "受入対象者": null,
        "備考": ""
      }
    },
    {
      "type": "Feature",
      "geometry": {
        "type": "Point",
        "coordinates": [
          135.764851,
          34.303787
        ]
      },
      "properties": {
        "NO": 55669,
        "共通ID": "E2920700033111",
        "都道府県名及び市町村名": "奈良県五條市",
        "施設・場所名": "西吉野コミュニティセンター",
        "住所": "奈良県五條市西吉野町八ツ川451",
        "指定緊急避難場所との住所同一": "1",
        "その他市町村長が必要と認める事項": null,
        "受入対象者": null,
        "備考": ""
      }
    },
    {
      "type": "Feature",
      "geometry": {
        "type": "Point",
        "coordinates": [
          135.754848,
          34.323365
        ]
      },
      "properties": {
        "NO": 55670,
        "共通ID": "E2920700034111",
        "都道府県名及び市町村名": "奈良県五條市",
        "施設・場所名": "平沼田老人憩の家",
        "住所": "奈良県五條市西吉野町平沼田1466",
        "指定緊急避難場所との住所同一": "",
        "その他市町村長が必要と認める事項": null,
        "受入対象者": null,
        "備考": ""
      }
    },
    {
      "type": "Feature",
      "geometry": {
        "type": "Point",
        "coordinates": [
          135.746453,
          34.326478
        ]
      },
      "properties": {
        "NO": 55671,
        "共通ID": "E2920700035111",
        "都道府県名及び市町村名": "奈良県五條市",
        "施設・場所名": "旧白銀北中学校",
        "住所": "奈良県五條市西吉野町平沼田1687",
        "指定緊急避難場所との住所同一": "1",
        "その他市町村長が必要と認める事項": null,
        "受入対象者": null,
        "備考": ""
      }
    },
    {
      "type": "Feature",
      "geometry": {
        "type": "Point",
        "coordinates": [
          135.722171,
          34.296022
        ]
      },
      "properties": {
        "NO": 55672,
        "共通ID": "E2920700036111",
        "都道府県名及び市町村名": "奈良県五條市",
        "施設・場所名": "賀名生体育館",
        "住所": "奈良県五條市西吉野町和田77-1",
        "指定緊急避難場所との住所同一": "1",
        "その他市町村長が必要と認める事項": null,
        "受入対象者": null,
        "備考": ""
      }
    },
    {
      "type": "Feature",
      "geometry": {
        "type": "Point",
        "coordinates": [
          135.746748,
          34.156789
        ]
      },
      "properties": {
        "NO": 55673,
        "共通ID": "E2920700037111",
        "都道府県名及び市町村名": "奈良県五條市",
        "施設・場所名": "大塔ライフハウス",
        "住所": "奈良県五條市大塔町宇井183",
        "指定緊急避難場所との住所同一": "1",
        "その他市町村長が必要と認める事項": null,
        "受入対象者": null,
        "備考": ""
      }
    },
    {
      "type": "Feature",
      "geometry": {
        "type": "Point",
        "coordinates": [
          135.731719,
          34.212371
        ]
      },
      "properties": {
        "NO": 55674,
        "共通ID": "E2920700038111",
        "都道府県名及び市町村名": "奈良県五條市",
        "施設・場所名": "ロッジ星のくに",
        "住所": "奈良県五條市大塔町阪本249",
        "指定緊急避難場所との住所同一": "1",
        "その他市町村長が必要と認める事項": null,
        "受入対象者": null,
        "備考": ""
      }
    },
    {
      "type": "Feature",
      "geometry": {
        "type": "Point",
        "coordinates": [
          135.666371,
          34.363925
        ]
      },
      "properties": {
        "NO": 55675,
        "共通ID": "E2920700040111",
        "都道府県名及び市町村名": "奈良県五條市",
        "施設・場所名": "五條西中学校",
        "住所": "奈良県五條市大澤町374",
        "指定緊急避難場所との住所同一": "1",
        "その他市町村長が必要と認める事項": null,
        "受入対象者": null,
        "備考": ""
      }
    },
    {
      "type": "Feature",
      "geometry": {
        "type": "Point",
        "coordinates": [
          135.751481,
          34.357854
        ]
      },
      "properties": {
        "NO": 55676,
        "共通ID": "E2920700042111",
        "都道府県名及び市町村名": "奈良県五條市",
        "施設・場所名": "南阿太公民館",
        "住所": "奈良県五條市滝町504",
        "指定緊急避難場所との住所同一": "1",
        "その他市町村長が必要と認める事項": null,
        "受入対象者": null,
        "備考": ""
      }
    },
    {
      "type": "Feature",
      "geometry": {
        "type": "Point",
        "coordinates": [
          135.679179,
          34.335054
        ]
      },
      "properties": {
        "NO": 55677,
        "共通ID": "E2920700043111",
        "都道府県名及び市町村名": "奈良県五條市",
        "施設・場所名": "阪合部公民館",
        "住所": "奈良県五條市中町31",
        "指定緊急避難場所との住所同一": "1",
        "その他市町村長が必要と認める事項": "",
        "受入対象者": "",
        "備考": ""
      }
    },
    {
      "type": "Feature",
      "geometry": {
        "type": "Point",
        "coordinates": [
          135.679809,
          34.362289
        ]
      },
      "properties": {
        "NO": 55678,
        "共通ID": "E2920700044111",
        "都道府県名及び市町村名": "奈良県五條市",
        "施設・場所名": "牧野公民館",
        "住所": "奈良県五條市中之町1764-1",
        "指定緊急避難場所との住所同一": "",
        "その他市町村長が必要と認める事項": null,
        "受入対象者": null,
        "備考": ""
      }
    },
    {
      "type": "Feature",
      "geometry": {
        "type": "Point",
        "coordinates": [
          135.675307,
          34.362375
        ]
      },
      "properties": {
        "NO": 55679,
        "共通ID": "E2920700045111",
        "都道府県名及び市町村名": "奈良県五條市",
        "施設・場所名": "牧野体育館",
        "住所": "奈良県五條市中之町595",
        "指定緊急避難場所との住所同一": "",
        "その他市町村長が必要と認める事項": null,
        "受入対象者": null,
        "備考": ""
      }
    },
    {
      "type": "Feature",
      "geometry": {
        "type": "Point",
        "coordinates": [
          135.677615,
          34.366444
        ]
      },
      "properties": {
        "NO": 55680,
        "共通ID": "E2920700046111",
        "都道府県名及び市町村名": "奈良県五條市",
        "施設・場所名": "牧野小学校",
        "住所": "奈良県五條市中之町921",
        "指定緊急避難場所との住所同一": "1",
        "その他市町村長が必要と認める事項": null,
        "受入対象者": null,
        "備考": ""
      }
    },
    {
      "type": "Feature",
      "geometry": {
        "type": "Point",
        "coordinates": [
          135.682859,
          34.369848
        ]
      },
      "properties": {
        "NO": 55681,
        "共通ID": "E2920700047111",
        "都道府県名及び市町村名": "奈良県五條市",
        "施設・場所名": "田園体育館兼集会所",
        "住所": "奈良県五條市田園2-18-2",
        "指定緊急避難場所との住所同一": "1",
        "その他市町村長が必要と認める事項": null,
        "受入対象者": null,
        "備考": ""
      }
    },
    {
      "type": "Feature",
      "geometry": {
        "type": "Point",
        "coordinates": [
          135.688435,
          34.368631
        ]
      },
      "properties": {
        "NO": 55682,
        "共通ID": "E2920700049111",
        "都道府県名及び市町村名": "奈良県五條市",
        "施設・場所名": "田園公民館",
        "住所": "奈良県五條市田園4-14-3",
        "指定緊急避難場所との住所同一": "1",
        "その他市町村長が必要と認める事項": null,
        "受入対象者": null,
        "備考": ""
      }
    },
    {
      "type": "Feature",
      "geometry": {
        "type": "Point",
        "coordinates": [
          135.670624,
          34.30794
        ]
      },
      "properties": {
        "NO": 55683,
        "共通ID": "E2920700050111",
        "都道府県名及び市町村名": "奈良県五條市",
        "施設・場所名": "田殿集会所",
        "住所": "奈良県五條市田殿町245",
        "指定緊急避難場所との住所同一": "1",
        "その他市町村長が必要と認める事項": null,
        "受入対象者": null,
        "備考": ""
      }
    },
    {
      "type": "Feature",
      "geometry": {
        "type": "Point",
        "coordinates": [
          135.685858,
          34.344198
        ]
      },
      "properties": {
        "NO": 55684,
        "共通ID": "E2920700051111",
        "都道府県名及び市町村名": "奈良県五條市",
        "施設・場所名": "二見公民館",
        "住所": "奈良県五條市二見2-5-1",
        "指定緊急避難場所との住所同一": "1",
        "その他市町村長が必要と認める事項": null,
        "受入対象者": null,
        "備考": ""
      }
    },
    {
      "type": "Feature",
      "geometry": {
        "type": "Point",
        "coordinates": [
          135.67787,
          34.343845
        ]
      },
      "properties": {
        "NO": 55685,
        "共通ID": "E2920700054111",
        "都道府県名及び市町村名": "奈良県五條市",
        "施設・場所名": "二見文化体育センター",
        "住所": "奈良県五條市二見7-6-50",
        "指定緊急避難場所との住所同一": "1",
        "その他市町村長が必要と認める事項": null,
        "受入対象者": null,
        "備考": ""
      }
    },
    {
      "type": "Feature",
      "geometry": {
        "type": "Point",
        "coordinates": [
          135.692514,
          34.351617
        ]
      },
      "properties": {
        "NO": 55686,
        "共通ID": "E2920700055111",
        "都道府県名及び市町村名": "奈良県五條市",
        "施設・場所名": "五條小学校",
        "住所": "奈良県五條市本町1-1-4",
        "指定緊急避難場所との住所同一": "1",
        "その他市町村長が必要と認める事項": null,
        "受入対象者": null,
        "備考": ""
      }
    },
    {
      "type": "Feature",
      "geometry": {
        "type": "Point",
        "coordinates": [
          135.692031,
          34.353892
        ]
      },
      "properties": {
        "NO": 55687,
        "共通ID": "E2920700056111",
        "都道府県名及び市町村名": "奈良県五條市",
        "施設・場所名": "中央公民館",
        "住所": "奈良県五條市本町3-1-13",
        "指定緊急避難場所との住所同一": "1",
        "その他市町村長が必要と認める事項": null,
        "受入対象者": null,
        "備考": ""
      }
    },
    {
      "type": "Feature",
      "geometry": {
        "type": "Point",
        "coordinates": [
          135.702751,
          34.345115
        ]
      },
      "properties": {
        "NO": 55688,
        "共通ID": "E2920700058111",
        "都道府県名及び市町村名": "奈良県五條市",
        "施設・場所名": "野原公民館",
        "住所": "奈良県五條市野原西3-4-3",
        "指定緊急避難場所との住所同一": "1",
        "その他市町村長が必要と認める事項": null,
        "受入対象者": null,
        "備考": ""
      }
    },
    {
      "type": "Feature",
      "geometry": {
        "type": "Point",
        "coordinates": [
          135.697123,
          34.34229
        ]
      },
      "properties": {
        "NO": 55689,
        "共通ID": "E2920700059111",
        "都道府県名及び市町村名": "奈良県五條市",
        "施設・場所名": "保健福祉センター（カルム五條）（指定福祉避難所を除く）",
        "住所": "奈良県五條市野原西6-1-18",
        "指定緊急避難場所との住所同一": "",
        "その他市町村長が必要と認める事項": null,
        "受入対象者": null,
        "備考": ""
      }
    },
    {
      "type": "Feature",
      "geometry": {
        "type": "Point",
        "coordinates": [
          135.697123,
          34.34229
        ]
      },
      "properties": {
        "NO": 55690,
        "共通ID": "E2920700059121",
        "都道府県名及び市町村名": "奈良県五條市",
        "施設・場所名": "保健福祉センター（カルム五條）　（交流コーナー、図書室、待合スペース、カウンセリング室、健康相談室、生活指導室）",
        "住所": "奈良県五條市野原西6-1-18",
        "指定緊急避難場所との住所同一": "",
        "その他市町村長が必要と認める事項": null,
        "受入対象者": "乳幼児、妊婦およびその家族",
        "備考": ""
      }
    },
    {
      "type": "Feature",
      "geometry": {
        "type": "Point",
        "coordinates": [
          135.701885,
          34.340477
        ]
      },
      "properties": {
        "NO": 55691,
        "共通ID": "E2920700060111",
        "都道府県名及び市町村名": "奈良県五條市",
        "施設・場所名": "五條南小学校",
        "住所": "奈良県五條市野原中3-5-43",
        "指定緊急避難場所との住所同一": "1",
        "その他市町村長が必要と認める事項": null,
        "受入対象者": null,
        "備考": ""
      }
    },
    {
      "type": "Feature",
      "geometry": {
        "type": "Point",
        "coordinates": [
          135.701606,
          34.338767
        ]
      },
      "properties": {
        "NO": 55692,
        "共通ID": "E2920700061111",
        "都道府県名及び市町村名": "奈良県五條市",
        "施設・場所名": "旧野原小学校",
        "住所": "奈良県五條市野原中3-8-38",
        "指定緊急避難場所との住所同一": "1",
        "その他市町村長が必要と認める事項": null,
        "受入対象者": null,
        "備考": ""
      }
    },
    {
      "type": "Feature",
      "geometry": {
        "type": "Point",
        "coordinates": [
          135.705461,
          34.342604
        ]
      },
      "properties": {
        "NO": 55693,
        "共通ID": "E2920700062111",
        "都道府県名及び市町村名": "奈良県五條市",
        "施設・場所名": "智辯学園",
        "住所": "奈良県五條市野原中4-1-51",
        "指定緊急避難場所との住所同一": "1",
        "その他市町村長が必要と認める事項": null,
        "受入対象者": null,
        "備考": ""
      }
    },
    {
      "type": "Feature",
      "geometry": {
        "type": "Point",
        "coordinates": [
          135.716311,
          34.349387
        ]
      },
      "properties": {
        "NO": 55694,
        "共通ID": "E2920700064111",
        "都道府県名及び市町村名": "奈良県五條市",
        "施設・場所名": "野原東住民センター",
        "住所": "奈良県五條市野原東2-7-26",
        "指定緊急避難場所との住所同一": "1",
        "その他市町村長が必要と認める事項": null,
        "受入対象者": null,
        "備考": ""
      }
    },
    {
      "type": "Feature",
      "geometry": {
        "type": "Point",
        "coordinates": [
          135.701215,
          34.335375
        ]
      },
      "properties": {
        "NO": 55695,
        "共通ID": "E2920700065111",
        "都道府県名及び市町村名": "奈良県五條市",
        "施設・場所名": "南宇智公民館",
        "住所": "奈良県五條市霊安寺町2016-3",
        "指定緊急避難場所との住所同一": "1",
        "その他市町村長が必要と認める事項": null,
        "受入対象者": null,
        "備考": ""
      }
    }
  ]
}