{
  "type": "FeatureCollection",
  "name": "293636",
  "features": [
    {
      "type": "Feature",
      "geometry": {
        "type": "Point",
        "coordinates": [
          135.787866,
          34.55516
        ]
      },
      "properties": {
        "NO": 55951,
        "共通ID": "E2936300001111",
        "都道府県名及び市町村名": "奈良県田原本町",
        "施設・場所名": "磯城野高等学校",
        "住所": "奈良県田原本町258",
        "指定緊急避難場所との住所同一": "1",
        "その他市町村長が必要と認める事項": "",
        "受入対象者": "",
        "備考": ""
      }
    },
    {
      "type": "Feature",
      "geometry": {
        "type": "Point",
        "coordinates": [
          135.794165,
          34.550905
        ]
      },
      "properties": {
        "NO": 55952,
        "共通ID": "E2936300002111",
        "都道府県名及び市町村名": "奈良県田原本町",
        "施設・場所名": "田原本中学校",
        "住所": "奈良県田原本町33",
        "指定緊急避難場所との住所同一": "1",
        "その他市町村長が必要と認める事項": "",
        "受入対象者": "",
        "備考": ""
      }
    },
    {
      "type": "Feature",
      "geometry": {
        "type": "Point",
        "coordinates": [
          135.79148,
          34.53695
        ]
      },
      "properties": {
        "NO": 55953,
        "共通ID": "E2936300003111",
        "都道府県名及び市町村名": "奈良県田原本町",
        "施設・場所名": "高等養護学校",
        "住所": "奈良県田原本町宮森34-1",
        "指定緊急避難場所との住所同一": "1",
        "その他市町村長が必要と認める事項": "",
        "受入対象者": "",
        "備考": ""
      }
    },
    {
      "type": "Feature",
      "geometry": {
        "type": "Point",
        "coordinates": [
          135.769747,
          34.552828
        ]
      },
      "properties": {
        "NO": 55954,
        "共通ID": "E2936300004111",
        "都道府県名及び市町村名": "奈良県田原本町",
        "施設・場所名": "やすらぎ体育館",
        "住所": "奈良県田原本町金剛寺58-2",
        "指定緊急避難場所との住所同一": "1",
        "その他市町村長が必要と認める事項": "",
        "受入対象者": "",
        "備考": ""
      }
    },
    {
      "type": "Feature",
      "geometry": {
        "type": "Point",
        "coordinates": [
          135.800573,
          34.566931
        ]
      },
      "properties": {
        "NO": 55955,
        "共通ID": "E2936300005111",
        "都道府県名及び市町村名": "奈良県田原本町",
        "施設・場所名": "北小学校",
        "住所": "奈良県田原本町鍵155",
        "指定緊急避難場所との住所同一": "1",
        "その他市町村長が必要と認める事項": "",
        "受入対象者": "",
        "備考": ""
      }
    },
    {
      "type": "Feature",
      "geometry": {
        "type": "Point",
        "coordinates": [
          135.795446,
          34.565309
        ]
      },
      "properties": {
        "NO": 55956,
        "共通ID": "E2936300006111",
        "都道府県名及び市町村名": "奈良県田原本町",
        "施設・場所名": "北中学校",
        "住所": "奈良県田原本町鍵71",
        "指定緊急避難場所との住所同一": "1",
        "その他市町村長が必要と認める事項": "",
        "受入対象者": "",
        "備考": ""
      }
    },
    {
      "type": "Feature",
      "geometry": {
        "type": "Point",
        "coordinates": [
          135.802275,
          34.557654
        ]
      },
      "properties": {
        "NO": 55957,
        "共通ID": "E2936300007111",
        "都道府県名及び市町村名": "奈良県田原本町",
        "施設・場所名": "田原本青垣生涯センター",
        "住所": "奈良県田原本町阪手233-1",
        "指定緊急避難場所との住所同一": "1",
        "その他市町村長が必要と認める事項": "",
        "受入対象者": "",
        "備考": ""
      }
    },
    {
      "type": "Feature",
      "geometry": {
        "type": "Point",
        "coordinates": [
          135.797738,
          34.556031
        ]
      },
      "properties": {
        "NO": 55958,
        "共通ID": "E2936300008111",
        "都道府県名及び市町村名": "奈良県田原本町",
        "施設・場所名": "田原本町社会福祉協議会",
        "住所": "奈良県田原本町阪手336-1",
        "指定緊急避難場所との住所同一": "1",
        "その他市町村長が必要と認める事項": "",
        "受入対象者": "",
        "備考": ""
      }
    },
    {
      "type": "Feature",
      "geometry": {
        "type": "Point",
        "coordinates": [
          135.791188,
          34.558379
        ]
      },
      "properties": {
        "NO": 55959,
        "共通ID": "E2936300009111",
        "都道府県名及び市町村名": "奈良県田原本町",
        "施設・場所名": "田原本小学校",
        "住所": "奈良県田原本町新町48",
        "指定緊急避難場所との住所同一": "1",
        "その他市町村長が必要と認める事項": "",
        "受入対象者": "",
        "備考": ""
      }
    },
    {
      "type": "Feature",
      "geometry": {
        "type": "Point",
        "coordinates": [
          135.789844,
          34.539385
        ]
      },
      "properties": {
        "NO": 55960,
        "共通ID": "E2936300010111",
        "都道府県名及び市町村名": "奈良県田原本町",
        "施設・場所名": "奈良県立教育研究所",
        "住所": "奈良県田原本町秦庄22-1",
        "指定緊急避難場所との住所同一": "1",
        "その他市町村長が必要と認める事項": "",
        "受入対象者": "",
        "備考": ""
      }
    },
    {
      "type": "Feature",
      "geometry": {
        "type": "Point",
        "coordinates": [
          135.796116,
          34.541125
        ]
      },
      "properties": {
        "NO": 55961,
        "共通ID": "E2936300011111",
        "都道府県名及び市町村名": "奈良県田原本町",
        "施設・場所名": "南小学校",
        "住所": "奈良県田原本町千代306",
        "指定緊急避難場所との住所同一": "1",
        "その他市町村長が必要と認める事項": "",
        "受入対象者": "",
        "備考": ""
      }
    },
    {
      "type": "Feature",
      "geometry": {
        "type": "Point",
        "coordinates": [
          135.814322,
          34.548826
        ]
      },
      "properties": {
        "NO": 55962,
        "共通ID": "E2936300012111",
        "都道府県名及び市町村名": "奈良県田原本町",
        "施設・場所名": "東小学校",
        "住所": "奈良県田原本町大木1-1",
        "指定緊急避難場所との住所同一": "1",
        "その他市町村長が必要と認める事項": "",
        "受入対象者": "",
        "備考": ""
      }
    },
    {
      "type": "Feature",
      "geometry": {
        "type": "Point",
        "coordinates": [
          135.809707,
          34.556088
        ]
      },
      "properties": {
        "NO": 55963,
        "共通ID": "E2936300013111",
        "都道府県名及び市町村名": "奈良県田原本町",
        "施設・場所名": "中央体育館",
        "住所": "奈良県田原本町平田46",
        "指定緊急避難場所との住所同一": "1",
        "その他市町村長が必要と認める事項": "",
        "受入対象者": "",
        "備考": ""
      }
    },
    {
      "type": "Feature",
      "geometry": {
        "type": "Point",
        "coordinates": [
          135.774054,
          34.549864
        ]
      },
      "properties": {
        "NO": 55964,
        "共通ID": "E2936300014111",
        "都道府県名及び市町村名": "奈良県田原本町",
        "施設・場所名": "平野小学校",
        "住所": "奈良県田原本町平野62-3",
        "指定緊急避難場所との住所同一": "1",
        "その他市町村長が必要と認める事項": "",
        "受入対象者": "",
        "備考": ""
      }
    }
  ]
}