{
  "type": "FeatureCollection",
  "name": "294012",
  "features": [
    {
      "type": "Feature",
      "geometry": {
        "type": "Point",
        "coordinates": [
          135.792343,
          34.457572
        ]
      },
      "properties": {
        "NO": 55986,
        "共通ID": "E2940100009111",
        "都道府県名及び市町村名": "奈良県高取町",
        "施設・場所名": "奈良県立高取国際高等学校",
        "住所": "奈良県高取町大字佐田455-2",
        "指定緊急避難場所との住所同一": "1",
        "その他市町村長が必要と認める事項": null,
        "受入対象者": null,
        "備考": ""
      }
    },
    {
      "type": "Feature",
      "geometry": {
        "type": "Point",
        "coordinates": [
          135.789725,
          34.450588
        ]
      },
      "properties": {
        "NO": 55987,
        "共通ID": "E2940100016111",
        "都道府県名及び市町村名": "奈良県高取町",
        "施設・場所名": "高取中学校",
        "住所": "奈良県高取町大字森30",
        "指定緊急避難場所との住所同一": "1",
        "その他市町村長が必要と認める事項": null,
        "受入対象者": null,
        "備考": ""
      }
    },
    {
      "type": "Feature",
      "geometry": {
        "type": "Point",
        "coordinates": [
          135.795736,
          34.442612
        ]
      },
      "properties": {
        "NO": 55988,
        "共通ID": "E2940100030111",
        "都道府県名及び市町村名": "奈良県高取町",
        "施設・場所名": "たかとり幼稚園",
        "住所": "奈良県高取町大字清水谷111-3",
        "指定緊急避難場所との住所同一": "1",
        "その他市町村長が必要と認める事項": "",
        "受入対象者": "",
        "備考": ""
      }
    },
    {
      "type": "Feature",
      "geometry": {
        "type": "Point",
        "coordinates": [
          135.796434,
          34.442927
        ]
      },
      "properties": {
        "NO": 55989,
        "共通ID": "E2940100019111",
        "都道府県名及び市町村名": "奈良県高取町",
        "施設・場所名": "たかむち小学校",
        "住所": "奈良県高取町大字清水谷205",
        "指定緊急避難場所との住所同一": "1",
        "その他市町村長が必要と認める事項": null,
        "受入対象者": null,
        "備考": ""
      }
    },
    {
      "type": "Feature",
      "geometry": {
        "type": "Point",
        "coordinates": [
          135.776382,
          34.447102
        ]
      },
      "properties": {
        "NO": 55990,
        "共通ID": "E2940100031111",
        "都道府県名及び市町村名": "奈良県高取町",
        "施設・場所名": "地域交流スペースいくせい",
        "住所": "奈良県高取町大字兵庫202",
        "指定緊急避難場所との住所同一": "1",
        "その他市町村長が必要と認める事項": "",
        "受入対象者": "",
        "備考": ""
      }
    }
  ]
}