{
  "type": "FeatureCollection",
  "name": "294446",
  "features": [
    {
      "type": "Feature",
      "geometry": {
        "type": "Point",
        "coordinates": [
          135.827469,
          34.311993
        ]
      },
      "properties": {
        "NO": 56257,
        "共通ID": "E2944400001111",
        "都道府県名及び市町村名": "奈良県黒滝村",
        "施設・場所名": "黒滝森物語村",
        "住所": "奈良県黒滝村大字粟飯谷1",
        "指定緊急避難場所との住所同一": "",
        "その他市町村長が必要と認める事項": null,
        "受入対象者": null,
        "備考": ""
      }
    },
    {
      "type": "Feature",
      "geometry": {
        "type": "Point",
        "coordinates": [
          135.837937,
          34.324754
        ]
      },
      "properties": {
        "NO": 56258,
        "共通ID": "E2944400002111",
        "都道府県名及び市町村名": "奈良県黒滝村",
        "施設・場所名": "粟飯谷地区集会所",
        "住所": "奈良県黒滝村大字粟飯谷224",
        "指定緊急避難場所との住所同一": "",
        "その他市町村長が必要と認める事項": null,
        "受入対象者": null,
        "備考": ""
      }
    },
    {
      "type": "Feature",
      "geometry": {
        "type": "Point",
        "coordinates": [
          135.829152,
          34.28354
        ]
      },
      "properties": {
        "NO": 56259,
        "共通ID": "E2944400021111",
        "都道府県名及び市町村名": "奈良県黒滝村",
        "施設・場所名": "祐光寺",
        "住所": "奈良県黒滝村大字笠木660",
        "指定緊急避難場所との住所同一": "",
        "その他市町村長が必要と認める事項": "",
        "受入対象者": "",
        "備考": ""
      }
    },
    {
      "type": "Feature",
      "geometry": {
        "type": "Point",
        "coordinates": [
          135.826144,
          34.297981
        ]
      },
      "properties": {
        "NO": 56260,
        "共通ID": "E2944400004111",
        "都道府県名及び市町村名": "奈良県黒滝村",
        "施設・場所名": "笠木・桂原・長瀬地区集会所",
        "住所": "奈良県黒滝村大字桂原118-1",
        "指定緊急避難場所との住所同一": "",
        "その他市町村長が必要と認める事項": null,
        "受入対象者": null,
        "備考": ""
      }
    },
    {
      "type": "Feature",
      "geometry": {
        "type": "Point",
        "coordinates": [
          135.83333,
          34.31024
        ]
      },
      "properties": {
        "NO": 56261,
        "共通ID": "E2944400005111",
        "都道府県名及び市町村名": "奈良県黒滝村",
        "施設・場所名": "御吉野・長瀬地区老人憩の家",
        "住所": "奈良県黒滝村大字御吉野139",
        "指定緊急避難場所との住所同一": "",
        "その他市町村長が必要と認める事項": null,
        "受入対象者": null,
        "備考": ""
      }
    },
    {
      "type": "Feature",
      "geometry": {
        "type": "Point",
        "coordinates": [
          135.850122,
          34.310815
        ]
      },
      "properties": {
        "NO": 56262,
        "共通ID": "E2944400006121",
        "都道府県名及び市町村名": "奈良県黒滝村",
        "施設・場所名": "黒滝村デイサービスセンター",
        "住所": "奈良県黒滝村大字寺戸187-2",
        "指定緊急避難場所との住所同一": "",
        "その他市町村長が必要と認める事項": null,
        "受入対象者": "要配慮者等",
        "備考": ""
      }
    },
    {
      "type": "Feature",
      "geometry": {
        "type": "Point",
        "coordinates": [
          135.848482,
          34.30896
        ]
      },
      "properties": {
        "NO": 56263,
        "共通ID": "E2944400007111",
        "都道府県名及び市町村名": "奈良県黒滝村",
        "施設・場所名": "寺戸地区老人憩の家",
        "住所": "奈良県黒滝村大字寺戸306",
        "指定緊急避難場所との住所同一": "",
        "その他市町村長が必要と認める事項": null,
        "受入対象者": null,
        "備考": ""
      }
    },
    {
      "type": "Feature",
      "geometry": {
        "type": "Point",
        "coordinates": [
          135.852432,
          34.310644
        ]
      },
      "properties": {
        "NO": 56264,
        "共通ID": "E2944400008111",
        "都道府県名及び市町村名": "奈良県黒滝村",
        "施設・場所名": "黒滝小学校・中学校",
        "住所": "奈良県黒滝村大字寺戸41",
        "指定緊急避難場所との住所同一": "1",
        "その他市町村長が必要と認める事項": null,
        "受入対象者": null,
        "備考": ""
      }
    },
    {
      "type": "Feature",
      "geometry": {
        "type": "Point",
        "coordinates": [
          135.842877,
          34.308943
        ]
      },
      "properties": {
        "NO": 56265,
        "共通ID": "E2944400009121",
        "都道府県名及び市町村名": "奈良県黒滝村",
        "施設・場所名": "黒滝こども園",
        "住所": "奈良県黒滝村大字寺戸421",
        "指定緊急避難場所との住所同一": "",
        "その他市町村長が必要と認める事項": null,
        "受入対象者": "要配慮者等",
        "備考": ""
      }
    },
    {
      "type": "Feature",
      "geometry": {
        "type": "Point",
        "coordinates": [
          135.851932,
          34.310633
        ]
      },
      "properties": {
        "NO": 56266,
        "共通ID": "E2944400010111",
        "都道府県名及び市町村名": "奈良県黒滝村",
        "施設・場所名": "黒滝村農林トレーニングセンター",
        "住所": "奈良県黒滝村大字寺戸47-1",
        "指定緊急避難場所との住所同一": "1",
        "その他市町村長が必要と認める事項": null,
        "受入対象者": null,
        "備考": ""
      }
    },
    {
      "type": "Feature",
      "geometry": {
        "type": "Point",
        "coordinates": [
          135.88326,
          34.302931
        ]
      },
      "properties": {
        "NO": 56267,
        "共通ID": "E2944400011111",
        "都道府県名及び市町村名": "奈良県黒滝村",
        "施設・場所名": "赤滝・上平地区集会施設",
        "住所": "奈良県黒滝村大字赤滝83-1",
        "指定緊急避難場所との住所同一": "",
        "その他市町村長が必要と認める事項": null,
        "受入対象者": null,
        "備考": ""
      }
    },
    {
      "type": "Feature",
      "geometry": {
        "type": "Point",
        "coordinates": [
          135.863532,
          34.30571
        ]
      },
      "properties": {
        "NO": 56268,
        "共通ID": "E2944400012111",
        "都道府県名及び市町村名": "奈良県黒滝村",
        "施設・場所名": "上中戸地区老人憩の家",
        "住所": "奈良県黒滝村大字中戸1058-2",
        "指定緊急避難場所との住所同一": "",
        "その他市町村長が必要と認める事項": null,
        "受入対象者": null,
        "備考": ""
      }
    },
    {
      "type": "Feature",
      "geometry": {
        "type": "Point",
        "coordinates": [
          135.85822,
          34.306429
        ]
      },
      "properties": {
        "NO": 56269,
        "共通ID": "E2944400013111",
        "都道府県名及び市町村名": "奈良県黒滝村",
        "施設・場所名": "中戸自治会館",
        "住所": "奈良県黒滝村大字中戸1460",
        "指定緊急避難場所との住所同一": "",
        "その他市町村長が必要と認める事項": null,
        "受入対象者": null,
        "備考": ""
      }
    },
    {
      "type": "Feature",
      "geometry": {
        "type": "Point",
        "coordinates": [
          135.854419,
          34.307316
        ]
      },
      "properties": {
        "NO": 56270,
        "共通ID": "E2944400014111",
        "都道府県名及び市町村名": "奈良県黒滝村",
        "施設・場所名": "川戸地区老人憩の家",
        "住所": "奈良県黒滝村大字中戸390",
        "指定緊急避難場所との住所同一": "",
        "その他市町村長が必要と認める事項": null,
        "受入対象者": null,
        "備考": ""
      }
    },
    {
      "type": "Feature",
      "geometry": {
        "type": "Point",
        "coordinates": [
          135.871768,
          34.304016
        ]
      },
      "properties": {
        "NO": 56271,
        "共通ID": "E2944400015111",
        "都道府県名及び市町村名": "奈良県黒滝村",
        "施設・場所名": "光徳寺",
        "住所": "奈良県黒滝村大字中戸778",
        "指定緊急避難場所との住所同一": "",
        "その他市町村長が必要と認める事項": null,
        "受入対象者": null,
        "備考": ""
      }
    },
    {
      "type": "Feature",
      "geometry": {
        "type": "Point",
        "coordinates": [
          135.823239,
          34.307438
        ]
      },
      "properties": {
        "NO": 56272,
        "共通ID": "E2944400016111",
        "都道府県名及び市町村名": "奈良県黒滝村",
        "施設・場所名": "長瀬地区集会所",
        "住所": "奈良県黒滝村大字長瀬83-1",
        "指定緊急避難場所との住所同一": "1",
        "その他市町村長が必要と認める事項": null,
        "受入対象者": null,
        "備考": ""
      }
    },
    {
      "type": "Feature",
      "geometry": {
        "type": "Point",
        "coordinates": [
          135.860722,
          34.330744
        ]
      },
      "properties": {
        "NO": 56273,
        "共通ID": "E2944400017111",
        "都道府県名及び市町村名": "奈良県黒滝村",
        "施設・場所名": "鳥住地区集会所",
        "住所": "奈良県黒滝村大字鳥住236",
        "指定緊急避難場所との住所同一": "",
        "その他市町村長が必要と認める事項": null,
        "受入対象者": null,
        "備考": ""
      }
    },
    {
      "type": "Feature",
      "geometry": {
        "type": "Point",
        "coordinates": [
          135.836446,
          34.307212
        ]
      },
      "properties": {
        "NO": 56274,
        "共通ID": "E2944400018111",
        "都道府県名及び市町村名": "奈良県黒滝村",
        "施設・場所名": "堂原地区老人憩の家",
        "住所": "奈良県黒滝村大字堂原381",
        "指定緊急避難場所との住所同一": "",
        "その他市町村長が必要と認める事項": null,
        "受入対象者": null,
        "備考": ""
      }
    },
    {
      "type": "Feature",
      "geometry": {
        "type": "Point",
        "coordinates": [
          135.87466,
          34.326907
        ]
      },
      "properties": {
        "NO": 56275,
        "共通ID": "E2944400019111",
        "都道府県名及び市町村名": "奈良県黒滝村",
        "施設・場所名": "槙尾地域防災拠点施設",
        "住所": "奈良県黒滝村大字槙尾103",
        "指定緊急避難場所との住所同一": "",
        "その他市町村長が必要と認める事項": null,
        "受入対象者": null,
        "備考": ""
      }
    },
    {
      "type": "Feature",
      "geometry": {
        "type": "Point",
        "coordinates": [
          135.857828,
          34.314899
        ]
      },
      "properties": {
        "NO": 56276,
        "共通ID": "E2944400020111",
        "都道府県名及び市町村名": "奈良県黒滝村",
        "施設・場所名": "脇川地区集会所",
        "住所": "奈良県黒滝村大字脇川335",
        "指定緊急避難場所との住所同一": "",
        "その他市町村長が必要と認める事項": null,
        "受入対象者": null,
        "備考": ""
      }
    }
  ]
}