{
  "type": "FeatureCollection",
  "name": "294411",
  "features": [
    {
      "type": "Feature",
      "geometry": {
        "type": "Point",
        "coordinates": [
          135.872819,
          34.394022
        ]
      },
      "properties": {
        "NO": 56098,
        "共通ID": "E2944100001111",
        "都道府県名及び市町村名": "奈良県吉野町",
        "施設・場所名": "河原屋公民館",
        "住所": "奈良県吉野町河原屋139",
        "指定緊急避難場所との住所同一": "1",
        "その他市町村長が必要と認める事項": null,
        "受入対象者": null,
        "備考": ""
      }
    },
    {
      "type": "Feature",
      "geometry": {
        "type": "Point",
        "coordinates": [
          135.873592,
          34.395957
        ]
      },
      "properties": {
        "NO": 56099,
        "共通ID": "E2944100002111",
        "都道府県名及び市町村名": "奈良県吉野町",
        "施設・場所名": "吉野中学校",
        "住所": "奈良県吉野町河原屋200",
        "指定緊急避難場所との住所同一": "1",
        "その他市町村長が必要と認める事項": null,
        "受入対象者": null,
        "備考": ""
      }
    },
    {
      "type": "Feature",
      "geometry": {
        "type": "Point",
        "coordinates": [
          135.907554,
          34.376806
        ]
      },
      "properties": {
        "NO": 56100,
        "共通ID": "E2944100003111",
        "都道府県名及び市町村名": "奈良県吉野町",
        "施設・場所名": "樫尾林業研修会館",
        "住所": "奈良県吉野町樫尾127-2",
        "指定緊急避難場所との住所同一": "1",
        "その他市町村長が必要と認める事項": null,
        "受入対象者": null,
        "備考": ""
      }
    },
    {
      "type": "Feature",
      "geometry": {
        "type": "Point",
        "coordinates": [
          135.890639,
          34.366163
        ]
      },
      "properties": {
        "NO": 56101,
        "共通ID": "E2944100004111",
        "都道府県名及び市町村名": "奈良県吉野町",
        "施設・場所名": "喜佐谷多目的研修会館",
        "住所": "奈良県吉野町喜佐谷152",
        "指定緊急避難場所との住所同一": "1",
        "その他市町村長が必要と認める事項": null,
        "受入対象者": null,
        "備考": ""
      }
    },
    {
      "type": "Feature",
      "geometry": {
        "type": "Point",
        "coordinates": [
          135.859623,
          34.36735
        ]
      },
      "properties": {
        "NO": 56102,
        "共通ID": "E2944100005111",
        "都道府県名及び市町村名": "奈良県吉野町",
        "施設・場所名": "吉野山ビジターセンター",
        "住所": "奈良県吉野町吉野山2430",
        "指定緊急避難場所との住所同一": "1",
        "その他市町村長が必要と認める事項": null,
        "受入対象者": null,
        "備考": ""
      }
    },
    {
      "type": "Feature",
      "geometry": {
        "type": "Point",
        "coordinates": [
          135.857273,
          34.369084
        ]
      },
      "properties": {
        "NO": 56103,
        "共通ID": "E2944100006111",
        "都道府県名及び市町村名": "奈良県吉野町",
        "施設・場所名": "吉野山ふるさとセンター",
        "住所": "奈良県吉野町吉野山2548-1",
        "指定緊急避難場所との住所同一": "1",
        "その他市町村長が必要と認める事項": null,
        "受入対象者": null,
        "備考": ""
      }
    },
    {
      "type": "Feature",
      "geometry": {
        "type": "Point",
        "coordinates": [
          135.894541,
          34.376528
        ]
      },
      "properties": {
        "NO": 56104,
        "共通ID": "E2944100008111",
        "都道府県名及び市町村名": "奈良県吉野町",
        "施設・場所名": "吉野町野外活動拠点施設",
        "住所": "奈良県吉野町宮滝103",
        "指定緊急避難場所との住所同一": "1",
        "その他市町村長が必要と認める事項": null,
        "受入対象者": null,
        "備考": ""
      }
    },
    {
      "type": "Feature",
      "geometry": {
        "type": "Point",
        "coordinates": [
          135.892819,
          34.377437
        ]
      },
      "properties": {
        "NO": 56105,
        "共通ID": "E2944100009111",
        "都道府県名及び市町村名": "奈良県吉野町",
        "施設・場所名": "中荘総合研修会館",
        "住所": "奈良県吉野町宮滝229-2",
        "指定緊急避難場所との住所同一": "1",
        "その他市町村長が必要と認める事項": null,
        "受入対象者": null,
        "備考": ""
      }
    },
    {
      "type": "Feature",
      "geometry": {
        "type": "Point",
        "coordinates": [
          135.896354,
          34.376593
        ]
      },
      "properties": {
        "NO": 56106,
        "共通ID": "E2944100010111",
        "都道府県名及び市町村名": "奈良県吉野町",
        "施設・場所名": "宮滝河川交流センター",
        "住所": "奈良県吉野町宮滝82-1",
        "指定緊急避難場所との住所同一": "1",
        "その他市町村長が必要と認める事項": null,
        "受入対象者": null,
        "備考": ""
      }
    },
    {
      "type": "Feature",
      "geometry": {
        "type": "Point",
        "coordinates": [
          135.842172,
          34.391343
        ]
      },
      "properties": {
        "NO": 56107,
        "共通ID": "E2944100011111",
        "都道府県名及び市町村名": "奈良県吉野町",
        "施設・場所名": "橋屋林業研修会館",
        "住所": "奈良県吉野町橋屋202",
        "指定緊急避難場所との住所同一": "1",
        "その他市町村長が必要と認める事項": null,
        "受入対象者": null,
        "備考": ""
      }
    },
    {
      "type": "Feature",
      "geometry": {
        "type": "Point",
        "coordinates": [
          135.928185,
          34.388488
        ]
      },
      "properties": {
        "NO": 56108,
        "共通ID": "E2944100012111",
        "都道府県名及び市町村名": "奈良県吉野町",
        "施設・場所名": "（旧）国栖幼稚園",
        "住所": "奈良県吉野町窪垣内49-1",
        "指定緊急避難場所との住所同一": "1",
        "その他市町村長が必要と認める事項": null,
        "受入対象者": null,
        "備考": ""
      }
    },
    {
      "type": "Feature",
      "geometry": {
        "type": "Point",
        "coordinates": [
          135.887861,
          34.377562
        ]
      },
      "properties": {
        "NO": 56109,
        "共通ID": "E2944100013111",
        "都道府県名及び市町村名": "奈良県吉野町",
        "施設・場所名": "御園多目的集会所",
        "住所": "奈良県吉野町御園362",
        "指定緊急避難場所との住所同一": "1",
        "その他市町村長が必要と認める事項": null,
        "受入対象者": null,
        "備考": ""
      }
    },
    {
      "type": "Feature",
      "geometry": {
        "type": "Point",
        "coordinates": [
          135.903989,
          34.418846
        ]
      },
      "properties": {
        "NO": 56110,
        "共通ID": "E2944100014111",
        "都道府県名及び市町村名": "奈良県吉野町",
        "施設・場所名": "香束多目的集会場",
        "住所": "奈良県吉野町香束643-1",
        "指定緊急避難場所との住所同一": "1",
        "その他市町村長が必要と認める事項": null,
        "受入対象者": null,
        "備考": ""
      }
    },
    {
      "type": "Feature",
      "geometry": {
        "type": "Point",
        "coordinates": [
          135.933207,
          34.385806
        ]
      },
      "properties": {
        "NO": 56111,
        "共通ID": "E2944100015111",
        "都道府県名及び市町村名": "奈良県吉野町",
        "施設・場所名": "国栖公民館",
        "住所": "奈良県吉野町国栖281",
        "指定緊急避難場所との住所同一": "1",
        "その他市町村長が必要と認める事項": null,
        "受入対象者": null,
        "備考": ""
      }
    },
    {
      "type": "Feature",
      "geometry": {
        "type": "Point",
        "coordinates": [
          135.882222,
          34.409555
        ]
      },
      "properties": {
        "NO": 56112,
        "共通ID": "E2944100016111",
        "都道府県名及び市町村名": "奈良県吉野町",
        "施設・場所名": "佐々羅農事集会所",
        "住所": "奈良県吉野町佐々羅119-2",
        "指定緊急避難場所との住所同一": "1",
        "その他市町村長が必要と認める事項": null,
        "受入対象者": null,
        "備考": ""
      }
    },
    {
      "type": "Feature",
      "geometry": {
        "type": "Point",
        "coordinates": [
          135.880503,
          34.409729
        ]
      },
      "properties": {
        "NO": 56113,
        "共通ID": "E2944100017111",
        "都道府県名及び市町村名": "奈良県吉野町",
        "施設・場所名": "龍門総合会館",
        "住所": "奈良県吉野町佐々羅174",
        "指定緊急避難場所との住所同一": "1",
        "その他市町村長が必要と認める事項": null,
        "受入対象者": null,
        "備考": ""
      }
    },
    {
      "type": "Feature",
      "geometry": {
        "type": "Point",
        "coordinates": [
          135.877994,
          34.409433
        ]
      },
      "properties": {
        "NO": 56114,
        "共通ID": "E2944100018111",
        "都道府県名及び市町村名": "奈良県吉野町",
        "施設・場所名": "佐々羅公民館",
        "住所": "奈良県吉野町佐々羅446",
        "指定緊急避難場所との住所同一": "1",
        "その他市町村長が必要と認める事項": null,
        "受入対象者": null,
        "備考": ""
      }
    },
    {
      "type": "Feature",
      "geometry": {
        "type": "Point",
        "coordinates": [
          135.837115,
          34.386811
        ]
      },
      "properties": {
        "NO": 56115,
        "共通ID": "E2944100019111",
        "都道府県名及び市町村名": "奈良県吉野町",
        "施設・場所名": "左曽交流促進センター",
        "住所": "奈良県吉野町左曽80-1",
        "指定緊急避難場所との住所同一": "1",
        "その他市町村長が必要と認める事項": null,
        "受入対象者": null,
        "備考": ""
      }
    },
    {
      "type": "Feature",
      "geometry": {
        "type": "Point",
        "coordinates": [
          135.900075,
          34.382184
        ]
      },
      "properties": {
        "NO": 56116,
        "共通ID": "E2944100020111",
        "都道府県名及び市町村名": "奈良県吉野町",
        "施設・場所名": "菜摘ふれあいセンター",
        "住所": "奈良県吉野町菜摘237-1",
        "指定緊急避難場所との住所同一": "1",
        "その他市町村長が必要と認める事項": null,
        "受入対象者": null,
        "備考": ""
      }
    },
    {
      "type": "Feature",
      "geometry": {
        "type": "Point",
        "coordinates": [
          135.937951,
          34.421337
        ]
      },
      "properties": {
        "NO": 56117,
        "共通ID": "E2944100021111",
        "都道府県名及び市町村名": "奈良県吉野町",
        "施設・場所名": "吉野見附「三茶屋」",
        "住所": "奈良県吉野町三茶屋328-1",
        "指定緊急避難場所との住所同一": "1",
        "その他市町村長が必要と認める事項": null,
        "受入対象者": null,
        "備考": ""
      }
    },
    {
      "type": "Feature",
      "geometry": {
        "type": "Point",
        "coordinates": [
          135.937517,
          34.421656
        ]
      },
      "properties": {
        "NO": 56118,
        "共通ID": "E2944100022111",
        "都道府県名及び市町村名": "奈良県吉野町",
        "施設・場所名": "三茶屋生活改善センター",
        "住所": "奈良県吉野町三茶屋333-3",
        "指定緊急避難場所との住所同一": "1",
        "その他市町村長が必要と認める事項": null,
        "受入対象者": null,
        "備考": ""
      }
    },
    {
      "type": "Feature",
      "geometry": {
        "type": "Point",
        "coordinates": [
          135.883463,
          34.444495
        ]
      },
      "properties": {
        "NO": 56119,
        "共通ID": "E2944100023111",
        "都道府県名及び市町村名": "奈良県吉野町",
        "施設・場所名": "三津ひばり会館",
        "住所": "奈良県吉野町三津112",
        "指定緊急避難場所との住所同一": "1",
        "その他市町村長が必要と認める事項": null,
        "受入対象者": null,
        "備考": ""
      }
    },
    {
      "type": "Feature",
      "geometry": {
        "type": "Point",
        "coordinates": [
          135.890582,
          34.414447
        ]
      },
      "properties": {
        "NO": 56120,
        "共通ID": "E2944100024111",
        "都道府県名及び市町村名": "奈良県吉野町",
        "施設・場所名": "山口研修会館",
        "住所": "奈良県吉野町山口485-3",
        "指定緊急避難場所との住所同一": "1",
        "その他市町村長が必要と認める事項": null,
        "受入対象者": null,
        "備考": ""
      }
    },
    {
      "type": "Feature",
      "geometry": {
        "type": "Point",
        "coordinates": [
          135.892085,
          34.411973
        ]
      },
      "properties": {
        "NO": 56121,
        "共通ID": "E2944100025111",
        "都道府県名及び市町村名": "奈良県吉野町",
        "施設・場所名": "吉野運動公園総合体育館",
        "住所": "奈良県吉野町山口910",
        "指定緊急避難場所との住所同一": "1",
        "その他市町村長が必要と認める事項": null,
        "受入対象者": null,
        "備考": ""
      }
    },
    {
      "type": "Feature",
      "geometry": {
        "type": "Point",
        "coordinates": [
          135.872198,
          34.408376
        ]
      },
      "properties": {
        "NO": 56122,
        "共通ID": "E2944100026111",
        "都道府県名及び市町村名": "奈良県吉野町",
        "施設・場所名": "志賀公民館",
        "住所": "奈良県吉野町志賀862-2",
        "指定緊急避難場所との住所同一": "1",
        "その他市町村長が必要と認める事項": null,
        "受入対象者": null,
        "備考": ""
      }
    },
    {
      "type": "Feature",
      "geometry": {
        "type": "Point",
        "coordinates": [
          135.952888,
          34.423025
        ]
      },
      "properties": {
        "NO": 56123,
        "共通ID": "E2944100027111",
        "都道府県名及び市町村名": "奈良県吉野町",
        "施設・場所名": "小名集会所",
        "住所": "奈良県吉野町小名152",
        "指定緊急避難場所との住所同一": "1",
        "その他市町村長が必要と認める事項": null,
        "受入対象者": null,
        "備考": ""
      }
    },
    {
      "type": "Feature",
      "geometry": {
        "type": "Point",
        "coordinates": [
          135.953547,
          34.416149
        ]
      },
      "properties": {
        "NO": 56124,
        "共通ID": "E2944100028111",
        "都道府県名及び市町村名": "奈良県吉野町",
        "施設・場所名": "殿川多目的集会場",
        "住所": "奈良県吉野町小名952",
        "指定緊急避難場所との住所同一": "1",
        "その他市町村長が必要と認める事項": null,
        "受入対象者": null,
        "備考": ""
      }
    },
    {
      "type": "Feature",
      "geometry": {
        "type": "Point",
        "coordinates": [
          135.857162,
          34.395962
        ]
      },
      "properties": {
        "NO": 56125,
        "共通ID": "E2944100029111",
        "都道府県名及び市町村名": "奈良県吉野町",
        "施設・場所名": "吉野町中央公民館",
        "住所": "奈良県吉野町上市133",
        "指定緊急避難場所との住所同一": "1",
        "その他市町村長が必要と認める事項": null,
        "受入対象者": null,
        "備考": ""
      }
    },
    {
      "type": "Feature",
      "geometry": {
        "type": "Point",
        "coordinates": [
          135.846274,
          34.395188
        ]
      },
      "properties": {
        "NO": 56126,
        "共通ID": "E2944100030111",
        "都道府県名及び市町村名": "奈良県吉野町",
        "施設・場所名": "尾仁山憩の家",
        "住所": "奈良県吉野町上市2067-4",
        "指定緊急避難場所との住所同一": "1",
        "その他市町村長が必要と認める事項": null,
        "受入対象者": null,
        "備考": ""
      }
    },
    {
      "type": "Feature",
      "geometry": {
        "type": "Point",
        "coordinates": [
          135.850534,
          34.392612
        ]
      },
      "properties": {
        "NO": 56127,
        "共通ID": "E2944100031111",
        "都道府県名及び市町村名": "奈良県吉野町",
        "施設・場所名": "吉野小学校",
        "住所": "奈良県吉野町上市2298",
        "指定緊急避難場所との住所同一": "1",
        "その他市町村長が必要と認める事項": null,
        "受入対象者": null,
        "備考": ""
      }
    },
    {
      "type": "Feature",
      "geometry": {
        "type": "Point",
        "coordinates": [
          135.859496,
          34.398883
        ]
      },
      "properties": {
        "NO": 56128,
        "共通ID": "E2944100032111",
        "都道府県名及び市町村名": "奈良県吉野町",
        "施設・場所名": "上ノ町集会所",
        "住所": "奈良県吉野町上市28-1",
        "指定緊急避難場所との住所同一": "1",
        "その他市町村長が必要と認める事項": null,
        "受入対象者": null,
        "備考": ""
      }
    },
    {
      "type": "Feature",
      "geometry": {
        "type": "Point",
        "coordinates": [
          135.854895,
          34.396074
        ]
      },
      "properties": {
        "NO": 56129,
        "共通ID": "E2944100033111",
        "都道府県名及び市町村名": "奈良県吉野町",
        "施設・場所名": "本町老人憩の家",
        "住所": "奈良県吉野町上市338",
        "指定緊急避難場所との住所同一": "1",
        "その他市町村長が必要と認める事項": null,
        "受入対象者": null,
        "備考": ""
      }
    },
    {
      "type": "Feature",
      "geometry": {
        "type": "Point",
        "coordinates": [
          135.931905,
          34.411098
        ]
      },
      "properties": {
        "NO": 56130,
        "共通ID": "E2944100034111",
        "都道府県名及び市町村名": "奈良県吉野町",
        "施設・場所名": "色生生活改善センター",
        "住所": "奈良県吉野町色生290-1",
        "指定緊急避難場所との住所同一": "1",
        "その他市町村長が必要と認める事項": null,
        "受入対象者": null,
        "備考": ""
      }
    },
    {
      "type": "Feature",
      "geometry": {
        "type": "Point",
        "coordinates": [
          135.926421,
          34.387204
        ]
      },
      "properties": {
        "NO": 56131,
        "共通ID": "E2944100035111",
        "都道府県名及び市町村名": "奈良県吉野町",
        "施設・場所名": "国栖中央公民館（国栖の里総合センター）",
        "住所": "奈良県吉野町新子281",
        "指定緊急避難場所との住所同一": "1",
        "その他市町村長が必要と認める事項": null,
        "受入対象者": null,
        "備考": ""
      }
    },
    {
      "type": "Feature",
      "geometry": {
        "type": "Point",
        "coordinates": [
          135.928163,
          34.386041
        ]
      },
      "properties": {
        "NO": 56132,
        "共通ID": "E2944100036111",
        "都道府県名及び市町村名": "奈良県吉野町",
        "施設・場所名": "新子清水ふれあいセンター",
        "住所": "奈良県吉野町新子355",
        "指定緊急避難場所との住所同一": "1",
        "その他市町村長が必要と認める事項": null,
        "受入対象者": null,
        "備考": ""
      }
    },
    {
      "type": "Feature",
      "geometry": {
        "type": "Point",
        "coordinates": [
          135.881256,
          34.413619
        ]
      },
      "properties": {
        "NO": 56133,
        "共通ID": "E2944100037111",
        "都道府県名及び市町村名": "奈良県吉野町",
        "施設・場所名": "西谷農事集会所",
        "住所": "奈良県吉野町西谷767",
        "指定緊急避難場所との住所同一": "1",
        "その他市町村長が必要と認める事項": null,
        "受入対象者": null,
        "備考": ""
      }
    },
    {
      "type": "Feature",
      "geometry": {
        "type": "Point",
        "coordinates": [
          135.860403,
          34.411908
        ]
      },
      "properties": {
        "NO": 56134,
        "共通ID": "E2944100038111",
        "都道府県名及び市町村名": "奈良県吉野町",
        "施設・場所名": "千股生活改善センター",
        "住所": "奈良県吉野町千股354-1",
        "指定緊急避難場所との住所同一": "1",
        "その他市町村長が必要と認める事項": null,
        "受入対象者": null,
        "備考": ""
      }
    },
    {
      "type": "Feature",
      "geometry": {
        "type": "Point",
        "coordinates": [
          135.850086,
          34.389221
        ]
      },
      "properties": {
        "NO": 56135,
        "共通ID": "E2944100041111",
        "都道府県名及び市町村名": "奈良県吉野町",
        "施設・場所名": "丹治公民館",
        "住所": "奈良県吉野町丹治955",
        "指定緊急避難場所との住所同一": "1",
        "その他市町村長が必要と認める事項": null,
        "受入対象者": null,
        "備考": ""
      }
    },
    {
      "type": "Feature",
      "geometry": {
        "type": "Point",
        "coordinates": [
          135.881846,
          34.385699
        ]
      },
      "properties": {
        "NO": 56136,
        "共通ID": "E2944100042111",
        "都道府県名及び市町村名": "奈良県吉野町",
        "施設・場所名": "楢井老人憩の家",
        "住所": "奈良県吉野町楢井388",
        "指定緊急避難場所との住所同一": "1",
        "その他市町村長が必要と認める事項": null,
        "受入対象者": null,
        "備考": ""
      }
    },
    {
      "type": "Feature",
      "geometry": {
        "type": "Point",
        "coordinates": [
          135.886596,
          34.383224
        ]
      },
      "properties": {
        "NO": 56137,
        "共通ID": "E2944100043111",
        "都道府県名及び市町村名": "奈良県吉野町",
        "施設・場所名": "吉野町老人福祉センター",
        "住所": "奈良県吉野町楢井587",
        "指定緊急避難場所との住所同一": "1",
        "その他市町村長が必要と認める事項": null,
        "受入対象者": null,
        "備考": ""
      }
    },
    {
      "type": "Feature",
      "geometry": {
        "type": "Point",
        "coordinates": [
          135.928121,
          34.379488
        ]
      },
      "properties": {
        "NO": 56138,
        "共通ID": "E2944100044111",
        "都道府県名及び市町村名": "奈良県吉野町",
        "施設・場所名": "南国栖自治会館",
        "住所": "奈良県吉野町南国栖415",
        "指定緊急避難場所との住所同一": "1",
        "その他市町村長が必要と認める事項": null,
        "受入対象者": null,
        "備考": ""
      }
    },
    {
      "type": "Feature",
      "geometry": {
        "type": "Point",
        "coordinates": [
          135.920311,
          34.388774
        ]
      },
      "properties": {
        "NO": 56139,
        "共通ID": "E2944100045111",
        "都道府県名及び市町村名": "奈良県吉野町",
        "施設・場所名": "南大野八坂会館",
        "住所": "奈良県吉野町南大野224-2",
        "指定緊急避難場所との住所同一": "1",
        "その他市町村長が必要と認める事項": null,
        "受入対象者": null,
        "備考": ""
      }
    },
    {
      "type": "Feature",
      "geometry": {
        "type": "Point",
        "coordinates": [
          135.924407,
          34.398759
        ]
      },
      "properties": {
        "NO": 56140,
        "共通ID": "E2944100046111",
        "都道府県名及び市町村名": "奈良県吉野町",
        "施設・場所名": "入野生活改善センター",
        "住所": "奈良県吉野町入野746-2",
        "指定緊急避難場所との住所同一": "1",
        "その他市町村長が必要と認める事項": null,
        "受入対象者": null,
        "備考": ""
      }
    },
    {
      "type": "Feature",
      "geometry": {
        "type": "Point",
        "coordinates": [
          135.86793,
          34.384437
        ]
      },
      "properties": {
        "NO": 56141,
        "共通ID": "E2944100047111",
        "都道府県名及び市町村名": "奈良県吉野町",
        "施設・場所名": "藤田公民館",
        "住所": "奈良県吉野町飯貝1098-1",
        "指定緊急避難場所との住所同一": "1",
        "その他市町村長が必要と認める事項": null,
        "受入対象者": null,
        "備考": ""
      }
    },
    {
      "type": "Feature",
      "geometry": {
        "type": "Point",
        "coordinates": [
          135.855526,
          34.392438
        ]
      },
      "properties": {
        "NO": 56142,
        "共通ID": "E2944100048111",
        "都道府県名及び市町村名": "奈良県吉野町",
        "施設・場所名": "よしのこども園",
        "住所": "奈良県吉野町飯貝465-1",
        "指定緊急避難場所との住所同一": "1",
        "その他市町村長が必要と認める事項": null,
        "受入対象者": null,
        "備考": ""
      }
    },
    {
      "type": "Feature",
      "geometry": {
        "type": "Point",
        "coordinates": [
          135.858269,
          34.393836
        ]
      },
      "properties": {
        "NO": 56143,
        "共通ID": "E2944100049111",
        "都道府県名及び市町村名": "奈良県吉野町",
        "施設・場所名": "飯貝老人憩の家",
        "住所": "奈良県吉野町飯貝578-3",
        "指定緊急避難場所との住所同一": "1",
        "その他市町村長が必要と認める事項": null,
        "受入対象者": null,
        "備考": ""
      }
    },
    {
      "type": "Feature",
      "geometry": {
        "type": "Point",
        "coordinates": [
          135.888763,
          34.410574
        ]
      },
      "properties": {
        "NO": 56144,
        "共通ID": "E2944100050111",
        "都道府県名及び市町村名": "奈良県吉野町",
        "施設・場所名": "平尾研修会館",
        "住所": "奈良県吉野町平尾359-1",
        "指定緊急避難場所との住所同一": "1",
        "その他市町村長が必要と認める事項": null,
        "受入対象者": null,
        "備考": ""
      }
    },
    {
      "type": "Feature",
      "geometry": {
        "type": "Point",
        "coordinates": [
          135.884542,
          34.411125
        ]
      },
      "properties": {
        "NO": 56145,
        "共通ID": "E2944100051111",
        "都道府県名及び市町村名": "奈良県吉野町",
        "施設・場所名": "吉野北小学校",
        "住所": "奈良県吉野町平尾87",
        "指定緊急避難場所との住所同一": "1",
        "その他市町村長が必要と認める事項": null,
        "受入対象者": null,
        "備考": ""
      }
    },
    {
      "type": "Feature",
      "geometry": {
        "type": "Point",
        "coordinates": [
          135.878417,
          34.404574
        ]
      },
      "properties": {
        "NO": 56146,
        "共通ID": "E2944100052111",
        "都道府県名及び市町村名": "奈良県吉野町",
        "施設・場所名": "峰寺多目的集会所",
        "住所": "奈良県吉野町峰寺23",
        "指定緊急避難場所との住所同一": "1",
        "その他市町村長が必要と認める事項": null,
        "受入対象者": null,
        "備考": ""
      }
    },
    {
      "type": "Feature",
      "geometry": {
        "type": "Point",
        "coordinates": [
          135.919364,
          34.418558
        ]
      },
      "properties": {
        "NO": 56147,
        "共通ID": "E2944100053111",
        "都道府県名及び市町村名": "奈良県吉野町",
        "施設・場所名": "柳児童館",
        "住所": "奈良県吉野町柳1390-1",
        "指定緊急避難場所との住所同一": "1",
        "その他市町村長が必要と認める事項": null,
        "受入対象者": null,
        "備考": ""
      }
    },
    {
      "type": "Feature",
      "geometry": {
        "type": "Point",
        "coordinates": [
          135.92776,
          34.419329
        ]
      },
      "properties": {
        "NO": 56148,
        "共通ID": "E2944100054111",
        "都道府県名及び市町村名": "奈良県吉野町",
        "施設・場所名": "中竜門ふれあいセンター",
        "住所": "奈良県吉野町柳1635-1",
        "指定緊急避難場所との住所同一": "1",
        "その他市町村長が必要と認める事項": null,
        "受入対象者": null,
        "備考": ""
      }
    },
    {
      "type": "Feature",
      "geometry": {
        "type": "Point",
        "coordinates": [
          135.915101,
          34.417115
        ]
      },
      "properties": {
        "NO": 56149,
        "共通ID": "E2944100055111",
        "都道府県名及び市町村名": "奈良県吉野町",
        "施設・場所名": "田尻金照会館",
        "住所": "奈良県吉野町柳267-1",
        "指定緊急避難場所との住所同一": "1",
        "その他市町村長が必要と認める事項": null,
        "受入対象者": null,
        "備考": ""
      }
    },
    {
      "type": "Feature",
      "geometry": {
        "type": "Point",
        "coordinates": [
          135.919105,
          34.418671
        ]
      },
      "properties": {
        "NO": 56150,
        "共通ID": "E2944100056111",
        "都道府県名及び市町村名": "奈良県吉野町",
        "施設・場所名": "わかばこども園",
        "住所": "奈良県吉野町柳542",
        "指定緊急避難場所との住所同一": "1",
        "その他市町村長が必要と認める事項": null,
        "受入対象者": null,
        "備考": ""
      }
    },
    {
      "type": "Feature",
      "geometry": {
        "type": "Point",
        "coordinates": [
          135.920944,
          34.426714
        ]
      },
      "properties": {
        "NO": 56151,
        "共通ID": "E2944100057111",
        "都道府県名及び市町村名": "奈良県吉野町",
        "施設・場所名": "別所ふれあいセンター",
        "住所": "奈良県吉野町柳739",
        "指定緊急避難場所との住所同一": "1",
        "その他市町村長が必要と認める事項": null,
        "受入対象者": null,
        "備考": ""
      }
    },
    {
      "type": "Feature",
      "geometry": {
        "type": "Point",
        "coordinates": [
          135.866122,
          34.396054
        ]
      },
      "properties": {
        "NO": 56152,
        "共通ID": "E2944100058111",
        "都道府県名及び市町村名": "奈良県吉野町",
        "施設・場所名": "立野集会所",
        "住所": "奈良県吉野町立野164-2",
        "指定緊急避難場所との住所同一": "1",
        "その他市町村長が必要と認める事項": null,
        "受入対象者": null,
        "備考": ""
      }
    },
    {
      "type": "Feature",
      "geometry": {
        "type": "Point",
        "coordinates": [
          135.830152,
          34.389247
        ]
      },
      "properties": {
        "NO": 56153,
        "共通ID": "E2944100059111",
        "都道府県名及び市町村名": "奈良県吉野町",
        "施設・場所名": "六田老人憩の家",
        "住所": "奈良県吉野町六田1218",
        "指定緊急避難場所との住所同一": "1",
        "その他市町村長が必要と認める事項": null,
        "受入対象者": null,
        "備考": ""
      }
    }
  ]
}