{
  "type": "FeatureCollection",
  "name": "302082",
  "features": [
    {
      "type": "Feature",
      "geometry": {
        "type": "Point",
        "coordinates": [
          135.429826,
          34.214354
        ]
      },
      "properties": {
        "NO": 56931,
        "共通ID": "E3020800001111",
        "都道府県名及び市町村名": "和歌山県紀の川市",
        "施設・場所名": "下鞆渕集会所",
        "住所": "和歌山県紀の川市下鞆渕457",
        "指定緊急避難場所との住所同一": "",
        "その他市町村長が必要と認める事項": "",
        "受入対象者": "",
        "備考": ""
      }
    },
    {
      "type": "Feature",
      "geometry": {
        "type": "Point",
        "coordinates": [
          135.321597,
          34.206029
        ]
      },
      "properties": {
        "NO": 56932,
        "共通ID": "E3020800002111",
        "都道府県名及び市町村名": "和歌山県紀の川市",
        "施設・場所名": "東貴志小学校体育館",
        "住所": "和歌山県紀の川市貴志川町井ノ口148",
        "指定緊急避難場所との住所同一": "",
        "その他市町村長が必要と認める事項": "",
        "受入対象者": "",
        "備考": ""
      }
    },
    {
      "type": "Feature",
      "geometry": {
        "type": "Point",
        "coordinates": [
          135.325886,
          34.231465
        ]
      },
      "properties": {
        "NO": 56933,
        "共通ID": "E3020800003111",
        "都道府県名及び市町村名": "和歌山県紀の川市",
        "施設・場所名": "丸栖小学校体育館",
        "住所": "和歌山県紀の川市貴志川町丸栖206",
        "指定緊急避難場所との住所同一": "",
        "その他市町村長が必要と認める事項": "",
        "受入対象者": "",
        "備考": ""
      }
    },
    {
      "type": "Feature",
      "geometry": {
        "type": "Point",
        "coordinates": [
          135.323008,
          34.232845
        ]
      },
      "properties": {
        "NO": 56934,
        "共通ID": "E3020800004111",
        "都道府県名及び市町村名": "和歌山県紀の川市",
        "施設・場所名": "丸栖コミュニティセンター",
        "住所": "和歌山県紀の川市貴志川町丸栖658",
        "指定緊急避難場所との住所同一": "1",
        "その他市町村長が必要と認める事項": "",
        "受入対象者": "",
        "備考": ""
      }
    },
    {
      "type": "Feature",
      "geometry": {
        "type": "Point",
        "coordinates": [
          135.323717,
          34.206537
        ]
      },
      "properties": {
        "NO": 56935,
        "共通ID": "E3020800005111",
        "都道府県名及び市町村名": "和歌山県紀の川市",
        "施設・場所名": "東貴志コミュニティセンター",
        "住所": "和歌山県紀の川市貴志川町岸小野180",
        "指定緊急避難場所との住所同一": "",
        "その他市町村長が必要と認める事項": "",
        "受入対象者": "",
        "備考": ""
      }
    },
    {
      "type": "Feature",
      "geometry": {
        "type": "Point",
        "coordinates": [
          135.321531,
          34.200656
        ]
      },
      "properties": {
        "NO": 56936,
        "共通ID": "E3020800006111",
        "都道府県名及び市町村名": "和歌山県紀の川市",
        "施設・場所名": "和歌山県農業試験場",
        "住所": "和歌山県紀の川市貴志川町高尾160",
        "指定緊急避難場所との住所同一": "",
        "その他市町村長が必要と認める事項": "",
        "受入対象者": "",
        "備考": ""
      }
    },
    {
      "type": "Feature",
      "geometry": {
        "type": "Point",
        "coordinates": [
          135.309244,
          34.217535
        ]
      },
      "properties": {
        "NO": 56937,
        "共通ID": "E3020800007111",
        "都道府県名及び市町村名": "和歌山県紀の川市",
        "施設・場所名": "貴志川中学校体育館（柔剣道場含む）",
        "住所": "和歌山県紀の川市貴志川町上野山232",
        "指定緊急避難場所との住所同一": "",
        "その他市町村長が必要と認める事項": "",
        "受入対象者": "",
        "備考": ""
      }
    },
    {
      "type": "Feature",
      "geometry": {
        "type": "Point",
        "coordinates": [
          135.312332,
          34.217588
        ]
      },
      "properties": {
        "NO": 56938,
        "共通ID": "E3020800008111",
        "都道府県名及び市町村名": "和歌山県紀の川市",
        "施設・場所名": "中貴志小学校体育館",
        "住所": "和歌山県紀の川市貴志川町上野山55",
        "指定緊急避難場所との住所同一": "1",
        "その他市町村長が必要と認める事項": "",
        "受入対象者": "",
        "備考": ""
      }
    },
    {
      "type": "Feature",
      "geometry": {
        "type": "Point",
        "coordinates": [
          135.313821,
          34.217605
        ]
      },
      "properties": {
        "NO": 56939,
        "共通ID": "E3020800009111",
        "都道府県名及び市町村名": "和歌山県紀の川市",
        "施設・場所名": "貴志川保健福祉センター",
        "住所": "和歌山県紀の川市貴志川町神戸331",
        "指定緊急避難場所との住所同一": "",
        "その他市町村長が必要と認める事項": "",
        "受入対象者": "",
        "備考": ""
      }
    },
    {
      "type": "Feature",
      "geometry": {
        "type": "Point",
        "coordinates": [
          135.298515,
          34.214052
        ]
      },
      "properties": {
        "NO": 56940,
        "共通ID": "E3020800010111",
        "都道府県名及び市町村名": "和歌山県紀の川市",
        "施設・場所名": "西貴志小学校体育館",
        "住所": "和歌山県紀の川市貴志川町長原167",
        "指定緊急避難場所との住所同一": "",
        "その他市町村長が必要と認める事項": "",
        "受入対象者": "",
        "備考": ""
      }
    },
    {
      "type": "Feature",
      "geometry": {
        "type": "Point",
        "coordinates": [
          135.305483,
          34.217299
        ]
      },
      "properties": {
        "NO": 56941,
        "共通ID": "E3020800011111",
        "都道府県名及び市町村名": "和歌山県紀の川市",
        "施設・場所名": "県立貴志川高等学校体育館",
        "住所": "和歌山県紀の川市貴志川町長原400",
        "指定緊急避難場所との住所同一": "",
        "その他市町村長が必要と認める事項": "",
        "受入対象者": "",
        "備考": ""
      }
    },
    {
      "type": "Feature",
      "geometry": {
        "type": "Point",
        "coordinates": [
          135.306607,
          34.217761
        ]
      },
      "properties": {
        "NO": 56942,
        "共通ID": "E3020800012111",
        "都道府県名及び市町村名": "和歌山県紀の川市",
        "施設・場所名": "貴志川生涯学習センター",
        "住所": "和歌山県紀の川市貴志川町長原447-1",
        "指定緊急避難場所との住所同一": "",
        "その他市町村長が必要と認める事項": "",
        "受入対象者": "",
        "備考": ""
      }
    },
    {
      "type": "Feature",
      "geometry": {
        "type": "Point",
        "coordinates": [
          135.306566,
          34.217669
        ]
      },
      "properties": {
        "NO": 56943,
        "共通ID": "E3020800012121",
        "都道府県名及び市町村名": "和歌山県紀の川市",
        "施設・場所名": "貴志川生涯学習センター",
        "住所": "和歌山県紀の川市貴志川町長原447-1",
        "指定緊急避難場所との住所同一": "",
        "その他市町村長が必要と認める事項": "",
        "受入対象者": "聴覚障害、肢体不自由、知的障害、発達障害、精神障害",
        "備考": ""
      }
    },
    {
      "type": "Feature",
      "geometry": {
        "type": "Point",
        "coordinates": [
          135.298087,
          34.21347
        ]
      },
      "properties": {
        "NO": 56944,
        "共通ID": "E3020800013111",
        "都道府県名及び市町村名": "和歌山県紀の川市",
        "施設・場所名": "西貴志コミュニティセンター",
        "住所": "和歌山県紀の川市貴志川町長山24",
        "指定緊急避難場所との住所同一": "",
        "その他市町村長が必要と認める事項": "",
        "受入対象者": "",
        "備考": ""
      }
    },
    {
      "type": "Feature",
      "geometry": {
        "type": "Point",
        "coordinates": [
          135.44367,
          34.294455
        ]
      },
      "properties": {
        "NO": 56945,
        "共通ID": "E3020800066111",
        "都道府県名及び市町村名": "和歌山県紀の川市",
        "施設・場所名": "上名手小学校体育館",
        "住所": "和歌山県紀の川市江川中988-4",
        "指定緊急避難場所との住所同一": "",
        "その他市町村長が必要と認める事項": "",
        "受入対象者": "",
        "備考": ""
      }
    },
    {
      "type": "Feature",
      "geometry": {
        "type": "Point",
        "coordinates": [
          135.377391,
          34.232359
        ]
      },
      "properties": {
        "NO": 56946,
        "共通ID": "E3020800017111",
        "都道府県名及び市町村名": "和歌山県紀の川市",
        "施設・場所名": "田中小学校高野分校体育館",
        "住所": "和歌山県紀の川市高野595",
        "指定緊急避難場所との住所同一": "",
        "その他市町村長が必要と認める事項": "",
        "受入対象者": "",
        "備考": ""
      }
    },
    {
      "type": "Feature",
      "geometry": {
        "type": "Point",
        "coordinates": [
          135.474046,
          34.226915
        ]
      },
      "properties": {
        "NO": 56947,
        "共通ID": "E3020800018111",
        "都道府県名及び市町村名": "和歌山県紀の川市",
        "施設・場所名": "上鞆渕集会所",
        "住所": "和歌山県紀の川市上鞆渕229-5",
        "指定緊急避難場所との住所同一": "",
        "その他市町村長が必要と認める事項": "",
        "受入対象者": "",
        "備考": ""
      }
    },
    {
      "type": "Feature",
      "geometry": {
        "type": "Point",
        "coordinates": [
          135.376749,
          34.322607
        ]
      },
      "properties": {
        "NO": 56948,
        "共通ID": "E3020800019111",
        "都道府県名及び市町村名": "和歌山県紀の川市",
        "施設・場所名": "神通温泉施設",
        "住所": "和歌山県紀の川市神通150-1",
        "指定緊急避難場所との住所同一": "",
        "その他市町村長が必要と認める事項": "",
        "受入対象者": "",
        "備考": ""
      }
    },
    {
      "type": "Feature",
      "geometry": {
        "type": "Point",
        "coordinates": [
          135.404727,
          34.25166
        ]
      },
      "properties": {
        "NO": 56949,
        "共通ID": "E3020800020111",
        "都道府県名及び市町村名": "和歌山県紀の川市",
        "施設・場所名": "竜門小学校体育館",
        "住所": "和歌山県紀の川市杉原257-1",
        "指定緊急避難場所との住所同一": "",
        "その他市町村長が必要と認める事項": "",
        "受入対象者": "",
        "備考": ""
      }
    },
    {
      "type": "Feature",
      "geometry": {
        "type": "Point",
        "coordinates": [
          135.336836,
          34.256922
        ]
      },
      "properties": {
        "NO": 56950,
        "共通ID": "E3020800021111",
        "都道府県名及び市町村名": "和歌山県紀の川市",
        "施設・場所名": "井阪文化会館",
        "住所": "和歌山県紀の川市西井阪169",
        "指定緊急避難場所との住所同一": "",
        "その他市町村長が必要と認める事項": "",
        "受入対象者": "",
        "備考": ""
      }
    },
    {
      "type": "Feature",
      "geometry": {
        "type": "Point",
        "coordinates": [
          135.362609,
          34.269204
        ]
      },
      "properties": {
        "NO": 56951,
        "共通ID": "E3020800022111",
        "都道府県名及び市町村名": "和歌山県紀の川市",
        "施設・場所名": "打田保健福祉センター",
        "住所": "和歌山県紀の川市西大井338",
        "指定緊急避難場所との住所同一": "",
        "その他市町村長が必要と認める事項": "",
        "受入対象者": "",
        "備考": ""
      }
    },
    {
      "type": "Feature",
      "geometry": {
        "type": "Point",
        "coordinates": [
          135.362549,
          34.26922
        ]
      },
      "properties": {
        "NO": 56952,
        "共通ID": "E3020800022121",
        "都道府県名及び市町村名": "和歌山県紀の川市",
        "施設・場所名": "打田保健福祉センター",
        "住所": "和歌山県紀の川市西大井338",
        "指定緊急避難場所との住所同一": "",
        "その他市町村長が必要と認める事項": "",
        "受入対象者": "視覚障害、肢体不自由",
        "備考": ""
      }
    },
    {
      "type": "Feature",
      "geometry": {
        "type": "Point",
        "coordinates": [
          135.440447,
          34.280868
        ]
      },
      "properties": {
        "NO": 56953,
        "共通ID": "E3020800024111",
        "都道府県名及び市町村名": "和歌山県紀の川市",
        "施設・場所名": "県立高等看護学院体育館",
        "住所": "和歌山県紀の川市西野山505-1",
        "指定緊急避難場所との住所同一": "",
        "その他市町村長が必要と認める事項": "",
        "受入対象者": "",
        "備考": ""
      }
    },
    {
      "type": "Feature",
      "geometry": {
        "type": "Point",
        "coordinates": [
          135.46082,
          34.254728
        ]
      },
      "properties": {
        "NO": 56954,
        "共通ID": "E3020800025111",
        "都道府県名及び市町村名": "和歌山県紀の川市",
        "施設・場所名": "赤沼田集会所",
        "住所": "和歌山県紀の川市赤沼田290",
        "指定緊急避難場所との住所同一": "",
        "その他市町村長が必要と認める事項": "",
        "受入対象者": "",
        "備考": ""
      }
    },
    {
      "type": "Feature",
      "geometry": {
        "type": "Point",
        "coordinates": [
          135.364851,
          34.258207
        ]
      },
      "properties": {
        "NO": 56955,
        "共通ID": "E3020800026111",
        "都道府県名及び市町村名": "和歌山県紀の川市",
        "施設・場所名": "田中小学校体育館",
        "住所": "和歌山県紀の川市打田1491",
        "指定緊急避難場所との住所同一": "",
        "その他市町村長が必要と認める事項": "",
        "受入対象者": "",
        "備考": ""
      }
    },
    {
      "type": "Feature",
      "geometry": {
        "type": "Point",
        "coordinates": [
          135.457726,
          34.219028
        ]
      },
      "properties": {
        "NO": 56956,
        "共通ID": "E3020800027111",
        "都道府県名及び市町村名": "和歌山県紀の川市",
        "施設・場所名": "鞆渕小・中学校体育館",
        "住所": "和歌山県紀の川市中鞆渕968-1",
        "指定緊急避難場所との住所同一": "",
        "その他市町村長が必要と認める事項": "",
        "受入対象者": "",
        "備考": ""
      }
    },
    {
      "type": "Feature",
      "geometry": {
        "type": "Point",
        "coordinates": [
          135.388277,
          34.274591
        ]
      },
      "properties": {
        "NO": 56957,
        "共通ID": "E3020800065111",
        "都道府県名及び市町村名": "和歌山県紀の川市",
        "施設・場所名": "長田小学校体育館",
        "住所": "和歌山県紀の川市長田中538-1",
        "指定緊急避難場所との住所同一": "",
        "その他市町村長が必要と認める事項": "",
        "受入対象者": "",
        "備考": ""
      }
    },
    {
      "type": "Feature",
      "geometry": {
        "type": "Point",
        "coordinates": [
          135.363915,
          34.268206
        ]
      },
      "properties": {
        "NO": 56958,
        "共通ID": "E3020800031111",
        "都道府県名及び市町村名": "和歌山県紀の川市",
        "施設・場所名": "打田中学校体育館（格技場含む）",
        "住所": "和歌山県紀の川市東大井345",
        "指定緊急避難場所との住所同一": "1",
        "その他市町村長が必要と認める事項": "",
        "受入対象者": "",
        "備考": ""
      }
    },
    {
      "type": "Feature",
      "geometry": {
        "type": "Point",
        "coordinates": [
          135.363584,
          34.267917
        ]
      },
      "properties": {
        "NO": 56959,
        "共通ID": "E3020800031121",
        "都道府県名及び市町村名": "和歌山県紀の川市",
        "施設・場所名": "打田中学校　教室",
        "住所": "和歌山県紀の川市東大井345",
        "指定緊急避難場所との住所同一": "1",
        "その他市町村長が必要と認める事項": "",
        "受入対象者": "聴覚障害、発達障害、精神障害",
        "備考": ""
      }
    },
    {
      "type": "Feature",
      "geometry": {
        "type": "Point",
        "coordinates": [
          135.351822,
          34.243365
        ]
      },
      "properties": {
        "NO": 56960,
        "共通ID": "E3020800033111",
        "都道府県名及び市町村名": "和歌山県紀の川市",
        "施設・場所名": "荒川中学校体育館",
        "住所": "和歌山県紀の川市桃山町元249",
        "指定緊急避難場所との住所同一": "",
        "その他市町村長が必要と認める事項": "",
        "受入対象者": "",
        "備考": ""
      }
    },
    {
      "type": "Feature",
      "geometry": {
        "type": "Point",
        "coordinates": [
          135.404813,
          34.210747
        ]
      },
      "properties": {
        "NO": 56961,
        "共通ID": "E3020800034111",
        "都道府県名及び市町村名": "和歌山県紀の川市",
        "施設・場所名": "黒川集会所",
        "住所": "和歌山県紀の川市桃山町黒川1667-1",
        "指定緊急避難場所との住所同一": "",
        "その他市町村長が必要と認める事項": "",
        "受入対象者": "",
        "備考": ""
      }
    },
    {
      "type": "Feature",
      "geometry": {
        "type": "Point",
        "coordinates": [
          135.349788,
          34.219574
        ]
      },
      "properties": {
        "NO": 56962,
        "共通ID": "E3020800036111",
        "都道府県名及び市町村名": "和歌山県紀の川市",
        "施設・場所名": "桃山保健福祉センター",
        "住所": "和歌山県紀の川市桃山町最上1253",
        "指定緊急避難場所との住所同一": "",
        "その他市町村長が必要と認める事項": "",
        "受入対象者": "",
        "備考": ""
      }
    },
    {
      "type": "Feature",
      "geometry": {
        "type": "Point",
        "coordinates": [
          135.350293,
          34.240749
        ]
      },
      "properties": {
        "NO": 56963,
        "共通ID": "E3020800037111",
        "都道府県名及び市町村名": "和歌山県紀の川市",
        "施設・場所名": "ふれあいコミュニティセンター",
        "住所": "和歌山県紀の川市桃山町市場1-2",
        "指定緊急避難場所との住所同一": "",
        "その他市町村長が必要と認める事項": "",
        "受入対象者": "",
        "備考": ""
      }
    },
    {
      "type": "Feature",
      "geometry": {
        "type": "Point",
        "coordinates": [
          135.348852,
          34.241099
        ]
      },
      "properties": {
        "NO": 56964,
        "共通ID": "E3020800038111",
        "都道府県名及び市町村名": "和歌山県紀の川市",
        "施設・場所名": "安楽川小学校体育館",
        "住所": "和歌山県紀の川市桃山町市場2",
        "指定緊急避難場所との住所同一": "",
        "その他市町村長が必要と認める事項": "",
        "受入対象者": "",
        "備考": ""
      }
    },
    {
      "type": "Feature",
      "geometry": {
        "type": "Point",
        "coordinates": [
          135.391447,
          34.221448
        ]
      },
      "properties": {
        "NO": 56965,
        "共通ID": "E3020800039111",
        "都道府県名及び市町村名": "和歌山県紀の川市",
        "施設・場所名": "善田地区総合営農指導センター",
        "住所": "和歌山県紀の川市桃山町善田741-2",
        "指定緊急避難場所との住所同一": "",
        "その他市町村長が必要と認める事項": "",
        "受入対象者": "",
        "備考": ""
      }
    },
    {
      "type": "Feature",
      "geometry": {
        "type": "Point",
        "coordinates": [
          135.383433,
          34.220029
        ]
      },
      "properties": {
        "NO": 56966,
        "共通ID": "E3020800040111",
        "都道府県名及び市町村名": "和歌山県紀の川市",
        "施設・場所名": "大原集会所",
        "住所": "和歌山県紀の川市桃山町大原667-3",
        "指定緊急避難場所との住所同一": "",
        "その他市町村長が必要と認める事項": "",
        "受入対象者": "",
        "備考": ""
      }
    },
    {
      "type": "Feature",
      "geometry": {
        "type": "Point",
        "coordinates": [
          135.422308,
          34.188805
        ]
      },
      "properties": {
        "NO": 56967,
        "共通ID": "E3020800041111",
        "都道府県名及び市町村名": "和歌山県紀の川市",
        "施設・場所名": "細野生活改善センター",
        "住所": "和歌山県紀の川市桃山町中畑108-1",
        "指定緊急避難場所との住所同一": "",
        "その他市町村長が必要と認める事項": "",
        "受入対象者": "",
        "備考": ""
      }
    },
    {
      "type": "Feature",
      "geometry": {
        "type": "Point",
        "coordinates": [
          135.332001,
          34.227538
        ]
      },
      "properties": {
        "NO": 56968,
        "共通ID": "E3020800042111",
        "都道府県名及び市町村名": "和歌山県紀の川市",
        "施設・場所名": "調月小学校体育館",
        "住所": "和歌山県紀の川市桃山町調月1101",
        "指定緊急避難場所との住所同一": "",
        "その他市町村長が必要と認める事項": "",
        "受入対象者": "",
        "備考": ""
      }
    },
    {
      "type": "Feature",
      "geometry": {
        "type": "Point",
        "coordinates": [
          135.334803,
          34.231508
        ]
      },
      "properties": {
        "NO": 56969,
        "共通ID": "E3020800043111",
        "都道府県名及び市町村名": "和歌山県紀の川市",
        "施設・場所名": "桃山勤労者体育センター",
        "住所": "和歌山県紀の川市桃山町調月349-1",
        "指定緊急避難場所との住所同一": "",
        "その他市町村長が必要と認める事項": "",
        "受入対象者": "",
        "備考": ""
      }
    },
    {
      "type": "Feature",
      "geometry": {
        "type": "Point",
        "coordinates": [
          135.331045,
          34.2433
        ]
      },
      "properties": {
        "NO": 56970,
        "共通ID": "E3020800044111",
        "都道府県名及び市町村名": "和歌山県紀の川市",
        "施設・場所名": "那賀スポーツレクリエーションセンター",
        "住所": "和歌山県紀の川市桃山町調月5",
        "指定緊急避難場所との住所同一": "",
        "その他市町村長が必要と認める事項": "",
        "受入対象者": "",
        "備考": ""
      }
    },
    {
      "type": "Feature",
      "geometry": {
        "type": "Point",
        "coordinates": [
          135.383993,
          34.194844
        ]
      },
      "properties": {
        "NO": 56971,
        "共通ID": "E3020800045111",
        "都道府県名及び市町村名": "和歌山県紀の川市",
        "施設・場所名": "蛍の里（介護予防拠点施設、旧野田原分校体育館含む）",
        "住所": "和歌山県紀の川市桃山町野田原639",
        "指定緊急避難場所との住所同一": "",
        "その他市町村長が必要と認める事項": "",
        "受入対象者": "",
        "備考": ""
      }
    },
    {
      "type": "Feature",
      "geometry": {
        "type": "Point",
        "coordinates": [
          135.354341,
          34.277699
        ]
      },
      "properties": {
        "NO": 56972,
        "共通ID": "E3020800064111",
        "都道府県名及び市町村名": "和歌山県紀の川市",
        "施設・場所名": "池田小学校体育館",
        "住所": "和歌山県紀の川市南中326-1",
        "指定緊急避難場所との住所同一": "",
        "その他市町村長が必要と認める事項": "",
        "受入対象者": "",
        "備考": ""
      }
    },
    {
      "type": "Feature",
      "geometry": {
        "type": "Point",
        "coordinates": [
          135.402918,
          34.272942
        ]
      },
      "properties": {
        "NO": 56973,
        "共通ID": "E3020800047111",
        "都道府県名及び市町村名": "和歌山県紀の川市",
        "施設・場所名": "粉河体育館（武道館含む）",
        "住所": "和歌山県紀の川市粉河1479",
        "指定緊急避難場所との住所同一": "1",
        "その他市町村長が必要と認める事項": "",
        "受入対象者": "",
        "備考": ""
      }
    },
    {
      "type": "Feature",
      "geometry": {
        "type": "Point",
        "coordinates": [
          135.402714,
          34.271844
        ]
      },
      "properties": {
        "NO": 56974,
        "共通ID": "E3020800048111",
        "都道府県名及び市町村名": "和歌山県紀の川市",
        "施設・場所名": "粉河小学校体育館",
        "住所": "和歌山県紀の川市粉河1558-1",
        "指定緊急避難場所との住所同一": "",
        "その他市町村長が必要と認める事項": "",
        "受入対象者": "",
        "備考": ""
      }
    },
    {
      "type": "Feature",
      "geometry": {
        "type": "Point",
        "coordinates": [
          135.407616,
          34.274353
        ]
      },
      "properties": {
        "NO": 56975,
        "共通ID": "E3020800049111",
        "都道府県名及び市町村名": "和歌山県紀の川市",
        "施設・場所名": "県立粉河高等学校体育館",
        "住所": "和歌山県紀の川市粉河4632",
        "指定緊急避難場所との住所同一": "",
        "その他市町村長が必要と認める事項": "",
        "受入対象者": "",
        "備考": ""
      }
    },
    {
      "type": "Feature",
      "geometry": {
        "type": "Point",
        "coordinates": [
          135.41065,
          34.267471
        ]
      },
      "properties": {
        "NO": 56976,
        "共通ID": "E3020800050111",
        "都道府県名及び市町村名": "和歌山県紀の川市",
        "施設・場所名": "粉河ふるさとセンター",
        "住所": "和歌山県紀の川市粉河580",
        "指定緊急避難場所との住所同一": "",
        "その他市町村長が必要と認める事項": "",
        "受入対象者": "",
        "備考": ""
      }
    },
    {
      "type": "Feature",
      "geometry": {
        "type": "Point",
        "coordinates": [
          135.402778,
          34.269722
        ]
      },
      "properties": {
        "NO": 56977,
        "共通ID": "E3020800051111",
        "都道府県名及び市町村名": "和歌山県紀の川市",
        "施設・場所名": "粉河中学校体育館",
        "住所": "和歌山県紀の川市粉河925",
        "指定緊急避難場所との住所同一": "",
        "その他市町村長が必要と認める事項": "",
        "受入対象者": "",
        "備考": ""
      }
    },
    {
      "type": "Feature",
      "geometry": {
        "type": "Point",
        "coordinates": [
          135.447916,
          34.327248
        ]
      },
      "properties": {
        "NO": 56978,
        "共通ID": "E3020800052111",
        "都道府県名及び市町村名": "和歌山県紀の川市",
        "施設・場所名": "中尾集会所",
        "住所": "和歌山県紀の川市平野2092",
        "指定緊急避難場所との住所同一": "",
        "その他市町村長が必要と認める事項": "",
        "受入対象者": "",
        "備考": ""
      }
    },
    {
      "type": "Feature",
      "geometry": {
        "type": "Point",
        "coordinates": [
          135.444583,
          34.265743
        ]
      },
      "properties": {
        "NO": 56979,
        "共通ID": "E3020800063111",
        "都道府県名及び市町村名": "和歌山県紀の川市",
        "施設・場所名": "麻生津小学校体育館",
        "住所": "和歌山県紀の川市麻生津中10-2",
        "指定緊急避難場所との住所同一": "",
        "その他市町村長が必要と認める事項": "",
        "受入対象者": "",
        "備考": ""
      }
    },
    {
      "type": "Feature",
      "geometry": {
        "type": "Point",
        "coordinates": [
          135.437078,
          34.27238
        ]
      },
      "properties": {
        "NO": 56980,
        "共通ID": "E3020800055111",
        "都道府県名及び市町村名": "和歌山県紀の川市",
        "施設・場所名": "那賀保健福祉センター",
        "住所": "和歌山県紀の川市名手市場144-1",
        "指定緊急避難場所との住所同一": "",
        "その他市町村長が必要と認める事項": "",
        "受入対象者": "",
        "備考": ""
      }
    },
    {
      "type": "Feature",
      "geometry": {
        "type": "Point",
        "coordinates": [
          135.430784,
          34.275734
        ]
      },
      "properties": {
        "NO": 56981,
        "共通ID": "E3020800056111",
        "都道府県名及び市町村名": "和歌山県紀の川市",
        "施設・場所名": "那賀総合センター",
        "住所": "和歌山県紀の川市名手市場1456",
        "指定緊急避難場所との住所同一": "",
        "その他市町村長が必要と認める事項": "",
        "受入対象者": "",
        "備考": ""
      }
    },
    {
      "type": "Feature",
      "geometry": {
        "type": "Point",
        "coordinates": [
          135.439669,
          34.27908
        ]
      },
      "properties": {
        "NO": 56982,
        "共通ID": "E3020800062111",
        "都道府県名及び市町村名": "和歌山県紀の川市",
        "施設・場所名": "那賀中学校体育館（格技場含む）",
        "住所": "和歌山県紀の川市名手市場981",
        "指定緊急避難場所との住所同一": "",
        "その他市町村長が必要と認める事項": "",
        "受入対象者": "",
        "備考": ""
      }
    },
    {
      "type": "Feature",
      "geometry": {
        "type": "Point",
        "coordinates": [
          135.440247,
          34.271327
        ]
      },
      "properties": {
        "NO": 56983,
        "共通ID": "E3020800057111",
        "都道府県名及び市町村名": "和歌山県紀の川市",
        "施設・場所名": "那賀体育館",
        "住所": "和歌山県紀の川市名手西野114-1",
        "指定緊急避難場所との住所同一": "",
        "その他市町村長が必要と認める事項": "",
        "受入対象者": "",
        "備考": ""
      }
    },
    {
      "type": "Feature",
      "geometry": {
        "type": "Point",
        "coordinates": [
          135.433309,
          34.270871
        ]
      },
      "properties": {
        "NO": 56984,
        "共通ID": "E3020800061111",
        "都道府県名及び市町村名": "和歌山県紀の川市",
        "施設・場所名": "名手小学校体育館",
        "住所": "和歌山県紀の川市名手西野335",
        "指定緊急避難場所との住所同一": "",
        "その他市町村長が必要と認める事項": "",
        "受入対象者": "",
        "備考": ""
      }
    },
    {
      "type": "Feature",
      "geometry": {
        "type": "Point",
        "coordinates": [
          135.427575,
          34.291653
        ]
      },
      "properties": {
        "NO": 56985,
        "共通ID": "E3020800060111",
        "都道府県名及び市町村名": "和歌山県紀の川市",
        "施設・場所名": "川原小学校体育館",
        "住所": "和歌山県紀の川市野上92-2",
        "指定緊急避難場所との住所同一": "",
        "その他市町村長が必要と認める事項": "",
        "受入対象者": "",
        "備考": ""
      }
    }
  ]
}