{
  "type": "FeatureCollection",
  "name": "303810",
  "features": [
    {
      "type": "Feature",
      "geometry": {
        "type": "Point",
        "coordinates": [
          135.144658,
          33.889772
        ]
      },
      "properties": {
        "NO": 57339,
        "共通ID": "E3038100004111",
        "都道府県名及び市町村名": "和歌山県美浜町",
        "施設・場所名": "松原地区公民館",
        "住所": "和歌山県美浜町吉原771-4",
        "指定緊急避難場所との住所同一": "1",
        "その他市町村長が必要と認める事項": null,
        "受入対象者": null,
        "備考": ""
      }
    },
    {
      "type": "Feature",
      "geometry": {
        "type": "Point",
        "coordinates": [
          135.144761,
          33.888818
        ]
      },
      "properties": {
        "NO": 57340,
        "共通ID": "E3038100005111",
        "都道府県名及び市町村名": "和歌山県美浜町",
        "施設・場所名": "松原小学校",
        "住所": "和歌山県美浜町吉原774-5",
        "指定緊急避難場所との住所同一": "1",
        "その他市町村長が必要と認める事項": null,
        "受入対象者": null,
        "備考": ""
      }
    },
    {
      "type": "Feature",
      "geometry": {
        "type": "Point",
        "coordinates": [
          135.144761,
          33.888818
        ]
      },
      "properties": {
        "NO": 57341,
        "共通ID": "E3038100005121",
        "都道府県名及び市町村名": "和歌山県美浜町",
        "施設・場所名": "松原小学校",
        "住所": "和歌山県美浜町吉原774-5",
        "指定緊急避難場所との住所同一": "1",
        "その他市町村長が必要と認める事項": null,
        "受入対象者": "要配慮者",
        "備考": ""
      }
    },
    {
      "type": "Feature",
      "geometry": {
        "type": "Point",
        "coordinates": [
          135.136837,
          33.890684
        ]
      },
      "properties": {
        "NO": 57342,
        "共通ID": "E3038100006111",
        "都道府県名及び市町村名": "和歌山県美浜町",
        "施設・場所名": "松洋中学校",
        "住所": "和歌山県美浜町吉原958",
        "指定緊急避難場所との住所同一": "1",
        "その他市町村長が必要と認める事項": null,
        "受入対象者": null,
        "備考": ""
      }
    },
    {
      "type": "Feature",
      "geometry": {
        "type": "Point",
        "coordinates": [
          135.136837,
          33.890684
        ]
      },
      "properties": {
        "NO": 57343,
        "共通ID": "E3038100006121",
        "都道府県名及び市町村名": "和歌山県美浜町",
        "施設・場所名": "松洋中学校",
        "住所": "和歌山県美浜町吉原958",
        "指定緊急避難場所との住所同一": "1",
        "その他市町村長が必要と認める事項": null,
        "受入対象者": "要配慮者",
        "備考": ""
      }
    },
    {
      "type": "Feature",
      "geometry": {
        "type": "Point",
        "coordinates": [
          135.086433,
          33.891938
        ]
      },
      "properties": {
        "NO": 57344,
        "共通ID": "E3038100022111",
        "都道府県名及び市町村名": "和歌山県美浜町",
        "施設・場所名": "旧三尾小学校",
        "住所": "和歌山県美浜町三尾778",
        "指定緊急避難場所との住所同一": "1",
        "その他市町村長が必要と認める事項": "",
        "受入対象者": "",
        "備考": ""
      }
    },
    {
      "type": "Feature",
      "geometry": {
        "type": "Point",
        "coordinates": [
          135.146021,
          33.887442
        ]
      },
      "properties": {
        "NO": 57345,
        "共通ID": "E3038100025111",
        "都道府県名及び市町村名": "和歌山県美浜町",
        "施設・場所名": "新浜集会場",
        "住所": "和歌山県美浜町大字吉原958-265",
        "指定緊急避難場所との住所同一": "",
        "その他市町村長が必要と認める事項": null,
        "受入対象者": null,
        "備考": ""
      }
    },
    {
      "type": "Feature",
      "geometry": {
        "type": "Point",
        "coordinates": [
          135.085458,
          33.889581
        ]
      },
      "properties": {
        "NO": 57346,
        "共通ID": "E3038100028111",
        "都道府県名及び市町村名": "和歌山県美浜町",
        "施設・場所名": "法善寺",
        "住所": "和歌山県美浜町大字三尾382",
        "指定緊急避難場所との住所同一": "",
        "その他市町村長が必要と認める事項": null,
        "受入対象者": null,
        "備考": ""
      }
    },
    {
      "type": "Feature",
      "geometry": {
        "type": "Point",
        "coordinates": [
          135.083338,
          33.890126
        ]
      },
      "properties": {
        "NO": 57347,
        "共通ID": "E3038100029111",
        "都道府県名及び市町村名": "和歌山県美浜町",
        "施設・場所名": "風速荘",
        "住所": "和歌山県美浜町大字三尾475",
        "指定緊急避難場所との住所同一": "",
        "その他市町村長が必要と認める事項": null,
        "受入対象者": null,
        "備考": ""
      }
    },
    {
      "type": "Feature",
      "geometry": {
        "type": "Point",
        "coordinates": [
          135.130678,
          33.899088
        ]
      },
      "properties": {
        "NO": 57348,
        "共通ID": "E3038100032111",
        "都道府県名及び市町村名": "和歌山県美浜町",
        "施設・場所名": "和田西中集会場",
        "住所": "和歌山県美浜町大字和田1005-1",
        "指定緊急避難場所との住所同一": "",
        "その他市町村長が必要と認める事項": null,
        "受入対象者": null,
        "備考": ""
      }
    },
    {
      "type": "Feature",
      "geometry": {
        "type": "Point",
        "coordinates": [
          135.126339,
          33.896211
        ]
      },
      "properties": {
        "NO": 57349,
        "共通ID": "E3038100035111",
        "都道府県名及び市町村名": "和歌山県美浜町",
        "施設・場所名": "畜産センター",
        "住所": "和歌山県美浜町大字和田1138-26",
        "指定緊急避難場所との住所同一": "",
        "その他市町村長が必要と認める事項": null,
        "受入対象者": null,
        "備考": ""
      }
    },
    {
      "type": "Feature",
      "geometry": {
        "type": "Point",
        "coordinates": [
          135.119968,
          33.895628
        ]
      },
      "properties": {
        "NO": 57350,
        "共通ID": "E3038100036111",
        "都道府県名及び市町村名": "和歌山県美浜町",
        "施設・場所名": "本の脇集会場",
        "住所": "和歌山県美浜町大字和田1868-4",
        "指定緊急避難場所との住所同一": "",
        "その他市町村長が必要と認める事項": null,
        "受入対象者": null,
        "備考": ""
      }
    },
    {
      "type": "Feature",
      "geometry": {
        "type": "Point",
        "coordinates": [
          135.140172,
          33.906408
        ]
      },
      "properties": {
        "NO": 57351,
        "共通ID": "E3038100037111",
        "都道府県名及び市町村名": "和歌山県美浜町",
        "施設・場所名": "入山分館",
        "住所": "和歌山県美浜町大字和田2977-1",
        "指定緊急避難場所との住所同一": "",
        "その他市町村長が必要と認める事項": null,
        "受入対象者": null,
        "備考": ""
      }
    },
    {
      "type": "Feature",
      "geometry": {
        "type": "Point",
        "coordinates": [
          135.149219,
          33.890188
        ]
      },
      "properties": {
        "NO": 57352,
        "共通ID": "E3038100038121",
        "都道府県名及び市町村名": "和歌山県美浜町",
        "施設・場所名": "老人保健施設プラトン",
        "住所": "和歌山県美浜町田井402-1",
        "指定緊急避難場所との住所同一": "",
        "その他市町村長が必要と認める事項": null,
        "受入対象者": "要配慮者",
        "備考": ""
      }
    },
    {
      "type": "Feature",
      "geometry": {
        "type": "Point",
        "coordinates": [
          135.1488,
          33.882284
        ]
      },
      "properties": {
        "NO": 57353,
        "共通ID": "E3038100042111",
        "都道府県名及び市町村名": "和歌山県美浜町",
        "施設・場所名": "浜ノ瀬住民会館",
        "住所": "和歌山県美浜町浜ノ瀬356-55",
        "指定緊急避難場所との住所同一": "",
        "その他市町村長が必要と認める事項": null,
        "受入対象者": null,
        "備考": ""
      }
    },
    {
      "type": "Feature",
      "geometry": {
        "type": "Point",
        "coordinates": [
          135.15174,
          33.880367
        ]
      },
      "properties": {
        "NO": 57354,
        "共通ID": "E3038100043111",
        "都道府県名及び市町村名": "和歌山県美浜町",
        "施設・場所名": "浜ノ瀬分館",
        "住所": "和歌山県美浜町浜ノ瀬71",
        "指定緊急避難場所との住所同一": "1",
        "その他市町村長が必要と認める事項": null,
        "受入対象者": null,
        "備考": ""
      }
    },
    {
      "type": "Feature",
      "geometry": {
        "type": "Point",
        "coordinates": [
          135.13164,
          33.895399
        ]
      },
      "properties": {
        "NO": 57355,
        "共通ID": "E3038100044111",
        "都道府県名及び市町村名": "和歌山県美浜町",
        "施設・場所名": "和田小学校",
        "住所": "和歌山県美浜町和田1138-176",
        "指定緊急避難場所との住所同一": "1",
        "その他市町村長が必要と認める事項": null,
        "受入対象者": null,
        "備考": ""
      }
    },
    {
      "type": "Feature",
      "geometry": {
        "type": "Point",
        "coordinates": [
          135.13164,
          33.895399
        ]
      },
      "properties": {
        "NO": 57356,
        "共通ID": "E3038100044121",
        "都道府県名及び市町村名": "和歌山県美浜町",
        "施設・場所名": "和田小学校",
        "住所": "和歌山県美浜町和田1138-176",
        "指定緊急避難場所との住所同一": "1",
        "その他市町村長が必要と認める事項": null,
        "受入対象者": "要配慮者",
        "備考": ""
      }
    },
    {
      "type": "Feature",
      "geometry": {
        "type": "Point",
        "coordinates": [
          135.12975,
          33.895908
        ]
      },
      "properties": {
        "NO": 57357,
        "共通ID": "E3038100045111",
        "都道府県名及び市町村名": "和歌山県美浜町",
        "施設・場所名": "中央公民館",
        "住所": "和歌山県美浜町和田1138-177",
        "指定緊急避難場所との住所同一": "",
        "その他市町村長が必要と認める事項": null,
        "受入対象者": null,
        "備考": ""
      }
    },
    {
      "type": "Feature",
      "geometry": {
        "type": "Point",
        "coordinates": [
          135.134048,
          33.893792
        ]
      },
      "properties": {
        "NO": 57358,
        "共通ID": "E3038100047111",
        "都道府県名及び市町村名": "和歌山県美浜町",
        "施設・場所名": "美浜町地域福祉センター",
        "住所": "和歌山県美浜町和田1138-326",
        "指定緊急避難場所との住所同一": "1",
        "その他市町村長が必要と認める事項": null,
        "受入対象者": null,
        "備考": ""
      }
    },
    {
      "type": "Feature",
      "geometry": {
        "type": "Point",
        "coordinates": [
          135.134048,
          33.893792
        ]
      },
      "properties": {
        "NO": 57359,
        "共通ID": "E3038100047121",
        "都道府県名及び市町村名": "和歌山県美浜町",
        "施設・場所名": "美浜町地域福祉センター",
        "住所": "和歌山県美浜町和田1138-326",
        "指定緊急避難場所との住所同一": "1",
        "その他市町村長が必要と認める事項": null,
        "受入対象者": "要配慮者",
        "備考": ""
      }
    }
  ]
}