{
  "type": "FeatureCollection",
  "name": "303909",
  "features": [
    {
      "type": "Feature",
      "geometry": {
        "type": "Point",
        "coordinates": [
          135.214255,
          33.815941
        ]
      },
      "properties": {
        "NO": 57458,
        "共通ID": "E3039000042111",
        "都道府県名及び市町村名": "和歌山県印南町",
        "施設・場所名": "印南避難センター",
        "住所": "和歌山県印南町大字印南1307",
        "指定緊急避難場所との住所同一": "1",
        "その他市町村長が必要と認める事項": null,
        "受入対象者": null,
        "備考": ""
      }
    },
    {
      "type": "Feature",
      "geometry": {
        "type": "Point",
        "coordinates": [
          135.217869,
          33.816714
        ]
      },
      "properties": {
        "NO": 57459,
        "共通ID": "E3039000043111",
        "都道府県名及び市町村名": "和歌山県印南町",
        "施設・場所名": "印南小学校",
        "住所": "和歌山県印南町大字印南1915",
        "指定緊急避難場所との住所同一": "",
        "その他市町村長が必要と認める事項": null,
        "受入対象者": null,
        "備考": ""
      }
    },
    {
      "type": "Feature",
      "geometry": {
        "type": "Point",
        "coordinates": [
          135.217675,
          33.818103
        ]
      },
      "properties": {
        "NO": 57460,
        "共通ID": "E3039000044111",
        "都道府県名及び市町村名": "和歌山県印南町",
        "施設・場所名": "印南町公民館",
        "住所": "和歌山県印南町大字印南2009-1",
        "指定緊急避難場所との住所同一": "1",
        "その他市町村長が必要と認める事項": null,
        "受入対象者": null,
        "備考": ""
      }
    },
    {
      "type": "Feature",
      "geometry": {
        "type": "Point",
        "coordinates": [
          135.217534,
          33.818639
        ]
      },
      "properties": {
        "NO": 57461,
        "共通ID": "E3039000045111",
        "都道府県名及び市町村名": "和歌山県印南町",
        "施設・場所名": "印南町体育センター",
        "住所": "和歌山県印南町大字印南2012",
        "指定緊急避難場所との住所同一": "",
        "その他市町村長が必要と認める事項": null,
        "受入対象者": null,
        "備考": ""
      }
    },
    {
      "type": "Feature",
      "geometry": {
        "type": "Point",
        "coordinates": [
          135.221495,
          33.814023
        ]
      },
      "properties": {
        "NO": 57462,
        "共通ID": "E3039000046111",
        "都道府県名及び市町村名": "和歌山県印南町",
        "施設・場所名": "宇杉研修施設",
        "住所": "和歌山県印南町大字印南2340-1",
        "指定緊急避難場所との住所同一": "1",
        "その他市町村長が必要と認める事項": null,
        "受入対象者": null,
        "備考": ""
      }
    },
    {
      "type": "Feature",
      "geometry": {
        "type": "Point",
        "coordinates": [
          135.223638,
          33.807669
        ]
      },
      "properties": {
        "NO": 57463,
        "共通ID": "E3039000047111",
        "都道府県名及び市町村名": "和歌山県印南町",
        "施設・場所名": "光川コミュニティセンター",
        "住所": "和歌山県印南町大字印南3652-2",
        "指定緊急避難場所との住所同一": "1",
        "その他市町村長が必要と認める事項": null,
        "受入対象者": null,
        "備考": ""
      }
    },
    {
      "type": "Feature",
      "geometry": {
        "type": "Point",
        "coordinates": [
          135.23317,
          33.829854
        ]
      },
      "properties": {
        "NO": 57464,
        "共通ID": "E3039000048111",
        "都道府県名及び市町村名": "和歌山県印南町",
        "施設・場所名": "いなみカントリークラブ・フジ",
        "住所": "和歌山県印南町大字印南4064-1",
        "指定緊急避難場所との住所同一": "",
        "その他市町村長が必要と認める事項": "大規模災害時避難所",
        "受入対象者": null,
        "備考": ""
      }
    },
    {
      "type": "Feature",
      "geometry": {
        "type": "Point",
        "coordinates": [
          135.227017,
          33.859453
        ]
      },
      "properties": {
        "NO": 57465,
        "共通ID": "E3039000049111",
        "都道府県名及び市町村名": "和歌山県印南町",
        "施設・場所名": "稲原中学校",
        "住所": "和歌山県印南町大字印南原1743",
        "指定緊急避難場所との住所同一": "",
        "その他市町村長が必要と認める事項": null,
        "受入対象者": null,
        "備考": ""
      }
    },
    {
      "type": "Feature",
      "geometry": {
        "type": "Point",
        "coordinates": [
          135.23272,
          33.860173
        ]
      },
      "properties": {
        "NO": 57466,
        "共通ID": "E3039000050111",
        "都道府県名及び市町村名": "和歌山県印南町",
        "施設・場所名": "稲原防災センター",
        "住所": "和歌山県印南町大字印南原4850",
        "指定緊急避難場所との住所同一": "1",
        "その他市町村長が必要と認める事項": null,
        "受入対象者": null,
        "備考": ""
      }
    },
    {
      "type": "Feature",
      "geometry": {
        "type": "Point",
        "coordinates": [
          135.233776,
          33.859508
        ]
      },
      "properties": {
        "NO": 57467,
        "共通ID": "E3039000051111",
        "都道府県名及び市町村名": "和歌山県印南町",
        "施設・場所名": "稲原小学校",
        "住所": "和歌山県印南町大字印南原4955-1",
        "指定緊急避難場所との住所同一": "",
        "その他市町村長が必要と認める事項": null,
        "受入対象者": null,
        "備考": ""
      }
    },
    {
      "type": "Feature",
      "geometry": {
        "type": "Point",
        "coordinates": [
          135.227596,
          33.84915
        ]
      },
      "properties": {
        "NO": 57468,
        "共通ID": "E3039000052111",
        "都道府県名及び市町村名": "和歌山県印南町",
        "施設・場所名": "滝ノ口コミュニティセンター",
        "住所": "和歌山県印南町大字印南原698-2",
        "指定緊急避難場所との住所同一": "",
        "その他市町村長が必要と認める事項": null,
        "受入対象者": null,
        "備考": ""
      }
    },
    {
      "type": "Feature",
      "geometry": {
        "type": "Point",
        "coordinates": [
          135.262406,
          33.838732
        ]
      },
      "properties": {
        "NO": 57469,
        "共通ID": "E3039000053111",
        "都道府県名及び市町村名": "和歌山県印南町",
        "施設・場所名": "清流小学校",
        "住所": "和歌山県印南町大字羽六766",
        "指定緊急避難場所との住所同一": "",
        "その他市町村長が必要と認める事項": null,
        "受入対象者": null,
        "備考": ""
      }
    },
    {
      "type": "Feature",
      "geometry": {
        "type": "Point",
        "coordinates": [
          135.252411,
          33.824537
        ]
      },
      "properties": {
        "NO": 57470,
        "共通ID": "E3039000054111",
        "都道府県名及び市町村名": "和歌山県印南町",
        "施設・場所名": "宮ノ前多目的共同利用施設",
        "住所": "和歌山県印南町大字宮ノ前598",
        "指定緊急避難場所との住所同一": "",
        "その他市町村長が必要と認める事項": null,
        "受入対象者": null,
        "備考": ""
      }
    },
    {
      "type": "Feature",
      "geometry": {
        "type": "Point",
        "coordinates": [
          135.279629,
          33.858864
        ]
      },
      "properties": {
        "NO": 57471,
        "共通ID": "E3039000055111",
        "都道府県名及び市町村名": "和歌山県印南町",
        "施設・場所名": "ラ・グレースゴルフクラブ",
        "住所": "和歌山県印南町大字古井1145",
        "指定緊急避難場所との住所同一": "1",
        "その他市町村長が必要と認める事項": "大規模災害時避難所",
        "受入対象者": null,
        "備考": ""
      }
    },
    {
      "type": "Feature",
      "geometry": {
        "type": "Point",
        "coordinates": [
          135.264799,
          33.854523
        ]
      },
      "properties": {
        "NO": 57472,
        "共通ID": "E3039000056111",
        "都道府県名及び市町村名": "和歌山県印南町",
        "施設・場所名": "切目川防災センター",
        "住所": "和歌山県印南町大字古井623",
        "指定緊急避難場所との住所同一": "",
        "その他市町村長が必要と認める事項": null,
        "受入対象者": null,
        "備考": ""
      }
    },
    {
      "type": "Feature",
      "geometry": {
        "type": "Point",
        "coordinates": [
          135.265625,
          33.849018
        ]
      },
      "properties": {
        "NO": 57473,
        "共通ID": "E3039000057111",
        "都道府県名及び市町村名": "和歌山県印南町",
        "施設・場所名": "清流中学校",
        "住所": "和歌山県印南町大字古井707",
        "指定緊急避難場所との住所同一": "",
        "その他市町村長が必要と認める事項": null,
        "受入対象者": null,
        "備考": ""
      }
    },
    {
      "type": "Feature",
      "geometry": {
        "type": "Point",
        "coordinates": [
          135.254999,
          33.821297
        ]
      },
      "properties": {
        "NO": 57474,
        "共通ID": "E3039000058111",
        "都道府県名及び市町村名": "和歌山県印南町",
        "施設・場所名": "古屋公民館",
        "住所": "和歌山県印南町大字古屋248-3",
        "指定緊急避難場所との住所同一": "",
        "その他市町村長が必要と認める事項": null,
        "受入対象者": null,
        "備考": ""
      }
    },
    {
      "type": "Feature",
      "geometry": {
        "type": "Point",
        "coordinates": [
          135.221601,
          33.821966
        ]
      },
      "properties": {
        "NO": 57475,
        "共通ID": "E3039000059111",
        "都道府県名及び市町村名": "和歌山県印南町",
        "施設・場所名": "カルフール・ド・ルポ印南",
        "住所": "和歌山県印南町大字山口150-1",
        "指定緊急避難場所との住所同一": "",
        "その他市町村長が必要と認める事項": null,
        "受入対象者": null,
        "備考": ""
      }
    },
    {
      "type": "Feature",
      "geometry": {
        "type": "Point",
        "coordinates": [
          135.221601,
          33.821966
        ]
      },
      "properties": {
        "NO": 57476,
        "共通ID": "E3039000059121",
        "都道府県名及び市町村名": "和歌山県印南町",
        "施設・場所名": "カルフール・ド・ルポ印南",
        "住所": "和歌山県印南町大字山口150-1",
        "指定緊急避難場所との住所同一": "",
        "その他市町村長が必要と認める事項": null,
        "受入対象者": "要配慮者",
        "備考": ""
      }
    },
    {
      "type": "Feature",
      "geometry": {
        "type": "Point",
        "coordinates": [
          135.222886,
          33.822568
        ]
      },
      "properties": {
        "NO": 57477,
        "共通ID": "E3039000060121",
        "都道府県名及び市町村名": "和歌山県印南町",
        "施設・場所名": "いなみこども園",
        "住所": "和歌山県印南町大字山口150-3",
        "指定緊急避難場所との住所同一": "1",
        "その他市町村長が必要と認める事項": null,
        "受入対象者": "要配慮者",
        "備考": ""
      }
    },
    {
      "type": "Feature",
      "geometry": {
        "type": "Point",
        "coordinates": [
          135.224084,
          33.832363
        ]
      },
      "properties": {
        "NO": 57478,
        "共通ID": "E3039000061111",
        "都道府県名及び市町村名": "和歌山県印南町",
        "施設・場所名": "山口研修センター",
        "住所": "和歌山県印南町大字山口636-1",
        "指定緊急避難場所との住所同一": "",
        "その他市町村長が必要と認める事項": null,
        "受入対象者": null,
        "備考": ""
      }
    },
    {
      "type": "Feature",
      "geometry": {
        "type": "Point",
        "coordinates": [
          135.280175,
          33.870355
        ]
      },
      "properties": {
        "NO": 57479,
        "共通ID": "E3039000062111",
        "都道府県名及び市町村名": "和歌山県印南町",
        "施設・場所名": "松原コミュニティセンター",
        "住所": "和歌山県印南町大字松原90-1",
        "指定緊急避難場所との住所同一": "1",
        "その他市町村長が必要と認める事項": null,
        "受入対象者": null,
        "備考": ""
      }
    },
    {
      "type": "Feature",
      "geometry": {
        "type": "Point",
        "coordinates": [
          135.342249,
          33.885174
        ]
      },
      "properties": {
        "NO": 57480,
        "共通ID": "E3039000063111",
        "都道府県名及び市町村名": "和歌山県印南町",
        "施設・場所名": "上洞生活改善センター",
        "住所": "和歌山県印南町大字上洞1039-1",
        "指定緊急避難場所との住所同一": "1",
        "その他市町村長が必要と認める事項": null,
        "受入対象者": null,
        "備考": ""
      }
    },
    {
      "type": "Feature",
      "geometry": {
        "type": "Point",
        "coordinates": [
          135.244687,
          33.804267
        ]
      },
      "properties": {
        "NO": 57481,
        "共通ID": "E3039000064111",
        "都道府県名及び市町村名": "和歌山県印南町",
        "施設・場所名": "西ノ地集会場",
        "住所": "和歌山県印南町大字西ノ地1370-2",
        "指定緊急避難場所との住所同一": "",
        "その他市町村長が必要と認める事項": null,
        "受入対象者": null,
        "備考": ""
      }
    },
    {
      "type": "Feature",
      "geometry": {
        "type": "Point",
        "coordinates": [
          135.235481,
          33.800832
        ]
      },
      "properties": {
        "NO": 57482,
        "共通ID": "E3039000065111",
        "都道府県名及び市町村名": "和歌山県印南町",
        "施設・場所名": "元村コミュニティセンター",
        "住所": "和歌山県印南町大字西ノ地210",
        "指定緊急避難場所との住所同一": "",
        "その他市町村長が必要と認める事項": null,
        "受入対象者": null,
        "備考": ""
      }
    },
    {
      "type": "Feature",
      "geometry": {
        "type": "Point",
        "coordinates": [
          135.235448,
          33.802355
        ]
      },
      "properties": {
        "NO": 57483,
        "共通ID": "E3039000066111",
        "都道府県名及び市町村名": "和歌山県印南町",
        "施設・場所名": "切目小学校",
        "住所": "和歌山県印南町大字西ノ地536",
        "指定緊急避難場所との住所同一": "",
        "その他市町村長が必要と認める事項": null,
        "受入対象者": null,
        "備考": ""
      }
    },
    {
      "type": "Feature",
      "geometry": {
        "type": "Point",
        "coordinates": [
          135.35741,
          33.895437
        ]
      },
      "properties": {
        "NO": 57484,
        "共通ID": "E3039000067111",
        "都道府県名及び市町村名": "和歌山県印南町",
        "施設・場所名": "川又集会センター",
        "住所": "和歌山県印南町大字川又334",
        "指定緊急避難場所との住所同一": "",
        "その他市町村長が必要と認める事項": null,
        "受入対象者": null,
        "備考": ""
      }
    },
    {
      "type": "Feature",
      "geometry": {
        "type": "Point",
        "coordinates": [
          135.282302,
          33.86862
        ]
      },
      "properties": {
        "NO": 57485,
        "共通ID": "E3039000068111",
        "都道府県名及び市町村名": "和歌山県印南町",
        "施設・場所名": "丹生多目的集会施設",
        "住所": "和歌山県印南町大字丹生439-1",
        "指定緊急避難場所との住所同一": "",
        "その他市町村長が必要と認める事項": null,
        "受入対象者": null,
        "備考": ""
      }
    },
    {
      "type": "Feature",
      "geometry": {
        "type": "Point",
        "coordinates": [
          135.204256,
          33.814607
        ]
      },
      "properties": {
        "NO": 57486,
        "共通ID": "E3039000069111",
        "都道府県名及び市町村名": "和歌山県印南町",
        "施設・場所名": "津井コミュニティセンター",
        "住所": "和歌山県印南町大字津井306",
        "指定緊急避難場所との住所同一": "",
        "その他市町村長が必要と認める事項": null,
        "受入対象者": null,
        "備考": ""
      }
    },
    {
      "type": "Feature",
      "geometry": {
        "type": "Point",
        "coordinates": [
          135.315572,
          33.87718
        ]
      },
      "properties": {
        "NO": 57487,
        "共通ID": "E3039000070111",
        "都道府県名及び市町村名": "和歌山県印南町",
        "施設・場所名": "旧まづま保育園",
        "住所": "和歌山県印南町大字田ノ垣内150-1",
        "指定緊急避難場所との住所同一": "",
        "その他市町村長が必要と認める事項": null,
        "受入対象者": null,
        "備考": ""
      }
    },
    {
      "type": "Feature",
      "geometry": {
        "type": "Point",
        "coordinates": [
          135.241353,
          33.796037
        ]
      },
      "properties": {
        "NO": 57488,
        "共通ID": "E3039000071111",
        "都道府県名及び市町村名": "和歌山県印南町",
        "施設・場所名": "島田集会所",
        "住所": "和歌山県印南町大字島田1173-1",
        "指定緊急避難場所との住所同一": "",
        "その他市町村長が必要と認める事項": null,
        "受入対象者": null,
        "備考": ""
      }
    },
    {
      "type": "Feature",
      "geometry": {
        "type": "Point",
        "coordinates": [
          135.236619,
          33.788045
        ]
      },
      "properties": {
        "NO": 57489,
        "共通ID": "E3039000072111",
        "都道府県名及び市町村名": "和歌山県印南町",
        "施設・場所名": "崎山漁村センター",
        "住所": "和歌山県印南町大字島田1812-2",
        "指定緊急避難場所との住所同一": "",
        "その他市町村長が必要と認める事項": null,
        "受入対象者": null,
        "備考": ""
      }
    },
    {
      "type": "Feature",
      "geometry": {
        "type": "Point",
        "coordinates": [
          135.235727,
          33.788521
        ]
      },
      "properties": {
        "NO": 57490,
        "共通ID": "E3039000073111",
        "都道府県名及び市町村名": "和歌山県印南町",
        "施設・場所名": "弘龍庵",
        "住所": "和歌山県印南町大字島田1869-1",
        "指定緊急避難場所との住所同一": "1",
        "その他市町村長が必要と認める事項": "大規模災害時避難所",
        "受入対象者": null,
        "備考": ""
      }
    },
    {
      "type": "Feature",
      "geometry": {
        "type": "Point",
        "coordinates": [
          135.186216,
          33.869501
        ]
      },
      "properties": {
        "NO": 57491,
        "共通ID": "E3039000074111",
        "都道府県名及び市町村名": "和歌山県印南町",
        "施設・場所名": "みずほ会館",
        "住所": "和歌山県印南町大字南谷102",
        "指定緊急避難場所との住所同一": "",
        "その他市町村長が必要と認める事項": null,
        "受入対象者": null,
        "備考": ""
      }
    },
    {
      "type": "Feature",
      "geometry": {
        "type": "Point",
        "coordinates": [
          135.199143,
          33.863914
        ]
      },
      "properties": {
        "NO": 57492,
        "共通ID": "E3039000075111",
        "都道府県名及び市町村名": "和歌山県印南町",
        "施設・場所名": "南谷公民館",
        "住所": "和歌山県印南町大字南谷712",
        "指定緊急避難場所との住所同一": "1",
        "その他市町村長が必要と認める事項": null,
        "受入対象者": null,
        "備考": ""
      }
    },
    {
      "type": "Feature",
      "geometry": {
        "type": "Point",
        "coordinates": [
          135.2105,
          33.852025
        ]
      },
      "properties": {
        "NO": 57493,
        "共通ID": "E3039000076111",
        "都道府県名及び市町村名": "和歌山県印南町",
        "施設・場所名": "紀南カントリークラブ",
        "住所": "和歌山県印南町大字南谷925",
        "指定緊急避難場所との住所同一": "1",
        "その他市町村長が必要と認める事項": "大規模災害時避難所",
        "受入対象者": null,
        "備考": ""
      }
    },
    {
      "type": "Feature",
      "geometry": {
        "type": "Point",
        "coordinates": [
          135.286084,
          33.844594
        ]
      },
      "properties": {
        "NO": 57494,
        "共通ID": "E3039000077111",
        "都道府県名及び市町村名": "和歌山県印南町",
        "施設・場所名": "樮川集会所",
        "住所": "和歌山県印南町大字樮川707",
        "指定緊急避難場所との住所同一": "",
        "その他市町村長が必要と認める事項": null,
        "受入対象者": null,
        "備考": ""
      }
    }
  ]
}