{
  "type": "FeatureCollection",
  "name": "313254",
  "features": [
    {
      "type": "Feature",
      "geometry": {
        "type": "Point",
        "coordinates": [
          134.477674,
          35.356934
        ]
      },
      "properties": {
        "NO": 58465,
        "共通ID": "E3132500001111",
        "都道府県名及び市町村名": "鳥取県若桜町",
        "施設・場所名": "旧若桜学園小学校つく米分校",
        "住所": "鳥取県若桜町つく米120",
        "指定緊急避難場所との住所同一": "1",
        "その他市町村長が必要と認める事項": null,
        "受入対象者": null,
        "備考": ""
      }
    },
    {
      "type": "Feature",
      "geometry": {
        "type": "Point",
        "coordinates": [
          134.416427,
          35.271965
        ]
      },
      "properties": {
        "NO": 58466,
        "共通ID": "E3132500002111",
        "都道府県名及び市町村名": "鳥取県若桜町",
        "施設・場所名": "寄来屋",
        "住所": "鳥取県若桜町吉川101",
        "指定緊急避難場所との住所同一": "1",
        "その他市町村長が必要と認める事項": null,
        "受入対象者": null,
        "備考": ""
      }
    },
    {
      "type": "Feature",
      "geometry": {
        "type": "Point",
        "coordinates": [
          134.393082,
          35.348258
        ]
      },
      "properties": {
        "NO": 58467,
        "共通ID": "E3132500003111",
        "都道府県名及び市町村名": "鳥取県若桜町",
        "施設・場所名": "地域福祉センター",
        "住所": "鳥取県若桜町若桜1247-1",
        "指定緊急避難場所との住所同一": "1",
        "その他市町村長が必要と認める事項": null,
        "受入対象者": null,
        "備考": ""
      }
    },
    {
      "type": "Feature",
      "geometry": {
        "type": "Point",
        "coordinates": [
          134.393082,
          35.348258
        ]
      },
      "properties": {
        "NO": 58468,
        "共通ID": "E3132500003121",
        "都道府県名及び市町村名": "鳥取県若桜町",
        "施設・場所名": "地域福祉センター",
        "住所": "鳥取県若桜町若桜1247-1",
        "指定緊急避難場所との住所同一": "1",
        "その他市町村長が必要と認める事項": "兼指定一般避難所",
        "受入対象者": "要配慮者",
        "備考": ""
      }
    },
    {
      "type": "Feature",
      "geometry": {
        "type": "Point",
        "coordinates": [
          134.395295,
          35.34408
        ]
      },
      "properties": {
        "NO": 58469,
        "共通ID": "E3132500004111",
        "都道府県名及び市町村名": "鳥取県若桜町",
        "施設・場所名": "第２町民体育館",
        "住所": "鳥取県若桜町若桜501",
        "指定緊急避難場所との住所同一": "1",
        "その他市町村長が必要と認める事項": null,
        "受入対象者": null,
        "備考": ""
      }
    },
    {
      "type": "Feature",
      "geometry": {
        "type": "Point",
        "coordinates": [
          134.396364,
          35.342602
        ]
      },
      "properties": {
        "NO": 58470,
        "共通ID": "E3132500005111",
        "都道府県名及び市町村名": "鳥取県若桜町",
        "施設・場所名": "わかさこども園",
        "住所": "鳥取県若桜町若桜732-2",
        "指定緊急避難場所との住所同一": "1",
        "その他市町村長が必要と認める事項": "",
        "受入対象者": "",
        "備考": ""
      }
    },
    {
      "type": "Feature",
      "geometry": {
        "type": "Point",
        "coordinates": [
          134.397174,
          35.341851
        ]
      },
      "properties": {
        "NO": 58471,
        "共通ID": "E3132500006111",
        "都道府県名及び市町村名": "鳥取県若桜町",
        "施設・場所名": "若桜町公民館",
        "住所": "鳥取県若桜町若桜757",
        "指定緊急避難場所との住所同一": "1",
        "その他市町村長が必要と認める事項": null,
        "受入対象者": null,
        "備考": ""
      }
    },
    {
      "type": "Feature",
      "geometry": {
        "type": "Point",
        "coordinates": [
          134.398386,
          35.34144
        ]
      },
      "properties": {
        "NO": 58472,
        "共通ID": "E3132500007111",
        "都道府県名及び市町村名": "鳥取県若桜町",
        "施設・場所名": "ゆうゆうわかさ",
        "住所": "鳥取県若桜町若桜772",
        "指定緊急避難場所との住所同一": "1",
        "その他市町村長が必要と認める事項": null,
        "受入対象者": null,
        "備考": ""
      }
    },
    {
      "type": "Feature",
      "geometry": {
        "type": "Point",
        "coordinates": [
          134.398988,
          35.34069
        ]
      },
      "properties": {
        "NO": 58473,
        "共通ID": "E3132500009111",
        "都道府県名及び市町村名": "鳥取県若桜町",
        "施設・場所名": "第１町民体育館",
        "住所": "鳥取県若桜町若桜788-3",
        "指定緊急避難場所との住所同一": "1",
        "その他市町村長が必要と認める事項": null,
        "受入対象者": null,
        "備考": ""
      }
    },
    {
      "type": "Feature",
      "geometry": {
        "type": "Point",
        "coordinates": [
          134.404849,
          35.335649
        ]
      },
      "properties": {
        "NO": 58474,
        "共通ID": "E3132500010111",
        "都道府県名及び市町村名": "鳥取県若桜町",
        "施設・場所名": "若桜学園　校舎・体育館",
        "住所": "鳥取県若桜町浅井289",
        "指定緊急避難場所との住所同一": "1",
        "その他市町村長が必要と認める事項": null,
        "受入対象者": null,
        "備考": ""
      }
    },
    {
      "type": "Feature",
      "geometry": {
        "type": "Point",
        "coordinates": [
          134.442136,
          35.292565
        ]
      },
      "properties": {
        "NO": 58475,
        "共通ID": "E3132500011111",
        "都道府県名及び市町村名": "鳥取県若桜町",
        "施設・場所名": "旧池田小学校　体育館",
        "住所": "鳥取県若桜町中原326",
        "指定緊急避難場所との住所同一": "1",
        "その他市町村長が必要と認める事項": null,
        "受入対象者": null,
        "備考": ""
      }
    }
  ]
}