{
  "type": "FeatureCollection",
  "name": "322075",
  "features": [
    {
      "type": "Feature",
      "geometry": {
        "type": "Point",
        "coordinates": [
          132.214025,
          34.998394
        ]
      },
      "properties": {
        "NO": 59510,
        "共通ID": "E3220700001111",
        "都道府県名及び市町村名": "島根県江津市",
        "施設・場所名": "江津市民体育館",
        "住所": "島根県江津市嘉久志町2052",
        "指定緊急避難場所との住所同一": "1",
        "その他市町村長が必要と認める事項": null,
        "受入対象者": null,
        "備考": ""
      }
    },
    {
      "type": "Feature",
      "geometry": {
        "type": "Point",
        "coordinates": [
          132.211987,
          35.005472
        ]
      },
      "properties": {
        "NO": 59511,
        "共通ID": "E3220700002111",
        "都道府県名及び市町村名": "島根県江津市",
        "施設・場所名": "嘉久志地域コミュニティ交流センター",
        "住所": "島根県江津市嘉久志町イ1503",
        "指定緊急避難場所との住所同一": "1",
        "その他市町村長が必要と認める事項": null,
        "受入対象者": null,
        "備考": ""
      }
    },
    {
      "type": "Feature",
      "geometry": {
        "type": "Point",
        "coordinates": [
          132.21024,
          35.00327
        ]
      },
      "properties": {
        "NO": 59512,
        "共通ID": "E3220700004111",
        "都道府県名及び市町村名": "島根県江津市",
        "施設・場所名": "高角小学校（体育館）",
        "住所": "島根県江津市嘉久志町イ645",
        "指定緊急避難場所との住所同一": "1",
        "その他市町村長が必要と認める事項": null,
        "受入対象者": null,
        "備考": ""
      }
    },
    {
      "type": "Feature",
      "geometry": {
        "type": "Point",
        "coordinates": [
          132.216249,
          35.006156
        ]
      },
      "properties": {
        "NO": 59513,
        "共通ID": "E3220700005111",
        "都道府県名及び市町村名": "島根県江津市",
        "施設・場所名": "江津保健センター",
        "住所": "島根県江津市嘉久志町イ899-74",
        "指定緊急避難場所との住所同一": "1",
        "その他市町村長が必要と認める事項": null,
        "受入対象者": null,
        "備考": ""
      }
    },
    {
      "type": "Feature",
      "geometry": {
        "type": "Point",
        "coordinates": [
          132.249853,
          35.007124
        ]
      },
      "properties": {
        "NO": 59514,
        "共通ID": "E3220700006111",
        "都道府県名及び市町村名": "島根県江津市",
        "施設・場所名": "旧金田ふれあいセンター",
        "住所": "島根県江津市金田町214",
        "指定緊急避難場所との住所同一": "1",
        "その他市町村長が必要と認める事項": null,
        "受入対象者": null,
        "備考": ""
      }
    },
    {
      "type": "Feature",
      "geometry": {
        "type": "Point",
        "coordinates": [
          132.249109,
          35.00321
        ]
      },
      "properties": {
        "NO": 59515,
        "共通ID": "E3220700007111",
        "都道府県名及び市町村名": "島根県江津市",
        "施設・場所名": "金田八幡宮",
        "住所": "島根県江津市金田町イ109",
        "指定緊急避難場所との住所同一": "1",
        "その他市町村長が必要と認める事項": null,
        "受入対象者": null,
        "備考": ""
      }
    },
    {
      "type": "Feature",
      "geometry": {
        "type": "Point",
        "coordinates": [
          132.259731,
          35.001018
        ]
      },
      "properties": {
        "NO": 59516,
        "共通ID": "E3220700008111",
        "都道府県名及び市町村名": "島根県江津市",
        "施設・場所名": "金田大元神社",
        "住所": "島根県江津市金田町ロ281",
        "指定緊急避難場所との住所同一": "1",
        "その他市町村長が必要と認める事項": null,
        "受入対象者": null,
        "備考": ""
      }
    },
    {
      "type": "Feature",
      "geometry": {
        "type": "Point",
        "coordinates": [
          132.167841,
          34.974542
        ]
      },
      "properties": {
        "NO": 59517,
        "共通ID": "E3220700009111",
        "都道府県名及び市町村名": "島根県江津市",
        "施設・場所名": "敬川保育所",
        "住所": "島根県江津市敬川町1119-13",
        "指定緊急避難場所との住所同一": "1",
        "その他市町村長が必要と認める事項": null,
        "受入対象者": null,
        "備考": ""
      }
    },
    {
      "type": "Feature",
      "geometry": {
        "type": "Point",
        "coordinates": [
          132.174247,
          34.97509
        ]
      },
      "properties": {
        "NO": 59518,
        "共通ID": "E3220700010111",
        "都道府県名及び市町村名": "島根県江津市",
        "施設・場所名": "敬川地域コミュニティ交流センター",
        "住所": "島根県江津市敬川町1716-5",
        "指定緊急避難場所との住所同一": "1",
        "その他市町村長が必要と認める事項": null,
        "受入対象者": null,
        "備考": ""
      }
    },
    {
      "type": "Feature",
      "geometry": {
        "type": "Point",
        "coordinates": [
          132.158076,
          34.973545
        ]
      },
      "properties": {
        "NO": 59519,
        "共通ID": "E3220700011111",
        "都道府県名及び市町村名": "島根県江津市",
        "施設・場所名": "川波小学校（体育館）",
        "住所": "島根県江津市敬川町2251-2",
        "指定緊急避難場所との住所同一": "1",
        "その他市町村長が必要と認める事項": null,
        "受入対象者": null,
        "備考": ""
      }
    },
    {
      "type": "Feature",
      "geometry": {
        "type": "Point",
        "coordinates": [
          132.292357,
          35.041592
        ]
      },
      "properties": {
        "NO": 59520,
        "共通ID": "E3220700012111",
        "都道府県名及び市町村名": "島根県江津市",
        "施設・場所名": "江津東小学校（体育館）",
        "住所": "島根県江津市後地町1035",
        "指定緊急避難場所との住所同一": "1",
        "その他市町村長が必要と認める事項": null,
        "受入対象者": null,
        "備考": ""
      }
    },
    {
      "type": "Feature",
      "geometry": {
        "type": "Point",
        "coordinates": [
          132.295521,
          35.045832
        ]
      },
      "properties": {
        "NO": 59521,
        "共通ID": "E3220700013111",
        "都道府県名及び市町村名": "島根県江津市",
        "施設・場所名": "波来浜ふれあい集会所",
        "住所": "島根県江津市後地町2969-28",
        "指定緊急避難場所との住所同一": "1",
        "その他市町村長が必要と認める事項": null,
        "受入対象者": null,
        "備考": ""
      }
    },
    {
      "type": "Feature",
      "geometry": {
        "type": "Point",
        "coordinates": [
          132.300629,
          35.037214
        ]
      },
      "properties": {
        "NO": 59522,
        "共通ID": "E3220700014111",
        "都道府県名及び市町村名": "島根県江津市",
        "施設・場所名": "都治地域コミュニティ交流センター",
        "住所": "島根県江津市後地町829-1",
        "指定緊急避難場所との住所同一": "1",
        "その他市町村長が必要と認める事項": null,
        "受入対象者": null,
        "備考": ""
      }
    },
    {
      "type": "Feature",
      "geometry": {
        "type": "Point",
        "coordinates": [
          132.301016,
          35.0384
        ]
      },
      "properties": {
        "NO": 59523,
        "共通ID": "E3220700015111",
        "都道府県名及び市町村名": "島根県江津市",
        "施設・場所名": "さくらこども園",
        "住所": "島根県江津市後地町843-1",
        "指定緊急避難場所との住所同一": "1",
        "その他市町村長が必要と認める事項": null,
        "受入対象者": null,
        "備考": ""
      }
    },
    {
      "type": "Feature",
      "geometry": {
        "type": "Point",
        "coordinates": [
          132.296808,
          35.043837
        ]
      },
      "properties": {
        "NO": 59524,
        "共通ID": "E3220700016111",
        "都道府県名及び市町村名": "島根県江津市",
        "施設・場所名": "江東中学校（体育館）",
        "住所": "島根県江津市後地町978-9",
        "指定緊急避難場所との住所同一": "1",
        "その他市町村長が必要と認める事項": null,
        "受入対象者": null,
        "備考": ""
      }
    },
    {
      "type": "Feature",
      "geometry": {
        "type": "Point",
        "coordinates": [
          132.21425,
          35.014584
        ]
      },
      "properties": {
        "NO": 59525,
        "共通ID": "E3220700018111",
        "都道府県名及び市町村名": "島根県江津市",
        "施設・場所名": "江津中学校（体育館）",
        "住所": "島根県江津市江津町1016-1",
        "指定緊急避難場所との住所同一": "1",
        "その他市町村長が必要と認める事項": null,
        "受入対象者": null,
        "備考": ""
      }
    },
    {
      "type": "Feature",
      "geometry": {
        "type": "Point",
        "coordinates": [
          132.217706,
          35.011651
        ]
      },
      "properties": {
        "NO": 59526,
        "共通ID": "E3220700092111",
        "都道府県名及び市町村名": "島根県江津市",
        "施設・場所名": "江津市役所本庁舎",
        "住所": "島根県江津市江津町1016-4",
        "指定緊急避難場所との住所同一": "",
        "その他市町村長が必要と認める事項": "",
        "受入対象者": "",
        "備考": ""
      }
    },
    {
      "type": "Feature",
      "geometry": {
        "type": "Point",
        "coordinates": [
          132.216833,
          35.013846
        ]
      },
      "properties": {
        "NO": 59527,
        "共通ID": "E3220700019111",
        "都道府県名及び市町村名": "島根県江津市",
        "施設・場所名": "めぐみ保育園",
        "住所": "島根県江津市江津町1016-47",
        "指定緊急避難場所との住所同一": "",
        "その他市町村長が必要と認める事項": null,
        "受入対象者": null,
        "備考": ""
      }
    },
    {
      "type": "Feature",
      "geometry": {
        "type": "Point",
        "coordinates": [
          132.217793,
          35.013311
        ]
      },
      "properties": {
        "NO": 59528,
        "共通ID": "E3220700089121",
        "都道府県名及び市町村名": "島根県江津市",
        "施設・場所名": "特別養護老人ホーム白寿園",
        "住所": "島根県江津市江津町1110",
        "指定緊急避難場所との住所同一": "",
        "その他市町村長が必要と認める事項": "",
        "受入対象者": "要配慮者のうち市が施設の利用を認めた者及びその介助者",
        "備考": ""
      }
    },
    {
      "type": "Feature",
      "geometry": {
        "type": "Point",
        "coordinates": [
          132.218772,
          35.012454
        ]
      },
      "properties": {
        "NO": 59529,
        "共通ID": "E3220700020111",
        "都道府県名及び市町村名": "島根県江津市",
        "施設・場所名": "江津市総合市民センター",
        "住所": "島根県江津市江津町1110-17",
        "指定緊急避難場所との住所同一": "1",
        "その他市町村長が必要と認める事項": null,
        "受入対象者": null,
        "備考": ""
      }
    },
    {
      "type": "Feature",
      "geometry": {
        "type": "Point",
        "coordinates": [
          132.223095,
          35.013965
        ]
      },
      "properties": {
        "NO": 59530,
        "共通ID": "E3220700021111",
        "都道府県名及び市町村名": "島根県江津市",
        "施設・場所名": "江津市子育てサポートセンター",
        "住所": "島根県江津市江津町1518-1",
        "指定緊急避難場所との住所同一": "1",
        "その他市町村長が必要と認める事項": null,
        "受入対象者": null,
        "備考": ""
      }
    },
    {
      "type": "Feature",
      "geometry": {
        "type": "Point",
        "coordinates": [
          132.226178,
          35.006778
        ]
      },
      "properties": {
        "NO": 59531,
        "共通ID": "E3220700022111",
        "都道府県名及び市町村名": "島根県江津市",
        "施設・場所名": "本町第１自治会集会所",
        "住所": "島根県江津市江津町209-1",
        "指定緊急避難場所との住所同一": "",
        "その他市町村長が必要と認める事項": null,
        "受入対象者": null,
        "備考": ""
      }
    },
    {
      "type": "Feature",
      "geometry": {
        "type": "Point",
        "coordinates": [
          132.223901,
          35.00791
        ]
      },
      "properties": {
        "NO": 59532,
        "共通ID": "E3220700023111",
        "都道府県名及び市町村名": "島根県江津市",
        "施設・場所名": "郷田小学校（体育館）",
        "住所": "島根県江津市江津町536",
        "指定緊急避難場所との住所同一": "1",
        "その他市町村長が必要と認める事項": null,
        "受入対象者": null,
        "備考": ""
      }
    },
    {
      "type": "Feature",
      "geometry": {
        "type": "Point",
        "coordinates": [
          132.221587,
          35.009649
        ]
      },
      "properties": {
        "NO": 59533,
        "共通ID": "E3220700024111",
        "都道府県名及び市町村名": "島根県江津市",
        "施設・場所名": "郷田地域コミュニティ交流センター",
        "住所": "島根県江津市江津町995",
        "指定緊急避難場所との住所同一": "1",
        "その他市町村長が必要と認める事項": null,
        "受入対象者": null,
        "備考": ""
      }
    },
    {
      "type": "Feature",
      "geometry": {
        "type": "Point",
        "coordinates": [
          132.311822,
          35.055173
        ]
      },
      "properties": {
        "NO": 59534,
        "共通ID": "E3220700025112",
        "都道府県名及び市町村名": "島根県江津市",
        "施設・場所名": "黒松地域コミュニティ交流センター",
        "住所": "島根県江津市黒松町586",
        "指定緊急避難場所との住所同一": "1",
        "その他市町村長が必要と認める事項": null,
        "受入対象者": null,
        "備考": ""
      }
    },
    {
      "type": "Feature",
      "geometry": {
        "type": "Point",
        "coordinates": [
          132.311846,
          35.055487
        ]
      },
      "properties": {
        "NO": 59535,
        "共通ID": "E3220700025111",
        "都道府県名及び市町村名": "島根県江津市",
        "施設・場所名": "黒松ふれあい交流センター",
        "住所": "島根県江津市黒松町586",
        "指定緊急避難場所との住所同一": "1",
        "その他市町村長が必要と認める事項": null,
        "受入対象者": null,
        "備考": ""
      }
    },
    {
      "type": "Feature",
      "geometry": {
        "type": "Point",
        "coordinates": [
          132.310879,
          35.055342
        ]
      },
      "properties": {
        "NO": 59536,
        "共通ID": "E3220700026111",
        "都道府県名及び市町村名": "島根県江津市",
        "施設・場所名": "配食サービスセンター合歓の郷",
        "住所": "島根県江津市黒松町606-1",
        "指定緊急避難場所との住所同一": "",
        "その他市町村長が必要と認める事項": null,
        "受入対象者": null,
        "備考": ""
      }
    },
    {
      "type": "Feature",
      "geometry": {
        "type": "Point",
        "coordinates": [
          132.313235,
          35.060288
        ]
      },
      "properties": {
        "NO": 59537,
        "共通ID": "E3220700027111",
        "都道府県名及び市町村名": "島根県江津市",
        "施設・場所名": "法正寺",
        "住所": "島根県江津市黒松町799",
        "指定緊急避難場所との住所同一": "1",
        "その他市町村長が必要と認める事項": null,
        "受入対象者": null,
        "備考": ""
      }
    },
    {
      "type": "Feature",
      "geometry": {
        "type": "Point",
        "coordinates": [
          132.308114,
          34.961113
        ]
      },
      "properties": {
        "NO": 59538,
        "共通ID": "E3220700028111",
        "都道府県名及び市町村名": "島根県江津市",
        "施設・場所名": "後山集落センター",
        "住所": "島根県江津市桜江町後山418-1",
        "指定緊急避難場所との住所同一": "1",
        "その他市町村長が必要と認める事項": null,
        "受入対象者": null,
        "備考": ""
      }
    },
    {
      "type": "Feature",
      "geometry": {
        "type": "Point",
        "coordinates": [
          132.318416,
          34.932629
        ]
      },
      "properties": {
        "NO": 59539,
        "共通ID": "E3220700029111",
        "都道府県名及び市町村名": "島根県江津市",
        "施設・場所名": "江尾大元神社",
        "住所": "島根県江津市桜江町江尾110-15",
        "指定緊急避難場所との住所同一": "1",
        "その他市町村長が必要と認める事項": null,
        "受入対象者": null,
        "備考": ""
      }
    },
    {
      "type": "Feature",
      "geometry": {
        "type": "Point",
        "coordinates": [
          132.323065,
          34.936733
        ]
      },
      "properties": {
        "NO": 59540,
        "共通ID": "E3220700030111",
        "都道府県名及び市町村名": "島根県江津市",
        "施設・場所名": "福應寺",
        "住所": "島根県江津市桜江町江尾403",
        "指定緊急避難場所との住所同一": "1",
        "その他市町村長が必要と認める事項": null,
        "受入対象者": null,
        "備考": ""
      }
    },
    {
      "type": "Feature",
      "geometry": {
        "type": "Point",
        "coordinates": [
          132.335782,
          34.942475
        ]
      },
      "properties": {
        "NO": 59541,
        "共通ID": "E3220700031111",
        "都道府県名及び市町村名": "島根県江津市",
        "施設・場所名": "今田集会所",
        "住所": "島根県江津市桜江町今田502-1",
        "指定緊急避難場所との住所同一": "1",
        "その他市町村長が必要と認める事項": null,
        "受入対象者": null,
        "備考": ""
      }
    },
    {
      "type": "Feature",
      "geometry": {
        "type": "Point",
        "coordinates": [
          132.434114,
          34.959466
        ]
      },
      "properties": {
        "NO": 59542,
        "共通ID": "E3220700032111",
        "都道府県名及び市町村名": "島根県江津市",
        "施設・場所名": "坂本集会所",
        "住所": "島根県江津市桜江町坂本1948",
        "指定緊急避難場所との住所同一": "",
        "その他市町村長が必要と認める事項": null,
        "受入対象者": null,
        "備考": ""
      }
    },
    {
      "type": "Feature",
      "geometry": {
        "type": "Point",
        "coordinates": [
          132.318194,
          34.942003
        ]
      },
      "properties": {
        "NO": 59543,
        "共通ID": "E3220700034111",
        "都道府県名及び市町村名": "島根県江津市",
        "施設・場所名": "正蓮寺",
        "住所": "島根県江津市桜江町市山323",
        "指定緊急避難場所との住所同一": "1",
        "その他市町村長が必要と認める事項": null,
        "受入対象者": null,
        "備考": ""
      }
    },
    {
      "type": "Feature",
      "geometry": {
        "type": "Point",
        "coordinates": [
          132.319749,
          34.942365
        ]
      },
      "properties": {
        "NO": 59544,
        "共通ID": "E3220700035111",
        "都道府県名及び市町村名": "島根県江津市",
        "施設・場所名": "市山文化福祉センター",
        "住所": "島根県江津市桜江町市山344",
        "指定緊急避難場所との住所同一": "",
        "その他市町村長が必要と認める事項": null,
        "受入対象者": null,
        "備考": ""
      }
    },
    {
      "type": "Feature",
      "geometry": {
        "type": "Point",
        "coordinates": [
          132.318521,
          34.939413
        ]
      },
      "properties": {
        "NO": 59545,
        "共通ID": "E3220700036111",
        "都道府県名及び市町村名": "島根県江津市",
        "施設・場所名": "旧市山保育所",
        "住所": "島根県江津市桜江町市山460",
        "指定緊急避難場所との住所同一": "",
        "その他市町村長が必要と認める事項": null,
        "受入対象者": null,
        "備考": ""
      }
    },
    {
      "type": "Feature",
      "geometry": {
        "type": "Point",
        "coordinates": [
          132.318648,
          34.940065
        ]
      },
      "properties": {
        "NO": 59546,
        "共通ID": "E3220700037111",
        "都道府県名及び市町村名": "島根県江津市",
        "施設・場所名": "市山地域コミュニティ交流センター",
        "住所": "島根県江津市桜江町市山481",
        "指定緊急避難場所との住所同一": "1",
        "その他市町村長が必要と認める事項": null,
        "受入対象者": null,
        "備考": ""
      }
    },
    {
      "type": "Feature",
      "geometry": {
        "type": "Point",
        "coordinates": [
          132.445235,
          34.962339
        ]
      },
      "properties": {
        "NO": 59547,
        "共通ID": "E3220700038111",
        "都道府県名及び市町村名": "島根県江津市",
        "施設・場所名": "鹿賀会館",
        "住所": "島根県江津市桜江町鹿賀426-2",
        "指定緊急避難場所との住所同一": "1",
        "その他市町村長が必要と認める事項": null,
        "受入対象者": null,
        "備考": ""
      }
    },
    {
      "type": "Feature",
      "geometry": {
        "type": "Point",
        "coordinates": [
          132.330035,
          34.949384
        ]
      },
      "properties": {
        "NO": 59548,
        "共通ID": "E3220700039111",
        "都道府県名及び市町村名": "島根県江津市",
        "施設・場所名": "小田集会所",
        "住所": "島根県江津市桜江町小田128",
        "指定緊急避難場所との住所同一": "",
        "その他市町村長が必要と認める事項": null,
        "受入対象者": null,
        "備考": ""
      }
    },
    {
      "type": "Feature",
      "geometry": {
        "type": "Point",
        "coordinates": [
          132.329717,
          34.950231
        ]
      },
      "properties": {
        "NO": 59549,
        "共通ID": "E3220700091121",
        "都道府県名及び市町村名": "島根県江津市",
        "施設・場所名": "桜江高齢者生活福祉センター桜寿園",
        "住所": "島根県江津市桜江町小田138-1",
        "指定緊急避難場所との住所同一": "",
        "その他市町村長が必要と認める事項": "",
        "受入対象者": "要配慮者のうち市が施設の利用を認めた者及びその介助者",
        "備考": ""
      }
    },
    {
      "type": "Feature",
      "geometry": {
        "type": "Point",
        "coordinates": [
          132.327215,
          34.945417
        ]
      },
      "properties": {
        "NO": 59550,
        "共通ID": "E3220700040111",
        "都道府県名及び市町村名": "島根県江津市",
        "施設・場所名": "小田八幡宮",
        "住所": "島根県江津市桜江町小田996",
        "指定緊急避難場所との住所同一": "1",
        "その他市町村長が必要と認める事項": null,
        "受入対象者": null,
        "備考": ""
      }
    },
    {
      "type": "Feature",
      "geometry": {
        "type": "Point",
        "coordinates": [
          132.424325,
          34.956348
        ]
      },
      "properties": {
        "NO": 59551,
        "共通ID": "E3220700041111",
        "都道府県名及び市町村名": "島根県江津市",
        "施設・場所名": "渡会館",
        "住所": "島根県江津市桜江町川越57",
        "指定緊急避難場所との住所同一": "",
        "その他市町村長が必要と認める事項": null,
        "受入対象者": null,
        "備考": ""
      }
    },
    {
      "type": "Feature",
      "geometry": {
        "type": "Point",
        "coordinates": [
          132.413643,
          34.947461
        ]
      },
      "properties": {
        "NO": 59552,
        "共通ID": "E3220700088111",
        "都道府県名及び市町村名": "島根県江津市",
        "施設・場所名": "川越地域コミュニティ交流センター・防災拠点施設",
        "住所": "島根県江津市桜江町川越631",
        "指定緊急避難場所との住所同一": "",
        "その他市町村長が必要と認める事項": "",
        "受入対象者": "",
        "備考": ""
      }
    },
    {
      "type": "Feature",
      "geometry": {
        "type": "Point",
        "coordinates": [
          132.412847,
          34.945951
        ]
      },
      "properties": {
        "NO": 59553,
        "共通ID": "E3220700042111",
        "都道府県名及び市町村名": "島根県江津市",
        "施設・場所名": "川越地区体育館",
        "住所": "島根県江津市桜江町川越678",
        "指定緊急避難場所との住所同一": "",
        "その他市町村長が必要と認める事項": null,
        "受入対象者": null,
        "備考": ""
      }
    },
    {
      "type": "Feature",
      "geometry": {
        "type": "Point",
        "coordinates": [
          132.335413,
          34.958622
        ]
      },
      "properties": {
        "NO": 59554,
        "共通ID": "E3220700043111",
        "都道府県名及び市町村名": "島根県江津市",
        "施設・場所名": "桜江総合センター",
        "住所": "島根県江津市桜江町川戸11-1",
        "指定緊急避難場所との住所同一": "1",
        "その他市町村長が必要と認める事項": null,
        "受入対象者": null,
        "備考": ""
      }
    },
    {
      "type": "Feature",
      "geometry": {
        "type": "Point",
        "coordinates": [
          132.335798,
          34.952828
        ]
      },
      "properties": {
        "NO": 59555,
        "共通ID": "E3220700044111",
        "都道府県名及び市町村名": "島根県江津市",
        "施設・場所名": "桜江中学校（体育館）",
        "住所": "島根県江津市桜江町川戸1337",
        "指定緊急避難場所との住所同一": "1",
        "その他市町村長が必要と認める事項": null,
        "受入対象者": null,
        "備考": ""
      }
    },
    {
      "type": "Feature",
      "geometry": {
        "type": "Point",
        "coordinates": [
          132.34382,
          34.949726
        ]
      },
      "properties": {
        "NO": 59556,
        "共通ID": "E3220700045111",
        "都道府県名及び市町村名": "島根県江津市",
        "施設・場所名": "三田地集会所",
        "住所": "島根県江津市桜江町川戸655-5",
        "指定緊急避難場所との住所同一": "1",
        "その他市町村長が必要と認める事項": null,
        "受入対象者": null,
        "備考": ""
      }
    },
    {
      "type": "Feature",
      "geometry": {
        "type": "Point",
        "coordinates": [
          132.376724,
          34.958548
        ]
      },
      "properties": {
        "NO": 59557,
        "共通ID": "E3220700046111",
        "都道府県名及び市町村名": "島根県江津市",
        "施設・場所名": "下大貫会館",
        "住所": "島根県江津市桜江町大貫37-1",
        "指定緊急避難場所との住所同一": "",
        "その他市町村長が必要と認める事項": null,
        "受入対象者": null,
        "備考": ""
      }
    },
    {
      "type": "Feature",
      "geometry": {
        "type": "Point",
        "coordinates": [
          132.404922,
          34.951583
        ]
      },
      "properties": {
        "NO": 59558,
        "共通ID": "E3220700047111",
        "都道府県名及び市町村名": "島根県江津市",
        "施設・場所名": "川越生活改善センター",
        "住所": "島根県江津市桜江町大貫445-1",
        "指定緊急避難場所との住所同一": "",
        "その他市町村長が必要と認める事項": null,
        "受入対象者": null,
        "備考": ""
      }
    },
    {
      "type": "Feature",
      "geometry": {
        "type": "Point",
        "coordinates": [
          132.360974,
          34.977847
        ]
      },
      "properties": {
        "NO": 59559,
        "共通ID": "E3220700048111",
        "都道府県名及び市町村名": "島根県江津市",
        "施設・場所名": "谷集会所",
        "住所": "島根県江津市桜江町谷住郷1217-7",
        "指定緊急避難場所との住所同一": "",
        "その他市町村長が必要と認める事項": null,
        "受入対象者": null,
        "備考": ""
      }
    },
    {
      "type": "Feature",
      "geometry": {
        "type": "Point",
        "coordinates": [
          132.338382,
          34.96597
        ]
      },
      "properties": {
        "NO": 59560,
        "共通ID": "E3220700049111",
        "都道府県名及び市町村名": "島根県江津市",
        "施設・場所名": "谷住郷地域コミュニティ交流センター",
        "住所": "島根県江津市桜江町谷住郷1824-1",
        "指定緊急避難場所との住所同一": "1",
        "その他市町村長が必要と認める事項": null,
        "受入対象者": null,
        "備考": ""
      }
    },
    {
      "type": "Feature",
      "geometry": {
        "type": "Point",
        "coordinates": [
          132.338087,
          34.96732
        ]
      },
      "properties": {
        "NO": 59561,
        "共通ID": "E3220700050111",
        "都道府県名及び市町村名": "島根県江津市",
        "施設・場所名": "谷住郷地域コミュニティ体育館",
        "住所": "島根県江津市桜江町谷住郷1872",
        "指定緊急避難場所との住所同一": "",
        "その他市町村長が必要と認める事項": null,
        "受入対象者": null,
        "備考": ""
      }
    },
    {
      "type": "Feature",
      "geometry": {
        "type": "Point",
        "coordinates": [
          132.33395,
          34.965482
        ]
      },
      "properties": {
        "NO": 59562,
        "共通ID": "E3220700051111",
        "都道府県名及び市町村名": "島根県江津市",
        "施設・場所名": "見水山八幡宮",
        "住所": "島根県江津市桜江町谷住郷2252",
        "指定緊急避難場所との住所同一": "1",
        "その他市町村長が必要と認める事項": null,
        "受入対象者": null,
        "備考": ""
      }
    },
    {
      "type": "Feature",
      "geometry": {
        "type": "Point",
        "coordinates": [
          132.274908,
          34.924344
        ]
      },
      "properties": {
        "NO": 59563,
        "共通ID": "E3220700052111",
        "都道府県名及び市町村名": "島根県江津市",
        "施設・場所名": "長谷生活改善センター",
        "住所": "島根県江津市桜江町長谷1585-8",
        "指定緊急避難場所との住所同一": "1",
        "その他市町村長が必要と認める事項": null,
        "受入対象者": null,
        "備考": ""
      }
    },
    {
      "type": "Feature",
      "geometry": {
        "type": "Point",
        "coordinates": [
          132.27415,
          34.924723
        ]
      },
      "properties": {
        "NO": 59564,
        "共通ID": "E3220700053111",
        "都道府県名及び市町村名": "島根県江津市",
        "施設・場所名": "長谷地域コミュニティ交流センター",
        "住所": "島根県江津市桜江町長谷1587-2",
        "指定緊急避難場所との住所同一": "1",
        "その他市町村長が必要と認める事項": null,
        "受入対象者": null,
        "備考": ""
      }
    },
    {
      "type": "Feature",
      "geometry": {
        "type": "Point",
        "coordinates": [
          132.270227,
          34.922011
        ]
      },
      "properties": {
        "NO": 59565,
        "共通ID": "E3220700090121",
        "都道府県名及び市町村名": "島根県江津市",
        "施設・場所名": "風の里陽光苑",
        "住所": "島根県江津市桜江町長谷2723-2",
        "指定緊急避難場所との住所同一": "",
        "その他市町村長が必要と認める事項": "",
        "受入対象者": "要配慮者のうち市が施設の利用を認めた者及びその介助者",
        "備考": ""
      }
    },
    {
      "type": "Feature",
      "geometry": {
        "type": "Point",
        "coordinates": [
          132.270184,
          34.922015
        ]
      },
      "properties": {
        "NO": 59566,
        "共通ID": "E3220700090122",
        "都道府県名及び市町村名": "島根県江津市",
        "施設・場所名": "陽光苑グループホーム",
        "住所": "島根県江津市桜江町長谷2723-2",
        "指定緊急避難場所との住所同一": "",
        "その他市町村長が必要と認める事項": "",
        "受入対象者": "要配慮者のうち市が施設の利用を認めた者及びその介助者",
        "備考": ""
      }
    },
    {
      "type": "Feature",
      "geometry": {
        "type": "Point",
        "coordinates": [
          132.270169,
          34.921997
        ]
      },
      "properties": {
        "NO": 59567,
        "共通ID": "E3220700090123",
        "都道府県名及び市町村名": "島根県江津市",
        "施設・場所名": "陽光苑デイサービスセンター",
        "住所": "島根県江津市桜江町長谷2723-2",
        "指定緊急避難場所との住所同一": "",
        "その他市町村長が必要と認める事項": "",
        "受入対象者": "要配慮者のうち市が施設の利用を認めた者及びその介助者",
        "備考": ""
      }
    },
    {
      "type": "Feature",
      "geometry": {
        "type": "Point",
        "coordinates": [
          132.26104,
          34.919423
        ]
      },
      "properties": {
        "NO": 59568,
        "共通ID": "E3220700054111",
        "都道府県名及び市町村名": "島根県江津市",
        "施設・場所名": "山中集会所",
        "住所": "島根県江津市桜江町長谷292-2",
        "指定緊急避難場所との住所同一": "1",
        "その他市町村長が必要と認める事項": null,
        "受入対象者": null,
        "備考": ""
      }
    },
    {
      "type": "Feature",
      "geometry": {
        "type": "Point",
        "coordinates": [
          132.389692,
          34.951563
        ]
      },
      "properties": {
        "NO": 59569,
        "共通ID": "E3220700055111",
        "都道府県名及び市町村名": "島根県江津市",
        "施設・場所名": "田津会館",
        "住所": "島根県江津市桜江町田津254-1",
        "指定緊急避難場所との住所同一": "",
        "その他市町村長が必要と認める事項": null,
        "受入対象者": null,
        "備考": ""
      }
    },
    {
      "type": "Feature",
      "geometry": {
        "type": "Point",
        "coordinates": [
          132.269541,
          34.908374
        ]
      },
      "properties": {
        "NO": 59570,
        "共通ID": "E3220700056111",
        "都道府県名及び市町村名": "島根県江津市",
        "施設・場所名": "勝地集会所",
        "住所": "島根県江津市桜江町八戸1351",
        "指定緊急避難場所との住所同一": "",
        "その他市町村長が必要と認める事項": null,
        "受入対象者": null,
        "備考": ""
      }
    },
    {
      "type": "Feature",
      "geometry": {
        "type": "Point",
        "coordinates": [
          132.291865,
          34.917555
        ]
      },
      "properties": {
        "NO": 59571,
        "共通ID": "E3220700057111",
        "都道府県名及び市町村名": "島根県江津市",
        "施設・場所名": "八戸集会所",
        "住所": "島根県江津市桜江町八戸287-1",
        "指定緊急避難場所との住所同一": "",
        "その他市町村長が必要と認める事項": null,
        "受入対象者": null,
        "備考": ""
      }
    },
    {
      "type": "Feature",
      "geometry": {
        "type": "Point",
        "coordinates": [
          132.283152,
          34.999717
        ]
      },
      "properties": {
        "NO": 59572,
        "共通ID": "E3220700058111",
        "都道府県名及び市町村名": "島根県江津市",
        "施設・場所名": "松平地域コミュニティ交流センター",
        "住所": "島根県江津市松川町市村123",
        "指定緊急避難場所との住所同一": "1",
        "その他市町村長が必要と認める事項": null,
        "受入対象者": null,
        "備考": ""
      }
    },
    {
      "type": "Feature",
      "geometry": {
        "type": "Point",
        "coordinates": [
          132.282906,
          35.002263
        ]
      },
      "properties": {
        "NO": 59573,
        "共通ID": "E3220700059111",
        "都道府県名及び市町村名": "島根県江津市",
        "施設・場所名": "旧松平小学校（体育館）",
        "住所": "島根県江津市松川町市村272",
        "指定緊急避難場所との住所同一": "",
        "その他市町村長が必要と認める事項": null,
        "受入対象者": null,
        "備考": ""
      }
    },
    {
      "type": "Feature",
      "geometry": {
        "type": "Point",
        "coordinates": [
          132.307717,
          35.008327
        ]
      },
      "properties": {
        "NO": 59574,
        "共通ID": "E3220700060111",
        "都道府県名及び市町村名": "島根県江津市",
        "施設・場所名": "上津井ふれあいセンター",
        "住所": "島根県江津市松川町上津井151",
        "指定緊急避難場所との住所同一": "1",
        "その他市町村長が必要と認める事項": null,
        "受入対象者": null,
        "備考": ""
      }
    },
    {
      "type": "Feature",
      "geometry": {
        "type": "Point",
        "coordinates": [
          132.253051,
          35.023841
        ]
      },
      "properties": {
        "NO": 59575,
        "共通ID": "E3220700061111",
        "都道府県名及び市町村名": "島根県江津市",
        "施設・場所名": "島根県立少年自然の家",
        "住所": "島根県江津市松川町太田610",
        "指定緊急避難場所との住所同一": "1",
        "その他市町村長が必要と認める事項": null,
        "受入対象者": null,
        "備考": ""
      }
    },
    {
      "type": "Feature",
      "geometry": {
        "type": "Point",
        "coordinates": [
          132.223863,
          34.955647
        ]
      },
      "properties": {
        "NO": 59576,
        "共通ID": "E3220700062111",
        "都道府県名及び市町村名": "島根県江津市",
        "施設・場所名": "里山こども園わたぼうし",
        "住所": "島根県江津市跡市町625-1",
        "指定緊急避難場所との住所同一": "1",
        "その他市町村長が必要と認める事項": null,
        "受入対象者": null,
        "備考": ""
      }
    },
    {
      "type": "Feature",
      "geometry": {
        "type": "Point",
        "coordinates": [
          132.224597,
          34.955475
        ]
      },
      "properties": {
        "NO": 59577,
        "共通ID": "E3220700062112",
        "都道府県名及び市町村名": "島根県江津市",
        "施設・場所名": "跡市地域コミュニティ交流センター",
        "住所": "島根県江津市跡市町625-1",
        "指定緊急避難場所との住所同一": "1",
        "その他市町村長が必要と認める事項": null,
        "受入対象者": null,
        "備考": ""
      }
    },
    {
      "type": "Feature",
      "geometry": {
        "type": "Point",
        "coordinates": [
          132.223808,
          34.956256
        ]
      },
      "properties": {
        "NO": 59578,
        "共通ID": "E3220700063111",
        "都道府県名及び市町村名": "島根県江津市",
        "施設・場所名": "旧跡市小学校（体育館）",
        "住所": "島根県江津市跡市町632",
        "指定緊急避難場所との住所同一": "1",
        "その他市町村長が必要と認める事項": null,
        "受入対象者": null,
        "備考": ""
      }
    },
    {
      "type": "Feature",
      "geometry": {
        "type": "Point",
        "coordinates": [
          132.281191,
          34.993566
        ]
      },
      "properties": {
        "NO": 59579,
        "共通ID": "E3220700064111",
        "都道府県名及び市町村名": "島根県江津市",
        "施設・場所名": "松平地域防災拠点施設",
        "住所": "島根県江津市川平町南川上496-1",
        "指定緊急避難場所との住所同一": "1",
        "その他市町村長が必要と認める事項": null,
        "受入対象者": null,
        "備考": ""
      }
    },
    {
      "type": "Feature",
      "geometry": {
        "type": "Point",
        "coordinates": [
          132.2724,
          35.035489
        ]
      },
      "properties": {
        "NO": 59580,
        "共通ID": "E3220700065111",
        "都道府県名及び市町村名": "島根県江津市",
        "施設・場所名": "浅利地域コミュニティ交流センター",
        "住所": "島根県江津市浅利町2102",
        "指定緊急避難場所との住所同一": "1",
        "その他市町村長が必要と認める事項": null,
        "受入対象者": null,
        "備考": ""
      }
    },
    {
      "type": "Feature",
      "geometry": {
        "type": "Point",
        "coordinates": [
          132.270787,
          35.03528
        ]
      },
      "properties": {
        "NO": 59581,
        "共通ID": "E3220700066111",
        "都道府県名及び市町村名": "島根県江津市",
        "施設・場所名": "あさりこども園",
        "住所": "島根県江津市浅利町336-4",
        "指定緊急避難場所との住所同一": "1",
        "その他市町村長が必要と認める事項": null,
        "受入対象者": null,
        "備考": ""
      }
    },
    {
      "type": "Feature",
      "geometry": {
        "type": "Point",
        "coordinates": [
          132.236365,
          35.0224
        ]
      },
      "properties": {
        "NO": 59582,
        "共通ID": "E3220700067111",
        "都道府県名及び市町村名": "島根県江津市",
        "施設・場所名": "石見智翠館高等学校（体育館）",
        "住所": "島根県江津市渡津町1904-1",
        "指定緊急避難場所との住所同一": "1",
        "その他市町村長が必要と認める事項": null,
        "受入対象者": null,
        "備考": ""
      }
    },
    {
      "type": "Feature",
      "geometry": {
        "type": "Point",
        "coordinates": [
          132.232852,
          35.021101
        ]
      },
      "properties": {
        "NO": 59583,
        "共通ID": "E3220700068111",
        "都道府県名及び市町村名": "島根県江津市",
        "施設・場所名": "渡津地域コミュニティ交流センター",
        "住所": "島根県江津市渡津町658-1",
        "指定緊急避難場所との住所同一": "1",
        "その他市町村長が必要と認める事項": null,
        "受入対象者": null,
        "備考": ""
      }
    },
    {
      "type": "Feature",
      "geometry": {
        "type": "Point",
        "coordinates": [
          132.235299,
          35.024389
        ]
      },
      "properties": {
        "NO": 59584,
        "共通ID": "E3220700069111",
        "都道府県名及び市町村名": "島根県江津市",
        "施設・場所名": "江津清和養護学校（体育館）",
        "住所": "島根県江津市渡津町772",
        "指定緊急避難場所との住所同一": "1",
        "その他市町村長が必要と認める事項": null,
        "受入対象者": null,
        "備考": ""
      }
    },
    {
      "type": "Feature",
      "geometry": {
        "type": "Point",
        "coordinates": [
          132.190955,
          34.990434
        ]
      },
      "properties": {
        "NO": 59585,
        "共通ID": "E3220700070111",
        "都道府県名及び市町村名": "島根県江津市",
        "施設・場所名": "都野津会館",
        "住所": "島根県江津市都野津町2088",
        "指定緊急避難場所との住所同一": "1",
        "その他市町村長が必要と認める事項": null,
        "受入対象者": null,
        "備考": ""
      }
    },
    {
      "type": "Feature",
      "geometry": {
        "type": "Point",
        "coordinates": [
          132.193162,
          34.98305
        ]
      },
      "properties": {
        "NO": 59586,
        "共通ID": "E3220700071111",
        "都道府県名及び市町村名": "島根県江津市",
        "施設・場所名": "津宮小学校（体育館）",
        "住所": "島根県江津市都野津町2110-1",
        "指定緊急避難場所との住所同一": "1",
        "その他市町村長が必要と認める事項": null,
        "受入対象者": null,
        "備考": ""
      }
    },
    {
      "type": "Feature",
      "geometry": {
        "type": "Point",
        "coordinates": [
          132.190122,
          34.983676
        ]
      },
      "properties": {
        "NO": 59587,
        "共通ID": "E3220700072111",
        "都道府県名及び市町村名": "島根県江津市",
        "施設・場所名": "のぞみ保育園",
        "住所": "島根県江津市都野津町2325-3",
        "指定緊急避難場所との住所同一": "",
        "その他市町村長が必要と認める事項": null,
        "受入対象者": null,
        "備考": ""
      }
    },
    {
      "type": "Feature",
      "geometry": {
        "type": "Point",
        "coordinates": [
          132.191035,
          34.986288
        ]
      },
      "properties": {
        "NO": 59588,
        "共通ID": "E3220700073111",
        "都道府県名及び市町村名": "島根県江津市",
        "施設・場所名": "都野津地域コミュニティ交流センター",
        "住所": "島根県江津市都野津町2358-1",
        "指定緊急避難場所との住所同一": "1",
        "その他市町村長が必要と認める事項": null,
        "受入対象者": null,
        "備考": ""
      }
    },
    {
      "type": "Feature",
      "geometry": {
        "type": "Point",
        "coordinates": [
          132.238178,
          34.994887
        ]
      },
      "properties": {
        "NO": 59589,
        "共通ID": "E3220700074111",
        "都道府県名及び市町村名": "島根県江津市",
        "施設・場所名": "島の星集会所",
        "住所": "島根県江津市島の星町291-1",
        "指定緊急避難場所との住所同一": "1",
        "その他市町村長が必要と認める事項": null,
        "受入対象者": null,
        "備考": ""
      }
    },
    {
      "type": "Feature",
      "geometry": {
        "type": "Point",
        "coordinates": [
          132.188169,
          34.976431
        ]
      },
      "properties": {
        "NO": 59590,
        "共通ID": "E3220700075111",
        "都道府県名及び市町村名": "島根県江津市",
        "施設・場所名": "青陵中学校（体育館）",
        "住所": "島根県江津市二宮町神主1964-8",
        "指定緊急避難場所との住所同一": "1",
        "その他市町村長が必要と認める事項": null,
        "受入対象者": null,
        "備考": ""
      }
    },
    {
      "type": "Feature",
      "geometry": {
        "type": "Point",
        "coordinates": [
          132.193661,
          34.979351
        ]
      },
      "properties": {
        "NO": 59591,
        "共通ID": "E3220700077111",
        "都道府県名及び市町村名": "島根県江津市",
        "施設・場所名": "二宮地域コミュニティ交流センター",
        "住所": "島根県江津市二宮町神主イ171",
        "指定緊急避難場所との住所同一": "1",
        "その他市町村長が必要と認める事項": null,
        "受入対象者": null,
        "備考": ""
      }
    },
    {
      "type": "Feature",
      "geometry": {
        "type": "Point",
        "coordinates": [
          132.150604,
          34.965348
        ]
      },
      "properties": {
        "NO": 59592,
        "共通ID": "E3220700078111",
        "都道府県名及び市町村名": "島根県江津市",
        "施設・場所名": "波子地域コミュニティ交流センター",
        "住所": "島根県江津市波子町イ1272-4",
        "指定緊急避難場所との住所同一": "1",
        "その他市町村長が必要と認める事項": null,
        "受入対象者": null,
        "備考": ""
      }
    },
    {
      "type": "Feature",
      "geometry": {
        "type": "Point",
        "coordinates": [
          132.151058,
          34.962839
        ]
      },
      "properties": {
        "NO": 59593,
        "共通ID": "E3220700079111",
        "都道府県名及び市町村名": "島根県江津市",
        "施設・場所名": "波子保育所",
        "住所": "島根県江津市波子町イ656-1",
        "指定緊急避難場所との住所同一": "1",
        "その他市町村長が必要と認める事項": null,
        "受入対象者": null,
        "備考": ""
      }
    },
    {
      "type": "Feature",
      "geometry": {
        "type": "Point",
        "coordinates": [
          132.151012,
          34.968238
        ]
      },
      "properties": {
        "NO": 59594,
        "共通ID": "E3220700080111",
        "都道府県名及び市町村名": "島根県江津市",
        "施設・場所名": "常福寺",
        "住所": "島根県江津市波子町イ998",
        "指定緊急避難場所との住所同一": "1",
        "その他市町村長が必要と認める事項": null,
        "受入対象者": null,
        "備考": ""
      }
    },
    {
      "type": "Feature",
      "geometry": {
        "type": "Point",
        "coordinates": [
          132.329793,
          35.034723
        ]
      },
      "properties": {
        "NO": 59595,
        "共通ID": "E3220700081111",
        "都道府県名及び市町村名": "島根県江津市",
        "施設・場所名": "波積地域コミュニティ交流センター",
        "住所": "島根県江津市波積町本郷325-1",
        "指定緊急避難場所との住所同一": "1",
        "その他市町村長が必要と認める事項": null,
        "受入対象者": null,
        "備考": ""
      }
    },
    {
      "type": "Feature",
      "geometry": {
        "type": "Point",
        "coordinates": [
          132.200251,
          34.946185
        ]
      },
      "properties": {
        "NO": 59596,
        "共通ID": "E3220700082111",
        "都道府県名及び市町村名": "島根県江津市",
        "施設・場所名": "有福温泉地域コミュニティ交流センター",
        "住所": "島根県江津市有福温泉町8-3",
        "指定緊急避難場所との住所同一": "1",
        "その他市町村長が必要と認める事項": null,
        "受入対象者": null,
        "備考": ""
      }
    },
    {
      "type": "Feature",
      "geometry": {
        "type": "Point",
        "coordinates": [
          132.211872,
          34.937041
        ]
      },
      "properties": {
        "NO": 59597,
        "共通ID": "E3220700083111",
        "都道府県名及び市町村名": "島根県江津市",
        "施設・場所名": "本明自治会館",
        "住所": "島根県江津市有福温泉町本明1395",
        "指定緊急避難場所との住所同一": "1",
        "その他市町村長が必要と認める事項": null,
        "受入対象者": null,
        "備考": ""
      }
    },
    {
      "type": "Feature",
      "geometry": {
        "type": "Point",
        "coordinates": [
          132.206048,
          34.942919
        ]
      },
      "properties": {
        "NO": 59598,
        "共通ID": "E3220700084111",
        "都道府県名及び市町村名": "島根県江津市",
        "施設・場所名": "旧有福温泉小学校（体育館）",
        "住所": "島根県江津市有福温泉町本明1472",
        "指定緊急避難場所との住所同一": "1",
        "その他市町村長が必要と認める事項": null,
        "受入対象者": null,
        "備考": ""
      }
    },
    {
      "type": "Feature",
      "geometry": {
        "type": "Point",
        "coordinates": [
          132.196632,
          34.999217
        ]
      },
      "properties": {
        "NO": 59599,
        "共通ID": "E3220700085111",
        "都道府県名及び市町村名": "島根県江津市",
        "施設・場所名": "和木集会所",
        "住所": "島根県江津市和木町241",
        "指定緊急避難場所との住所同一": "1",
        "その他市町村長が必要と認める事項": null,
        "受入対象者": null,
        "備考": ""
      }
    },
    {
      "type": "Feature",
      "geometry": {
        "type": "Point",
        "coordinates": [
          132.204931,
          35.00163
        ]
      },
      "properties": {
        "NO": 59600,
        "共通ID": "E3220700086111",
        "都道府県名及び市町村名": "島根県江津市",
        "施設・場所名": "うさぎ山こども園",
        "住所": "島根県江津市和木町518-1",
        "指定緊急避難場所との住所同一": "1",
        "その他市町村長が必要と認める事項": null,
        "受入対象者": null,
        "備考": ""
      }
    },
    {
      "type": "Feature",
      "geometry": {
        "type": "Point",
        "coordinates": [
          132.198852,
          35.001199
        ]
      },
      "properties": {
        "NO": 59601,
        "共通ID": "E3220700087111",
        "都道府県名及び市町村名": "島根県江津市",
        "施設・場所名": "和木地域コミュニティ交流センター",
        "住所": "島根県江津市和木町570-1",
        "指定緊急避難場所との住所同一": "1",
        "その他市町村長が必要と認める事項": null,
        "受入対象者": null,
        "備考": ""
      }
    }
  ]
}