{
  "type": "FeatureCollection",
  "name": "332038",
  "features": [
    {
      "type": "Feature",
      "geometry": {
        "type": "Point",
        "coordinates": [
          134.112314,
          35.236206
        ]
      },
      "properties": {
        "NO": 60575,
        "共通ID": "E3320300001111",
        "都道府県名及び市町村名": "岡山県津山市",
        "施設・場所名": "阿波保健福祉センター",
        "住所": "岡山県津山市阿波1198",
        "指定緊急避難場所との住所同一": "1",
        "その他市町村長が必要と認める事項": null,
        "受入対象者": null,
        "備考": ""
      }
    },
    {
      "type": "Feature",
      "geometry": {
        "type": "Point",
        "coordinates": [
          134.112314,
          35.236508
        ]
      },
      "properties": {
        "NO": 60576,
        "共通ID": "E3320300002111",
        "都道府県名及び市町村名": "岡山県津山市",
        "施設・場所名": "阿波公民館",
        "住所": "岡山県津山市阿波1204",
        "指定緊急避難場所との住所同一": "1",
        "その他市町村長が必要と認める事項": null,
        "受入対象者": null,
        "備考": ""
      }
    },
    {
      "type": "Feature",
      "geometry": {
        "type": "Point",
        "coordinates": [
          134.112694,
          35.237487
        ]
      },
      "properties": {
        "NO": 60577,
        "共通ID": "E3320300004111",
        "都道府県名及び市町村名": "岡山県津山市",
        "施設・場所名": "阿波こぶしアリーナ",
        "住所": "岡山県津山市阿波1785-2",
        "指定緊急避難場所との住所同一": "1",
        "その他市町村長が必要と認める事項": null,
        "受入対象者": null,
        "備考": ""
      }
    },
    {
      "type": "Feature",
      "geometry": {
        "type": "Point",
        "coordinates": [
          134.113476,
          35.244468
        ]
      },
      "properties": {
        "NO": 60578,
        "共通ID": "E3320300006111",
        "都道府県名及び市町村名": "岡山県津山市",
        "施設・場所名": "阿波ふるさとふれあい会館",
        "住所": "岡山県津山市阿波3307",
        "指定緊急避難場所との住所同一": "1",
        "その他市町村長が必要と認める事項": null,
        "受入対象者": null,
        "備考": ""
      }
    },
    {
      "type": "Feature",
      "geometry": {
        "type": "Point",
        "coordinates": [
          134.07073,
          35.119302
        ]
      },
      "properties": {
        "NO": 60579,
        "共通ID": "E3320300007111",
        "都道府県名及び市町村名": "岡山県津山市",
        "施設・場所名": "清泉小学校",
        "住所": "岡山県津山市綾部407",
        "指定緊急避難場所との住所同一": "1",
        "その他市町村長が必要と認める事項": null,
        "受入対象者": null,
        "備考": ""
      }
    },
    {
      "type": "Feature",
      "geometry": {
        "type": "Point",
        "coordinates": [
          133.947453,
          35.060945
        ]
      },
      "properties": {
        "NO": 60580,
        "共通ID": "E3320300009111",
        "都道府県名及び市町村名": "岡山県津山市",
        "施設・場所名": "院庄小学校",
        "住所": "岡山県津山市院庄1041",
        "指定緊急避難場所との住所同一": "1",
        "その他市町村長が必要と認める事項": null,
        "受入対象者": null,
        "備考": ""
      }
    },
    {
      "type": "Feature",
      "geometry": {
        "type": "Point",
        "coordinates": [
          133.953673,
          35.063653
        ]
      },
      "properties": {
        "NO": 60581,
        "共通ID": "E3320300010111",
        "都道府県名及び市町村名": "岡山県津山市",
        "施設・場所名": "西部小体育館",
        "住所": "岡山県津山市院庄1242-6",
        "指定緊急避難場所との住所同一": "1",
        "その他市町村長が必要と認める事項": null,
        "受入対象者": null,
        "備考": ""
      }
    },
    {
      "type": "Feature",
      "geometry": {
        "type": "Point",
        "coordinates": [
          134.037916,
          35.066349
        ]
      },
      "properties": {
        "NO": 60582,
        "共通ID": "E3320300013111",
        "都道府県名及び市町村名": "岡山県津山市",
        "施設・場所名": "津山東中学校",
        "住所": "岡山県津山市押入1110",
        "指定緊急避難場所との住所同一": "1",
        "その他市町村長が必要と認める事項": null,
        "受入対象者": null,
        "備考": ""
      }
    },
    {
      "type": "Feature",
      "geometry": {
        "type": "Point",
        "coordinates": [
          134.026114,
          35.020319
        ]
      },
      "properties": {
        "NO": 60583,
        "共通ID": "E3320300014111",
        "都道府県名及び市町村名": "岡山県津山市",
        "施設・場所名": "福南公民館",
        "住所": "岡山県津山市押淵376",
        "指定緊急避難場所との住所同一": "1",
        "その他市町村長が必要と認める事項": null,
        "受入対象者": null,
        "備考": ""
      }
    },
    {
      "type": "Feature",
      "geometry": {
        "type": "Point",
        "coordinates": [
          134.009868,
          35.053144
        ]
      },
      "properties": {
        "NO": 60584,
        "共通ID": "E3320300016111",
        "都道府県名及び市町村名": "岡山県津山市",
        "施設・場所名": "福岡体育館",
        "住所": "岡山県津山市横山1234-1",
        "指定緊急避難場所との住所同一": "1",
        "その他市町村長が必要と認める事項": null,
        "受入対象者": null,
        "備考": ""
      }
    },
    {
      "type": "Feature",
      "geometry": {
        "type": "Point",
        "coordinates": [
          134.024441,
          35.116148
        ]
      },
      "properties": {
        "NO": 60585,
        "共通ID": "E3320300017111",
        "都道府県名及び市町村名": "岡山県津山市",
        "施設・場所名": "高田小学校",
        "住所": "岡山県津山市下横野1075",
        "指定緊急避難場所との住所同一": "1",
        "その他市町村長が必要と認める事項": null,
        "受入対象者": null,
        "備考": ""
      }
    },
    {
      "type": "Feature",
      "geometry": {
        "type": "Point",
        "coordinates": [
          134.025836,
          35.116424
        ]
      },
      "properties": {
        "NO": 60586,
        "共通ID": "E3320300018111",
        "都道府県名及び市町村名": "岡山県津山市",
        "施設・場所名": "高田公民館",
        "住所": "岡山県津山市下横野855-2",
        "指定緊急避難場所との住所同一": "1",
        "その他市町村長が必要と認める事項": null,
        "受入対象者": null,
        "備考": ""
      }
    },
    {
      "type": "Feature",
      "geometry": {
        "type": "Point",
        "coordinates": [
          134.043318,
          35.099718
        ]
      },
      "properties": {
        "NO": 60587,
        "共通ID": "E3320300019111",
        "都道府県名及び市町村名": "岡山県津山市",
        "施設・場所名": "高倉小学校",
        "住所": "岡山県津山市下高倉西12",
        "指定緊急避難場所との住所同一": "1",
        "その他市町村長が必要と認める事項": null,
        "受入対象者": null,
        "備考": ""
      }
    },
    {
      "type": "Feature",
      "geometry": {
        "type": "Point",
        "coordinates": [
          134.044097,
          35.09924
        ]
      },
      "properties": {
        "NO": 60588,
        "共通ID": "E3320300021111",
        "都道府県名及び市町村名": "岡山県津山市",
        "施設・場所名": "高倉公民館",
        "住所": "岡山県津山市下高倉西58-4",
        "指定緊急避難場所との住所同一": "1",
        "その他市町村長が必要と認める事項": null,
        "受入対象者": null,
        "備考": ""
      }
    },
    {
      "type": "Feature",
      "geometry": {
        "type": "Point",
        "coordinates": [
          133.967847,
          35.081671
        ]
      },
      "properties": {
        "NO": 60589,
        "共通ID": "E3320300022111",
        "都道府県名及び市町村名": "岡山県津山市",
        "施設・場所名": "田邑公民館",
        "住所": "岡山県津山市下田邑114-1",
        "指定緊急避難場所との住所同一": "1",
        "その他市町村長が必要と認める事項": null,
        "受入対象者": null,
        "備考": ""
      }
    },
    {
      "type": "Feature",
      "geometry": {
        "type": "Point",
        "coordinates": [
          134.057127,
          35.174931
        ]
      },
      "properties": {
        "NO": 60590,
        "共通ID": "E3320300024112",
        "都道府県名及び市町村名": "岡山県津山市",
        "施設・場所名": "加茂中学校",
        "住所": "岡山県津山市加茂町桑原280",
        "指定緊急避難場所との住所同一": "1",
        "その他市町村長が必要と認める事項": null,
        "受入対象者": null,
        "備考": ""
      }
    },
    {
      "type": "Feature",
      "geometry": {
        "type": "Point",
        "coordinates": [
          134.0571,
          35.175545
        ]
      },
      "properties": {
        "NO": 60591,
        "共通ID": "E3320300024111",
        "都道府県名及び市町村名": "岡山県津山市",
        "施設・場所名": "加茂町武道館",
        "住所": "岡山県津山市加茂町桑原280",
        "指定緊急避難場所との住所同一": "1",
        "その他市町村長が必要と認める事項": null,
        "受入対象者": null,
        "備考": ""
      }
    },
    {
      "type": "Feature",
      "geometry": {
        "type": "Point",
        "coordinates": [
          134.066253,
          35.165602
        ]
      },
      "properties": {
        "NO": 60592,
        "共通ID": "E3320300025111",
        "都道府県名及び市町村名": "岡山県津山市",
        "施設・場所名": "公郷会館",
        "住所": "岡山県津山市加茂町公郷1604-7",
        "指定緊急避難場所との住所同一": "1",
        "その他市町村長が必要と認める事項": null,
        "受入対象者": null,
        "備考": ""
      }
    },
    {
      "type": "Feature",
      "geometry": {
        "type": "Point",
        "coordinates": [
          134.046452,
          35.176072
        ]
      },
      "properties": {
        "NO": 60593,
        "共通ID": "E3320300026111",
        "都道府県名及び市町村名": "岡山県津山市",
        "施設・場所名": "加茂町スポーツセンター",
        "住所": "岡山県津山市加茂町中原493-3",
        "指定緊急避難場所との住所同一": "1",
        "その他市町村長が必要と認める事項": null,
        "受入対象者": null,
        "備考": ""
      }
    },
    {
      "type": "Feature",
      "geometry": {
        "type": "Point",
        "coordinates": [
          134.05409,
          35.178208
        ]
      },
      "properties": {
        "NO": 60594,
        "共通ID": "E3320300027111",
        "都道府県名及び市町村名": "岡山県津山市",
        "施設・場所名": "加茂町公民館",
        "住所": "岡山県津山市加茂町塔中104",
        "指定緊急避難場所との住所同一": "1",
        "その他市町村長が必要と認める事項": null,
        "受入対象者": null,
        "備考": ""
      }
    },
    {
      "type": "Feature",
      "geometry": {
        "type": "Point",
        "coordinates": [
          134.05523,
          35.179003
        ]
      },
      "properties": {
        "NO": 60595,
        "共通ID": "E3320300028111",
        "都道府県名及び市町村名": "岡山県津山市",
        "施設・場所名": "加茂町文化センター",
        "住所": "岡山県津山市加茂町塔中113-6",
        "指定緊急避難場所との住所同一": "1",
        "その他市町村長が必要と認める事項": null,
        "受入対象者": null,
        "備考": ""
      }
    },
    {
      "type": "Feature",
      "geometry": {
        "type": "Point",
        "coordinates": [
          134.055898,
          35.177708
        ]
      },
      "properties": {
        "NO": 60596,
        "共通ID": "E3320300029111",
        "都道府県名及び市町村名": "岡山県津山市",
        "施設・場所名": "加茂小学校",
        "住所": "岡山県津山市加茂町塔中80",
        "指定緊急避難場所との住所同一": "1",
        "その他市町村長が必要と認める事項": null,
        "受入対象者": null,
        "備考": ""
      }
    },
    {
      "type": "Feature",
      "geometry": {
        "type": "Point",
        "coordinates": [
          133.919147,
          35.053968
        ]
      },
      "properties": {
        "NO": 60597,
        "共通ID": "E3320300031111",
        "都道府県名及び市町村名": "岡山県津山市",
        "施設・場所名": "誠道小学校",
        "住所": "岡山県津山市久米川南919",
        "指定緊急避難場所との住所同一": "1",
        "その他市町村長が必要と認める事項": null,
        "受入対象者": null,
        "備考": ""
      }
    },
    {
      "type": "Feature",
      "geometry": {
        "type": "Point",
        "coordinates": [
          133.884154,
          35.071004
        ]
      },
      "properties": {
        "NO": 60598,
        "共通ID": "E3320300034111",
        "都道府県名及び市町村名": "岡山県津山市",
        "施設・場所名": "中正小学校",
        "住所": "岡山県津山市宮部下686",
        "指定緊急避難場所との住所同一": "1",
        "その他市町村長が必要と認める事項": null,
        "受入対象者": null,
        "備考": ""
      }
    },
    {
      "type": "Feature",
      "geometry": {
        "type": "Point",
        "coordinates": [
          134.065224,
          35.04421
        ]
      },
      "properties": {
        "NO": 60599,
        "共通ID": "E3320300036111",
        "都道府県名及び市町村名": "岡山県津山市",
        "施設・場所名": "大崎小学校",
        "住所": "岡山県津山市金井76",
        "指定緊急避難場所との住所同一": "1",
        "その他市町村長が必要と認める事項": null,
        "受入対象者": null,
        "備考": ""
      }
    },
    {
      "type": "Feature",
      "geometry": {
        "type": "Point",
        "coordinates": [
          133.910269,
          35.023745
        ]
      },
      "properties": {
        "NO": 60600,
        "共通ID": "E3320300038111",
        "都道府県名及び市町村名": "岡山県津山市",
        "施設・場所名": "秀実小学校",
        "住所": "岡山県津山市桑上1",
        "指定緊急避難場所との住所同一": "1",
        "その他市町村長が必要と認める事項": null,
        "受入対象者": null,
        "備考": ""
      }
    },
    {
      "type": "Feature",
      "geometry": {
        "type": "Point",
        "coordinates": [
          134.106643,
          35.099506
        ]
      },
      "properties": {
        "NO": 60601,
        "共通ID": "E3320300039111",
        "都道府県名及び市町村名": "岡山県津山市",
        "施設・場所名": "勝北中学校",
        "住所": "岡山県津山市原371",
        "指定緊急避難場所との住所同一": "1",
        "その他市町村長が必要と認める事項": null,
        "受入対象者": null,
        "備考": ""
      }
    },
    {
      "type": "Feature",
      "geometry": {
        "type": "Point",
        "coordinates": [
          134.052584,
          35.076149
        ]
      },
      "properties": {
        "NO": 60602,
        "共通ID": "E3320300040111",
        "都道府県名及び市町村名": "岡山県津山市",
        "施設・場所名": "高野小学校",
        "住所": "岡山県津山市高野本郷1041",
        "指定緊急避難場所との住所同一": "1",
        "その他市町村長が必要と認める事項": null,
        "受入対象者": null,
        "備考": ""
      }
    },
    {
      "type": "Feature",
      "geometry": {
        "type": "Point",
        "coordinates": [
          134.050429,
          35.072553
        ]
      },
      "properties": {
        "NO": 60603,
        "共通ID": "E3320300041111",
        "都道府県名及び市町村名": "岡山県津山市",
        "施設・場所名": "つやま東幼稚園",
        "住所": "岡山県津山市高野本郷1270-1",
        "指定緊急避難場所との住所同一": "1",
        "その他市町村長が必要と認める事項": null,
        "受入対象者": null,
        "備考": ""
      }
    },
    {
      "type": "Feature",
      "geometry": {
        "type": "Point",
        "coordinates": [
          134.059904,
          35.076005
        ]
      },
      "properties": {
        "NO": 60604,
        "共通ID": "E3320300042111",
        "都道府県名及び市町村名": "岡山県津山市",
        "施設・場所名": "高野公民館",
        "住所": "岡山県津山市高野本郷1683-2",
        "指定緊急避難場所との住所同一": "1",
        "その他市町村長が必要と認める事項": null,
        "受入対象者": null,
        "備考": ""
      }
    },
    {
      "type": "Feature",
      "geometry": {
        "type": "Point",
        "coordinates": [
          134.042866,
          35.049508
        ]
      },
      "properties": {
        "NO": 60605,
        "共通ID": "E3320300043111",
        "都道府県名及び市町村名": "岡山県津山市",
        "施設・場所名": "河辺小学校",
        "住所": "岡山県津山市国分寺505",
        "指定緊急避難場所との住所同一": "1",
        "その他市町村長が必要と認める事項": null,
        "受入対象者": null,
        "備考": ""
      }
    },
    {
      "type": "Feature",
      "geometry": {
        "type": "Point",
        "coordinates": [
          134.039684,
          35.048543
        ]
      },
      "properties": {
        "NO": 60606,
        "共通ID": "E3320300044111",
        "都道府県名及び市町村名": "岡山県津山市",
        "施設・場所名": "河辺農業研修施設",
        "住所": "岡山県津山市国分寺592-8",
        "指定緊急避難場所との住所同一": "1",
        "その他市町村長が必要と認める事項": null,
        "受入対象者": null,
        "備考": ""
      }
    },
    {
      "type": "Feature",
      "geometry": {
        "type": "Point",
        "coordinates": [
          133.969492,
          35.044577
        ]
      },
      "properties": {
        "NO": 60607,
        "共通ID": "E3320300046111",
        "都道府県名及び市町村名": "岡山県津山市",
        "施設・場所名": "佐良山小学校",
        "住所": "岡山県津山市皿657-2",
        "指定緊急避難場所との住所同一": "1",
        "その他市町村長が必要と認める事項": null,
        "受入対象者": null,
        "備考": ""
      }
    },
    {
      "type": "Feature",
      "geometry": {
        "type": "Point",
        "coordinates": [
          133.971959,
          35.044257
        ]
      },
      "properties": {
        "NO": 60608,
        "共通ID": "E3320300047111",
        "都道府県名及び市町村名": "岡山県津山市",
        "施設・場所名": "皿老人福祉センター",
        "住所": "岡山県津山市皿867",
        "指定緊急避難場所との住所同一": "1",
        "その他市町村長が必要と認める事項": null,
        "受入対象者": null,
        "備考": ""
      }
    },
    {
      "type": "Feature",
      "geometry": {
        "type": "Point",
        "coordinates": [
          134.004007,
          35.06407
        ]
      },
      "properties": {
        "NO": 60609,
        "共通ID": "E3320300049111",
        "都道府県名及び市町村名": "岡山県津山市",
        "施設・場所名": "津山文化センター",
        "住所": "岡山県津山市山下68",
        "指定緊急避難場所との住所同一": "1",
        "その他市町村長が必要と認める事項": null,
        "受入対象者": null,
        "備考": ""
      }
    },
    {
      "type": "Feature",
      "geometry": {
        "type": "Point",
        "coordinates": [
          134.006655,
          35.060933
        ]
      },
      "properties": {
        "NO": 60610,
        "共通ID": "E3320300051111",
        "都道府県名及び市町村名": "岡山県津山市",
        "施設・場所名": "雇用労働センター",
        "住所": "岡山県津山市山下92-1",
        "指定緊急避難場所との住所同一": "1",
        "その他市町村長が必要と認める事項": null,
        "受入対象者": null,
        "備考": ""
      }
    },
    {
      "type": "Feature",
      "geometry": {
        "type": "Point",
        "coordinates": [
          134.000698,
          35.069003
        ]
      },
      "properties": {
        "NO": 60611,
        "共通ID": "E3320300052111",
        "都道府県名及び市町村名": "岡山県津山市",
        "施設・場所名": "北小学校",
        "住所": "岡山県津山市山北238",
        "指定緊急避難場所との住所同一": "1",
        "その他市町村長が必要と認める事項": null,
        "受入対象者": null,
        "備考": ""
      }
    },
    {
      "type": "Feature",
      "geometry": {
        "type": "Point",
        "coordinates": [
          133.999596,
          35.071936
        ]
      },
      "properties": {
        "NO": 60612,
        "共通ID": "E3320300053111",
        "都道府県名及び市町村名": "岡山県津山市",
        "施設・場所名": "鶴山中学校",
        "住所": "岡山県津山市山北290",
        "指定緊急避難場所との住所同一": "1",
        "その他市町村長が必要と認める事項": null,
        "受入対象者": null,
        "備考": ""
      }
    },
    {
      "type": "Feature",
      "geometry": {
        "type": "Point",
        "coordinates": [
          134.0022,
          35.072491
        ]
      },
      "properties": {
        "NO": 60613,
        "共通ID": "E3320300054111",
        "都道府県名及び市町村名": "岡山県津山市",
        "施設・場所名": "津山工業高等学校",
        "住所": "岡山県津山市山北411-1",
        "指定緊急避難場所との住所同一": "1",
        "その他市町村長が必要と認める事項": null,
        "受入対象者": null,
        "備考": ""
      }
    },
    {
      "type": "Feature",
      "geometry": {
        "type": "Point",
        "coordinates": [
          134.00497,
          35.06749
        ]
      },
      "properties": {
        "NO": 60614,
        "共通ID": "E3320300055111",
        "都道府県名及び市町村名": "岡山県津山市",
        "施設・場所名": "美作高等学校",
        "住所": "岡山県津山市山北500",
        "指定緊急避難場所との住所同一": "1",
        "その他市町村長が必要と認める事項": null,
        "受入対象者": null,
        "備考": ""
      }
    },
    {
      "type": "Feature",
      "geometry": {
        "type": "Point",
        "coordinates": [
          134.003973,
          35.070117
        ]
      },
      "properties": {
        "NO": 60615,
        "共通ID": "E3320300056111",
        "都道府県名及び市町村名": "岡山県津山市",
        "施設・場所名": "津山商業高等学校",
        "住所": "岡山県津山市山北531",
        "指定緊急避難場所との住所同一": "1",
        "その他市町村長が必要と認める事項": null,
        "受入対象者": null,
        "備考": ""
      }
    },
    {
      "type": "Feature",
      "geometry": {
        "type": "Point",
        "coordinates": [
          134.00834,
          35.068942
        ]
      },
      "properties": {
        "NO": 60616,
        "共通ID": "E3320300057111",
        "都道府県名及び市町村名": "岡山県津山市",
        "施設・場所名": "津山総合体育館",
        "住所": "岡山県津山市山北669",
        "指定緊急避難場所との住所同一": "1",
        "その他市町村長が必要と認める事項": null,
        "受入対象者": null,
        "備考": ""
      }
    },
    {
      "type": "Feature",
      "geometry": {
        "type": "Point",
        "coordinates": [
          134.008687,
          35.070985
        ]
      },
      "properties": {
        "NO": 60617,
        "共通ID": "E3320300058111",
        "都道府県名及び市町村名": "岡山県津山市",
        "施設・場所名": "東小学校",
        "住所": "岡山県津山市山北740",
        "指定緊急避難場所との住所同一": "1",
        "その他市町村長が必要と認める事項": null,
        "受入対象者": null,
        "備考": ""
      }
    },
    {
      "type": "Feature",
      "geometry": {
        "type": "Point",
        "coordinates": [
          134.12356,
          35.127977
        ]
      },
      "properties": {
        "NO": 60618,
        "共通ID": "E3320300059111",
        "都道府県名及び市町村名": "岡山県津山市",
        "施設・場所名": "広戸小学校",
        "住所": "岡山県津山市市場1080-1",
        "指定緊急避難場所との住所同一": "1",
        "その他市町村長が必要と認める事項": null,
        "受入対象者": null,
        "備考": ""
      }
    },
    {
      "type": "Feature",
      "geometry": {
        "type": "Point",
        "coordinates": [
          134.02309,
          35.079339
        ]
      },
      "properties": {
        "NO": 60619,
        "共通ID": "E3320300060111",
        "都道府県名及び市町村名": "岡山県津山市",
        "施設・場所名": "鶴山小学校",
        "住所": "岡山県津山市志戸部121",
        "指定緊急避難場所との住所同一": "1",
        "その他市町村長が必要と認める事項": null,
        "受入対象者": null,
        "備考": ""
      }
    },
    {
      "type": "Feature",
      "geometry": {
        "type": "Point",
        "coordinates": [
          134.015052,
          35.085862
        ]
      },
      "properties": {
        "NO": 60620,
        "共通ID": "E3320300063111",
        "都道府県名及び市町村名": "岡山県津山市",
        "施設・場所名": "勤労者総合福祉センター",
        "住所": "岡山県津山市勝部20-7",
        "指定緊急避難場所との住所同一": "1",
        "その他市町村長が必要と認める事項": null,
        "受入対象者": null,
        "備考": ""
      }
    },
    {
      "type": "Feature",
      "geometry": {
        "type": "Point",
        "coordinates": [
          134.02104,
          35.086044
        ]
      },
      "properties": {
        "NO": 60621,
        "共通ID": "E3320300064111",
        "都道府県名及び市町村名": "岡山県津山市",
        "施設・場所名": "中道中学校",
        "住所": "岡山県津山市勝部355",
        "指定緊急避難場所との住所同一": "1",
        "その他市町村長が必要と認める事項": null,
        "受入対象者": null,
        "備考": ""
      }
    },
    {
      "type": "Feature",
      "geometry": {
        "type": "Point",
        "coordinates": [
          134.000082,
          35.077669
        ]
      },
      "properties": {
        "NO": 60622,
        "共通ID": "E3320300065111",
        "都道府県名及び市町村名": "岡山県津山市",
        "施設・場所名": "西苫田公民館",
        "住所": "岡山県津山市小原67-1",
        "指定緊急避難場所との住所同一": "1",
        "その他市町村長が必要と認める事項": null,
        "受入対象者": null,
        "備考": ""
      }
    },
    {
      "type": "Feature",
      "geometry": {
        "type": "Point",
        "coordinates": [
          133.989809,
          35.062167
        ]
      },
      "properties": {
        "NO": 60623,
        "共通ID": "E3320300066111",
        "都道府県名及び市町村名": "岡山県津山市",
        "施設・場所名": "城西公民館",
        "住所": "岡山県津山市小田中1312-10",
        "指定緊急避難場所との住所同一": "1",
        "その他市町村長が必要と認める事項": null,
        "受入対象者": null,
        "備考": ""
      }
    },
    {
      "type": "Feature",
      "geometry": {
        "type": "Point",
        "coordinates": [
          133.992234,
          35.062288
        ]
      },
      "properties": {
        "NO": 60624,
        "共通ID": "E3320300067111",
        "都道府県名及び市町村名": "岡山県津山市",
        "施設・場所名": "西小学校",
        "住所": "岡山県津山市小田中1360",
        "指定緊急避難場所との住所同一": "1",
        "その他市町村長が必要と認める事項": null,
        "受入対象者": null,
        "備考": ""
      }
    },
    {
      "type": "Feature",
      "geometry": {
        "type": "Point",
        "coordinates": [
          133.995983,
          35.055115
        ]
      },
      "properties": {
        "NO": 60625,
        "共通ID": "E3320300068111",
        "都道府県名及び市町村名": "岡山県津山市",
        "施設・場所名": "南小学校",
        "住所": "岡山県津山市昭和町2-73-1",
        "指定緊急避難場所との住所同一": "1",
        "その他市町村長が必要と認める事項": null,
        "受入対象者": null,
        "備考": ""
      }
    },
    {
      "type": "Feature",
      "geometry": {
        "type": "Point",
        "coordinates": [
          134.013087,
          35.081652
        ]
      },
      "properties": {
        "NO": 60626,
        "共通ID": "E3320300069111",
        "都道府県名及び市町村名": "岡山県津山市",
        "施設・場所名": "津山工業高等専門学校",
        "住所": "岡山県津山市沼624-1",
        "指定緊急避難場所との住所同一": "1",
        "その他市町村長が必要と認める事項": null,
        "受入対象者": null,
        "備考": ""
      }
    },
    {
      "type": "Feature",
      "geometry": {
        "type": "Point",
        "coordinates": [
          134.000529,
          35.059013
        ]
      },
      "properties": {
        "NO": 60627,
        "共通ID": "E3320300070111",
        "都道府県名及び市町村名": "岡山県津山市",
        "施設・場所名": "アルネ津山",
        "住所": "岡山県津山市新魚町17",
        "指定緊急避難場所との住所同一": "1",
        "その他市町村長が必要と認める事項": null,
        "受入対象者": null,
        "備考": ""
      }
    },
    {
      "type": "Feature",
      "geometry": {
        "type": "Point",
        "coordinates": [
          134.112503,
          35.105038
        ]
      },
      "properties": {
        "NO": 60628,
        "共通ID": "E3320300071111",
        "都道府県名及び市町村名": "岡山県津山市",
        "施設・場所名": "勝北保健福祉センター",
        "住所": "岡山県津山市新野東567",
        "指定緊急避難場所との住所同一": "1",
        "その他市町村長が必要と認める事項": null,
        "受入対象者": null,
        "備考": ""
      }
    },
    {
      "type": "Feature",
      "geometry": {
        "type": "Point",
        "coordinates": [
          134.110592,
          35.104779
        ]
      },
      "properties": {
        "NO": 60629,
        "共通ID": "E3320300072111",
        "都道府県名及び市町村名": "岡山県津山市",
        "施設・場所名": "勝北文化センター・公民館",
        "住所": "岡山県津山市新野東584",
        "指定緊急避難場所との住所同一": "1",
        "その他市町村長が必要と認める事項": null,
        "受入対象者": null,
        "備考": ""
      }
    },
    {
      "type": "Feature",
      "geometry": {
        "type": "Point",
        "coordinates": [
          134.109334,
          35.105681
        ]
      },
      "properties": {
        "NO": 60630,
        "共通ID": "E3320300073111",
        "都道府県名及び市町村名": "岡山県津山市",
        "施設・場所名": "勝北風の子こども園",
        "住所": "岡山県津山市新野東600-1",
        "指定緊急避難場所との住所同一": "1",
        "その他市町村長が必要と認める事項": null,
        "受入対象者": null,
        "備考": ""
      }
    },
    {
      "type": "Feature",
      "geometry": {
        "type": "Point",
        "coordinates": [
          133.945067,
          35.060957
        ]
      },
      "properties": {
        "NO": 60631,
        "共通ID": "E3320300075111",
        "都道府県名及び市町村名": "岡山県津山市",
        "施設・場所名": "院庄公民館",
        "住所": "岡山県津山市神戸187-4",
        "指定緊急避難場所との住所同一": "1",
        "その他市町村長が必要と認める事項": null,
        "受入対象者": null,
        "備考": ""
      }
    },
    {
      "type": "Feature",
      "geometry": {
        "type": "Point",
        "coordinates": [
          134.108064,
          35.109697
        ]
      },
      "properties": {
        "NO": 60632,
        "共通ID": "E3320300079111",
        "都道府県名及び市町村名": "岡山県津山市",
        "施設・場所名": "新野小学校",
        "住所": "岡山県津山市西中591",
        "指定緊急避難場所との住所同一": "1",
        "その他市町村長が必要と認める事項": null,
        "受入対象者": null,
        "備考": ""
      }
    },
    {
      "type": "Feature",
      "geometry": {
        "type": "Point",
        "coordinates": [
          134.031714,
          35.056294
        ]
      },
      "properties": {
        "NO": 60633,
        "共通ID": "E3320300082111",
        "都道府県名及び市町村名": "岡山県津山市",
        "施設・場所名": "緑水園文化体育館",
        "住所": "岡山県津山市川崎373-2",
        "指定緊急避難場所との住所同一": "1",
        "その他市町村長が必要と認める事項": null,
        "受入対象者": null,
        "備考": ""
      }
    },
    {
      "type": "Feature",
      "geometry": {
        "type": "Point",
        "coordinates": [
          134.022255,
          35.065524
        ]
      },
      "properties": {
        "NO": 60634,
        "共通ID": "E3320300083111",
        "都道府県名及び市町村名": "岡山県津山市",
        "施設・場所名": "津山東公民館",
        "住所": "岡山県津山市川崎796-2",
        "指定緊急避難場所との住所同一": "1",
        "その他市町村長が必要と認める事項": null,
        "受入対象者": null,
        "備考": ""
      }
    },
    {
      "type": "Feature",
      "geometry": {
        "type": "Point",
        "coordinates": [
          134.025614,
          35.06475
        ]
      },
      "properties": {
        "NO": 60635,
        "共通ID": "E3320300084111",
        "都道府県名及び市町村名": "岡山県津山市",
        "施設・場所名": "林田小学校",
        "住所": "岡山県津山市川崎850",
        "指定緊急避難場所との住所同一": "1",
        "その他市町村長が必要と認める事項": null,
        "受入対象者": null,
        "備考": ""
      }
    },
    {
      "type": "Feature",
      "geometry": {
        "type": "Point",
        "coordinates": [
          134.07271,
          35.099492
        ]
      },
      "properties": {
        "NO": 60636,
        "共通ID": "E3320300086111",
        "都道府県名及び市町村名": "岡山県津山市",
        "施設・場所名": "東部小体育館",
        "住所": "岡山県津山市草加部1186-1",
        "指定緊急避難場所との住所同一": "1",
        "その他市町村長が必要と認める事項": null,
        "受入対象者": null,
        "備考": ""
      }
    },
    {
      "type": "Feature",
      "geometry": {
        "type": "Point",
        "coordinates": [
          133.993488,
          35.052264
        ]
      },
      "properties": {
        "NO": 60637,
        "共通ID": "E3320300089111",
        "都道府県名及び市町村名": "岡山県津山市",
        "施設・場所名": "中央公民館",
        "住所": "岡山県津山市大谷600",
        "指定緊急避難場所との住所同一": "1",
        "その他市町村長が必要と認める事項": null,
        "受入対象者": null,
        "備考": ""
      }
    },
    {
      "type": "Feature",
      "geometry": {
        "type": "Point",
        "coordinates": [
          134.009671,
          35.085982
        ]
      },
      "properties": {
        "NO": 60638,
        "共通ID": "E3320300090111",
        "都道府県名及び市町村名": "岡山県津山市",
        "施設・場所名": "弥生小学校",
        "住所": "岡山県津山市大田121",
        "指定緊急避難場所との住所同一": "1",
        "その他市町村長が必要と認める事項": null,
        "受入対象者": null,
        "備考": ""
      }
    },
    {
      "type": "Feature",
      "geometry": {
        "type": "Point",
        "coordinates": [
          134.009445,
          35.086655
        ]
      },
      "properties": {
        "NO": 60639,
        "共通ID": "E3320300091111",
        "都道府県名及び市町村名": "岡山県津山市",
        "施設・場所名": "北陵中学校",
        "住所": "岡山県津山市大田160",
        "指定緊急避難場所との住所同一": "1",
        "その他市町村長が必要と認める事項": null,
        "受入対象者": null,
        "備考": ""
      }
    },
    {
      "type": "Feature",
      "geometry": {
        "type": "Point",
        "coordinates": [
          134.004315,
          35.094326
        ]
      },
      "properties": {
        "NO": 60640,
        "共通ID": "E3320300092111",
        "都道府県名及び市町村名": "岡山県津山市",
        "施設・場所名": "みどりの丘保育所",
        "住所": "岡山県津山市大田831-4",
        "指定緊急避難場所との住所同一": "1",
        "その他市町村長が必要と認める事項": null,
        "受入対象者": null,
        "備考": ""
      }
    },
    {
      "type": "Feature",
      "geometry": {
        "type": "Point",
        "coordinates": [
          134.002673,
          35.09247
        ]
      },
      "properties": {
        "NO": 60641,
        "共通ID": "E3320300093111",
        "都道府県名及び市町村名": "岡山県津山市",
        "施設・場所名": "リージョンセンター",
        "住所": "岡山県津山市大田920",
        "指定緊急避難場所との住所同一": "1",
        "その他市町村長が必要と認める事項": null,
        "受入対象者": null,
        "備考": ""
      }
    },
    {
      "type": "Feature",
      "geometry": {
        "type": "Point",
        "coordinates": [
          134.101894,
          35.090402
        ]
      },
      "properties": {
        "NO": 60642,
        "共通ID": "E3320300094111",
        "都道府県名及び市町村名": "岡山県津山市",
        "施設・場所名": "勝加茂小学校",
        "住所": "岡山県津山市中村125",
        "指定緊急避難場所との住所同一": "1",
        "その他市町村長が必要と認める事項": null,
        "受入対象者": null,
        "備考": ""
      }
    },
    {
      "type": "Feature",
      "geometry": {
        "type": "Point",
        "coordinates": [
          133.899838,
          35.060472
        ]
      },
      "properties": {
        "NO": 60643,
        "共通ID": "E3320300096112",
        "都道府県名及び市町村名": "岡山県津山市",
        "施設・場所名": "久米公民館",
        "住所": "岡山県津山市中北下1271",
        "指定緊急避難場所との住所同一": "1",
        "その他市町村長が必要と認める事項": null,
        "受入対象者": null,
        "備考": ""
      }
    },
    {
      "type": "Feature",
      "geometry": {
        "type": "Point",
        "coordinates": [
          133.900433,
          35.060196
        ]
      },
      "properties": {
        "NO": 60644,
        "共通ID": "E3320300096111",
        "都道府県名及び市町村名": "岡山県津山市",
        "施設・場所名": "久米総合文化運動公園体育館",
        "住所": "岡山県津山市中北下1271",
        "指定緊急避難場所との住所同一": "1",
        "その他市町村長が必要と認める事項": null,
        "受入対象者": null,
        "備考": ""
      }
    },
    {
      "type": "Feature",
      "geometry": {
        "type": "Point",
        "coordinates": [
          134.000944,
          35.067636
        ]
      },
      "properties": {
        "NO": 60645,
        "共通ID": "E3320300097111",
        "都道府県名及び市町村名": "岡山県津山市",
        "施設・場所名": "津山高校（１００周年記念館、武道場、テニスコート）",
        "住所": "岡山県津山市椿高下62",
        "指定緊急避難場所との住所同一": "1",
        "その他市町村長が必要と認める事項": null,
        "受入対象者": null,
        "備考": ""
      }
    },
    {
      "type": "Feature",
      "geometry": {
        "type": "Point",
        "coordinates": [
          133.85352,
          35.06178
        ]
      },
      "properties": {
        "NO": 60646,
        "共通ID": "E3320300099111",
        "都道府県名及び市町村名": "岡山県津山市",
        "施設・場所名": "喬松小学校",
        "住所": "岡山県津山市坪井上100-1",
        "指定緊急避難場所との住所同一": "1",
        "その他市町村長が必要と認める事項": null,
        "受入対象者": null,
        "備考": ""
      }
    },
    {
      "type": "Feature",
      "geometry": {
        "type": "Point",
        "coordinates": [
          134.082337,
          35.06985
        ]
      },
      "properties": {
        "NO": 60647,
        "共通ID": "E3320300101111",
        "都道府県名及び市町村名": "岡山県津山市",
        "施設・場所名": "広野小学校",
        "住所": "岡山県津山市田熊1943",
        "指定緊急避難場所との住所同一": "1",
        "その他市町村長が必要と認める事項": null,
        "受入対象者": null,
        "備考": ""
      }
    },
    {
      "type": "Feature",
      "geometry": {
        "type": "Point",
        "coordinates": [
          134.082838,
          35.070682
        ]
      },
      "properties": {
        "NO": 60648,
        "共通ID": "E3320300102111",
        "都道府県名及び市町村名": "岡山県津山市",
        "施設・場所名": "広野公民館",
        "住所": "岡山県津山市田熊1963-1",
        "指定緊急避難場所との住所同一": "1",
        "その他市町村長が必要と認める事項": null,
        "受入対象者": null,
        "備考": ""
      }
    },
    {
      "type": "Feature",
      "geometry": {
        "type": "Point",
        "coordinates": [
          133.997438,
          35.100907
        ]
      },
      "properties": {
        "NO": 60649,
        "共通ID": "E3320300103111",
        "都道府県名及び市町村名": "岡山県津山市",
        "施設・場所名": "一宮公民館",
        "住所": "岡山県津山市東一宮84-1",
        "指定緊急避難場所との住所同一": "1",
        "その他市町村長が必要と認める事項": null,
        "受入対象者": null,
        "備考": ""
      }
    },
    {
      "type": "Feature",
      "geometry": {
        "type": "Point",
        "coordinates": [
          133.999789,
          35.101563
        ]
      },
      "properties": {
        "NO": 60650,
        "共通ID": "E3320300104111",
        "都道府県名及び市町村名": "岡山県津山市",
        "施設・場所名": "一宮小学校",
        "住所": "岡山県津山市東一宮87-1",
        "指定緊急避難場所との住所同一": "1",
        "その他市町村長が必要と認める事項": null,
        "受入対象者": null,
        "備考": ""
      }
    },
    {
      "type": "Feature",
      "geometry": {
        "type": "Point",
        "coordinates": [
          133.997845,
          35.057407
        ]
      },
      "properties": {
        "NO": 60651,
        "共通ID": "E3320300105111",
        "都道府県名及び市町村名": "岡山県津山市",
        "施設・場所名": "ふれあいサロン",
        "住所": "岡山県津山市南新座33",
        "指定緊急避難場所との住所同一": "1",
        "その他市町村長が必要と認める事項": null,
        "受入対象者": null,
        "備考": ""
      }
    },
    {
      "type": "Feature",
      "geometry": {
        "type": "Point",
        "coordinates": [
          133.896871,
          35.055171
        ]
      },
      "properties": {
        "NO": 60652,
        "共通ID": "E3320300106111",
        "都道府県名及び市町村名": "岡山県津山市",
        "施設・場所名": "久米中学校",
        "住所": "岡山県津山市南方中1487-1",
        "指定緊急避難場所との住所同一": "1",
        "その他市町村長が必要と認める事項": null,
        "受入対象者": null,
        "備考": ""
      }
    },
    {
      "type": "Feature",
      "geometry": {
        "type": "Point",
        "coordinates": [
          133.903916,
          35.057588
        ]
      },
      "properties": {
        "NO": 60653,
        "共通ID": "E3320300108111",
        "都道府県名及び市町村名": "岡山県津山市",
        "施設・場所名": "久米こども園",
        "住所": "岡山県津山市南方中1744-1",
        "指定緊急避難場所との住所同一": "1",
        "その他市町村長が必要と認める事項": null,
        "受入対象者": null,
        "備考": ""
      }
    },
    {
      "type": "Feature",
      "geometry": {
        "type": "Point",
        "coordinates": [
          133.972354,
          35.06244
        ]
      },
      "properties": {
        "NO": 60654,
        "共通ID": "E3320300110111",
        "都道府県名及び市町村名": "岡山県津山市",
        "施設・場所名": "津山西中学校",
        "住所": "岡山県津山市二宮1256-1",
        "指定緊急避難場所との住所同一": "1",
        "その他市町村長が必要と認める事項": null,
        "受入対象者": null,
        "備考": ""
      }
    },
    {
      "type": "Feature",
      "geometry": {
        "type": "Point",
        "coordinates": [
          133.968583,
          35.06065
        ]
      },
      "properties": {
        "NO": 60655,
        "共通ID": "E3320300111112",
        "都道府県名及び市町村名": "岡山県津山市",
        "施設・場所名": "二宮公民館",
        "住所": "岡山県津山市二宮1982-2",
        "指定緊急避難場所との住所同一": "1",
        "その他市町村長が必要と認める事項": null,
        "受入対象者": null,
        "備考": ""
      }
    },
    {
      "type": "Feature",
      "geometry": {
        "type": "Point",
        "coordinates": [
          133.968331,
          35.060715
        ]
      },
      "properties": {
        "NO": 60656,
        "共通ID": "E3320300111111",
        "都道府県名及び市町村名": "岡山県津山市",
        "施設・場所名": "つやま西幼稚園",
        "住所": "岡山県津山市二宮1982-2",
        "指定緊急避難場所との住所同一": "1",
        "その他市町村長が必要と認める事項": null,
        "受入対象者": null,
        "備考": ""
      }
    },
    {
      "type": "Feature",
      "geometry": {
        "type": "Point",
        "coordinates": [
          133.964649,
          35.060157
        ]
      },
      "properties": {
        "NO": 60657,
        "共通ID": "E3320300112111",
        "都道府県名及び市町村名": "岡山県津山市",
        "施設・場所名": "向陽小学校",
        "住所": "岡山県津山市二宮608-1",
        "指定緊急避難場所との住所同一": "1",
        "その他市町村長が必要と認める事項": null,
        "受入対象者": null,
        "備考": ""
      }
    },
    {
      "type": "Feature",
      "geometry": {
        "type": "Point",
        "coordinates": [
          134.065724,
          35.045107
        ]
      },
      "properties": {
        "NO": 60658,
        "共通ID": "E3320300115111",
        "都道府県名及び市町村名": "岡山県津山市",
        "施設・場所名": "大崎公民館",
        "住所": "岡山県津山市福力221",
        "指定緊急避難場所との住所同一": "1",
        "その他市町村長が必要と認める事項": null,
        "受入対象者": null,
        "備考": ""
      }
    },
    {
      "type": "Feature",
      "geometry": {
        "type": "Point",
        "coordinates": [
          133.96904,
          35.053661
        ]
      },
      "properties": {
        "NO": 60659,
        "共通ID": "E3320300128111",
        "都道府県名及び市町村名": "岡山県津山市",
        "施設・場所名": "佐良山公民館",
        "住所": "岡山県津山市平福91",
        "指定緊急避難場所との住所同一": "1",
        "その他市町村長が必要と認める事項": "",
        "受入対象者": "",
        "備考": ""
      }
    },
    {
      "type": "Feature",
      "geometry": {
        "type": "Point",
        "coordinates": [
          134.008118,
          35.077004
        ]
      },
      "properties": {
        "NO": 60660,
        "共通ID": "E3320300117111",
        "都道府県名及び市町村名": "岡山県津山市",
        "施設・場所名": "美作大学・美作大学短期大学部",
        "住所": "岡山県津山市北園町50",
        "指定緊急避難場所との住所同一": "1",
        "その他市町村長が必要と認める事項": null,
        "受入対象者": null,
        "備考": ""
      }
    },
    {
      "type": "Feature",
      "geometry": {
        "type": "Point",
        "coordinates": [
          134.071128,
          35.123362
        ]
      },
      "properties": {
        "NO": 60661,
        "共通ID": "E3320300118111",
        "都道府県名及び市町村名": "岡山県津山市",
        "施設・場所名": "清泉公民館",
        "住所": "岡山県津山市堀坂256-8",
        "指定緊急避難場所との住所同一": "1",
        "その他市町村長が必要と認める事項": null,
        "受入対象者": null,
        "備考": ""
      }
    },
    {
      "type": "Feature",
      "geometry": {
        "type": "Point",
        "coordinates": [
          134.074077,
          35.089563
        ]
      },
      "properties": {
        "NO": 60662,
        "共通ID": "E3320300119111",
        "都道府県名及び市町村名": "岡山県津山市",
        "施設・場所名": "成名公民館",
        "住所": "岡山県津山市野村134-3",
        "指定緊急避難場所との住所同一": "1",
        "その他市町村長が必要と認める事項": null,
        "受入対象者": null,
        "備考": ""
      }
    },
    {
      "type": "Feature",
      "geometry": {
        "type": "Point",
        "coordinates": [
          134.073486,
          35.090046
        ]
      },
      "properties": {
        "NO": 60663,
        "共通ID": "E3320300120111",
        "都道府県名及び市町村名": "岡山県津山市",
        "施設・場所名": "成名小学校",
        "住所": "岡山県津山市野村135-2",
        "指定緊急避難場所との住所同一": "1",
        "その他市町村長が必要と認める事項": null,
        "受入対象者": null,
        "備考": ""
      }
    },
    {
      "type": "Feature",
      "geometry": {
        "type": "Point",
        "coordinates": [
          133.906518,
          35.022058
        ]
      },
      "properties": {
        "NO": 60664,
        "共通ID": "E3320300123111",
        "都道府県名及び市町村名": "岡山県津山市",
        "施設・場所名": "倭文保育所",
        "住所": "岡山県津山市里公文1754-1",
        "指定緊急避難場所との住所同一": "1",
        "その他市町村長が必要と認める事項": null,
        "受入対象者": null,
        "備考": ""
      }
    },
    {
      "type": "Feature",
      "geometry": {
        "type": "Point",
        "coordinates": [
          134.015614,
          35.066577
        ]
      },
      "properties": {
        "NO": 60665,
        "共通ID": "E3320300126112",
        "都道府県名及び市町村名": "岡山県津山市",
        "施設・場所名": "津山東高等学校",
        "住所": "岡山県津山市林田1200",
        "指定緊急避難場所との住所同一": "1",
        "その他市町村長が必要と認める事項": null,
        "受入対象者": null,
        "備考": ""
      }
    },
    {
      "type": "Feature",
      "geometry": {
        "type": "Point",
        "coordinates": [
          134.01475,
          35.067442
        ]
      },
      "properties": {
        "NO": 60666,
        "共通ID": "E3320300126111",
        "都道府県名及び市町村名": "岡山県津山市",
        "施設・場所名": "津山東体育館",
        "住所": "岡山県津山市林田1200",
        "指定緊急避難場所との住所同一": "1",
        "その他市町村長が必要と認める事項": null,
        "受入対象者": null,
        "備考": ""
      }
    }
  ]
}