{
  "type": "FeatureCollection",
  "name": "332151",
  "features": [
    {
      "type": "Feature",
      "geometry": {
        "type": "Point",
        "coordinates": [
          134.320147,
          35.099517
        ]
      },
      "properties": {
        "NO": 61458,
        "共通ID": "E3321500027111",
        "都道府県名及び市町村名": "岡山県美作市",
        "施設・場所名": "大原体育館",
        "住所": "岡山県美作市下庄町859",
        "指定緊急避難場所との住所同一": "1",
        "その他市町村長が必要と認める事項": null,
        "受入対象者": null,
        "備考": ""
      }
    },
    {
      "type": "Feature",
      "geometry": {
        "type": "Point",
        "coordinates": [
          134.321431,
          35.104012
        ]
      },
      "properties": {
        "NO": 61459,
        "共通ID": "E3321500029111",
        "都道府県名及び市町村名": "岡山県美作市",
        "施設・場所名": "大原中学校",
        "住所": "岡山県美作市下町350",
        "指定緊急避難場所との住所同一": "1",
        "その他市町村長が必要と認める事項": null,
        "受入対象者": null,
        "備考": ""
      }
    },
    {
      "type": "Feature",
      "geometry": {
        "type": "Point",
        "coordinates": [
          134.326524,
          35.096121
        ]
      },
      "properties": {
        "NO": 61460,
        "共通ID": "E3321500048111",
        "都道府県名及び市町村名": "岡山県美作市",
        "施設・場所名": "讃甘コミュニティセンター",
        "住所": "岡山県美作市宮本101",
        "指定緊急避難場所との住所同一": "1",
        "その他市町村長が必要と認める事項": null,
        "受入対象者": null,
        "備考": ""
      }
    },
    {
      "type": "Feature",
      "geometry": {
        "type": "Point",
        "coordinates": [
          134.327382,
          35.118712
        ]
      },
      "properties": {
        "NO": 61461,
        "共通ID": "E3321500233111",
        "都道府県名及び市町村名": "岡山県美作市",
        "施設・場所名": "大原コミュニティセンター",
        "住所": "岡山県美作市古町1711",
        "指定緊急避難場所との住所同一": "1",
        "その他市町村長が必要と認める事項": "",
        "受入対象者": "",
        "備考": ""
      }
    },
    {
      "type": "Feature",
      "geometry": {
        "type": "Point",
        "coordinates": [
          134.380254,
          35.167925
        ]
      },
      "properties": {
        "NO": 61462,
        "共通ID": "E3321500061111",
        "都道府県名及び市町村名": "岡山県美作市",
        "施設・場所名": "愛の村パーク",
        "住所": "岡山県美作市後山1872",
        "指定緊急避難場所との住所同一": "1",
        "その他市町村長が必要と認める事項": null,
        "受入対象者": null,
        "備考": ""
      }
    },
    {
      "type": "Feature",
      "geometry": {
        "type": "Point",
        "coordinates": [
          134.223695,
          35.013848
        ]
      },
      "properties": {
        "NO": 61463,
        "共通ID": "E3321500064111",
        "都道府県名及び市町村名": "岡山県美作市",
        "施設・場所名": "作東中学校",
        "住所": "岡山県美作市江見226-2",
        "指定緊急避難場所との住所同一": "1",
        "その他市町村長が必要と認める事項": null,
        "受入対象者": null,
        "備考": ""
      }
    },
    {
      "type": "Feature",
      "geometry": {
        "type": "Point",
        "coordinates": [
          134.233883,
          35.021029
        ]
      },
      "properties": {
        "NO": 61464,
        "共通ID": "E3321500068111",
        "都道府県名及び市町村名": "岡山県美作市",
        "施設・場所名": "作東Ｂ＆Ｇ海洋センター",
        "住所": "岡山県美作市江見910-3",
        "指定緊急避難場所との住所同一": "1",
        "その他市町村長が必要と認める事項": null,
        "受入対象者": null,
        "備考": ""
      }
    },
    {
      "type": "Feature",
      "geometry": {
        "type": "Point",
        "coordinates": [
          134.231858,
          35.021198
        ]
      },
      "properties": {
        "NO": 61465,
        "共通ID": "E3321500069111",
        "都道府県名及び市町村名": "岡山県美作市",
        "施設・場所名": "作東農村環境改善センター",
        "住所": "岡山県美作市江見944",
        "指定緊急避難場所との住所同一": "1",
        "その他市町村長が必要と認める事項": null,
        "受入対象者": null,
        "備考": ""
      }
    },
    {
      "type": "Feature",
      "geometry": {
        "type": "Point",
        "coordinates": [
          134.326509,
          35.09805
        ]
      },
      "properties": {
        "NO": 61466,
        "共通ID": "E3321500071111",
        "都道府県名及び市町村名": "岡山県美作市",
        "施設・場所名": "武蔵武道館",
        "住所": "岡山県美作市今岡754-1",
        "指定緊急避難場所との住所同一": "1",
        "その他市町村長が必要と認める事項": null,
        "受入対象者": null,
        "備考": ""
      }
    },
    {
      "type": "Feature",
      "geometry": {
        "type": "Point",
        "coordinates": [
          134.148572,
          34.998033
        ]
      },
      "properties": {
        "NO": 61467,
        "共通ID": "E3321500074111",
        "都道府県名及び市町村名": "岡山県美作市",
        "施設・場所名": "美作中学校",
        "住所": "岡山県美作市三倉田205",
        "指定緊急避難場所との住所同一": "1",
        "その他市町村長が必要と認める事項": null,
        "受入対象者": null,
        "備考": ""
      }
    },
    {
      "type": "Feature",
      "geometry": {
        "type": "Point",
        "coordinates": [
          134.12825,
          34.88962
        ]
      },
      "properties": {
        "NO": 61468,
        "共通ID": "E3321500091111",
        "都道府県名及び市町村名": "岡山県美作市",
        "施設・場所名": "大芦高原体育館",
        "住所": "岡山県美作市上山1736-5",
        "指定緊急避難場所との住所同一": "1",
        "その他市町村長が必要と認める事項": null,
        "受入対象者": null,
        "備考": ""
      }
    },
    {
      "type": "Feature",
      "geometry": {
        "type": "Point",
        "coordinates": [
          134.187726,
          35.076208
        ]
      },
      "properties": {
        "NO": 61469,
        "共通ID": "E3321500102111",
        "都道府県名及び市町村名": "岡山県美作市",
        "施設・場所名": "勝田小学校",
        "住所": "岡山県美作市真加部1366",
        "指定緊急避難場所との住所同一": "1",
        "その他市町村長が必要と認める事項": null,
        "受入対象者": null,
        "備考": ""
      }
    },
    {
      "type": "Feature",
      "geometry": {
        "type": "Point",
        "coordinates": [
          134.188828,
          35.073686
        ]
      },
      "properties": {
        "NO": 61470,
        "共通ID": "E3321500250111",
        "都道府県名及び市町村名": "岡山県美作市",
        "施設・場所名": "勝田中学校",
        "住所": "岡山県美作市真加部1575",
        "指定緊急避難場所との住所同一": "1",
        "その他市町村長が必要と認める事項": "",
        "受入対象者": "",
        "備考": ""
      }
    },
    {
      "type": "Feature",
      "geometry": {
        "type": "Point",
        "coordinates": [
          134.190643,
          35.073574
        ]
      },
      "properties": {
        "NO": 61471,
        "共通ID": "E3321500104111",
        "都道府県名及び市町村名": "岡山県美作市",
        "施設・場所名": "かつた市民センター",
        "住所": "岡山県美作市真加部1611-2",
        "指定緊急避難場所との住所同一": "1",
        "その他市町村長が必要と認める事項": null,
        "受入対象者": null,
        "備考": ""
      }
    },
    {
      "type": "Feature",
      "geometry": {
        "type": "Point",
        "coordinates": [
          134.282006,
          35.077641
        ]
      },
      "properties": {
        "NO": 61472,
        "共通ID": "E3321500119111",
        "都道府県名及び市町村名": "岡山県美作市",
        "施設・場所名": "大吉コミュニティセンター",
        "住所": "岡山県美作市壬生87",
        "指定緊急避難場所との住所同一": "1",
        "その他市町村長が必要と認める事項": null,
        "受入対象者": null,
        "備考": ""
      }
    },
    {
      "type": "Feature",
      "geometry": {
        "type": "Point",
        "coordinates": [
          134.359425,
          35.146201
        ]
      },
      "properties": {
        "NO": 61473,
        "共通ID": "E3321500130111",
        "都道府県名及び市町村名": "岡山県美作市",
        "施設・場所名": "東粟倉総合支所（基幹集落センター）",
        "住所": "岡山県美作市太田152-1",
        "指定緊急避難場所との住所同一": "1",
        "その他市町村長が必要と認める事項": null,
        "受入対象者": null,
        "備考": ""
      }
    },
    {
      "type": "Feature",
      "geometry": {
        "type": "Point",
        "coordinates": [
          134.207964,
          35.06495
        ]
      },
      "properties": {
        "NO": 61474,
        "共通ID": "E3321500135111",
        "都道府県名及び市町村名": "岡山県美作市",
        "施設・場所名": "勝田東小学校",
        "住所": "岡山県美作市大町64",
        "指定緊急避難場所との住所同一": "1",
        "その他市町村長が必要と認める事項": null,
        "受入対象者": null,
        "備考": ""
      }
    },
    {
      "type": "Feature",
      "geometry": {
        "type": "Point",
        "coordinates": [
          134.201987,
          34.926139
        ]
      },
      "properties": {
        "NO": 61475,
        "共通ID": "E3321500137111",
        "都道府県名及び市町村名": "岡山県美作市",
        "施設・場所名": "アゼリア館",
        "住所": "岡山県美作市滝宮391-1",
        "指定緊急避難場所との住所同一": "1",
        "その他市町村長が必要と認める事項": null,
        "受入対象者": null,
        "備考": ""
      }
    },
    {
      "type": "Feature",
      "geometry": {
        "type": "Point",
        "coordinates": [
          134.133001,
          35.001741
        ]
      },
      "properties": {
        "NO": 61476,
        "共通ID": "E3321500143111",
        "都道府県名及び市町村名": "岡山県美作市",
        "施設・場所名": "みまさかアリーナ",
        "住所": "岡山県美作市中山1200",
        "指定緊急避難場所との住所同一": "1",
        "その他市町村長が必要と認める事項": null,
        "受入対象者": null,
        "備考": ""
      }
    },
    {
      "type": "Feature",
      "geometry": {
        "type": "Point",
        "coordinates": [
          134.267044,
          34.990497
        ]
      },
      "properties": {
        "NO": 61477,
        "共通ID": "E3321500164111",
        "都道府県名及び市町村名": "岡山県美作市",
        "施設・場所名": "土居小学校",
        "住所": "岡山県美作市土居203",
        "指定緊急避難場所との住所同一": "1",
        "その他市町村長が必要と認める事項": null,
        "受入対象者": null,
        "備考": ""
      }
    },
    {
      "type": "Feature",
      "geometry": {
        "type": "Point",
        "coordinates": [
          134.138654,
          34.998493
        ]
      },
      "properties": {
        "NO": 61478,
        "共通ID": "E3321500172111",
        "都道府県名及び市町村名": "岡山県美作市",
        "施設・場所名": "美作第一小学校",
        "住所": "岡山県美作市湯郷58",
        "指定緊急避難場所との住所同一": "1",
        "その他市町村長が必要と認める事項": null,
        "受入対象者": null,
        "備考": ""
      }
    },
    {
      "type": "Feature",
      "geometry": {
        "type": "Point",
        "coordinates": [
          134.172458,
          35.0285
        ]
      },
      "properties": {
        "NO": 61479,
        "共通ID": "E3321500182111",
        "都道府県名及び市町村名": "岡山県美作市",
        "施設・場所名": "美作北小学校",
        "住所": "岡山県美作市楢原中60",
        "指定緊急避難場所との住所同一": "1",
        "その他市町村長が必要と認める事項": null,
        "受入対象者": null,
        "備考": ""
      }
    },
    {
      "type": "Feature",
      "geometry": {
        "type": "Point",
        "coordinates": [
          134.124718,
          34.938872
        ]
      },
      "properties": {
        "NO": 61480,
        "共通ID": "E3321500197111",
        "都道府県名及び市町村名": "岡山県美作市",
        "施設・場所名": "英田公民館",
        "住所": "岡山県美作市福本806-1",
        "指定緊急避難場所との住所同一": "1",
        "その他市町村長が必要と認める事項": null,
        "受入対象者": null,
        "備考": ""
      }
    },
    {
      "type": "Feature",
      "geometry": {
        "type": "Point",
        "coordinates": [
          134.24984,
          35.034346
        ]
      },
      "properties": {
        "NO": 61481,
        "共通ID": "E3321500202111",
        "都道府県名及び市町村名": "岡山県美作市",
        "施設・場所名": "豊野公民館",
        "住所": "岡山県美作市豊野400-1",
        "指定緊急避難場所との住所同一": "1",
        "その他市町村長が必要と認める事項": null,
        "受入対象者": null,
        "備考": ""
      }
    },
    {
      "type": "Feature",
      "geometry": {
        "type": "Point",
        "coordinates": [
          134.165738,
          35.028651
        ]
      },
      "properties": {
        "NO": 61482,
        "共通ID": "E3321500213111",
        "都道府県名及び市町村名": "岡山県美作市",
        "施設・場所名": "豊国公民館",
        "住所": "岡山県美作市北山889-3",
        "指定緊急避難場所との住所同一": "1",
        "その他市町村長が必要と認める事項": null,
        "受入対象者": null,
        "備考": ""
      }
    }
  ]
}