{
  "type": "FeatureCollection",
  "name": "332143",
  "features": [
    {
      "type": "Feature",
      "geometry": {
        "type": "Point",
        "coordinates": [
          133.624084,
          35.012404
        ]
      },
      "properties": {
        "NO": 61397,
        "共通ID": "E3321400002111",
        "都道府県名及び市町村名": "岡山県真庭市",
        "施設・場所名": "旧阿口小学校",
        "住所": "岡山県真庭市阿口2390",
        "指定緊急避難場所との住所同一": "1",
        "その他市町村長が必要と認める事項": null,
        "受入対象者": null,
        "備考": ""
      }
    },
    {
      "type": "Feature",
      "geometry": {
        "type": "Point",
        "coordinates": [
          133.736518,
          35.024166
        ]
      },
      "properties": {
        "NO": 61398,
        "共通ID": "E3321400025111",
        "都道府県名及び市町村名": "岡山県真庭市",
        "施設・場所名": "ハイランドおちあい",
        "住所": "岡山県真庭市下市瀬586-1",
        "指定緊急避難場所との住所同一": "1",
        "その他市町村長が必要と認める事項": null,
        "受入対象者": null,
        "備考": ""
      }
    },
    {
      "type": "Feature",
      "geometry": {
        "type": "Point",
        "coordinates": [
          133.737581,
          35.022365
        ]
      },
      "properties": {
        "NO": 61399,
        "共通ID": "E3321400026111",
        "都道府県名及び市町村名": "岡山県真庭市",
        "施設・場所名": "白梅総合体育館",
        "住所": "岡山県真庭市下市瀬586-3",
        "指定緊急避難場所との住所同一": "1",
        "その他市町村長が必要と認める事項": null,
        "受入対象者": null,
        "備考": ""
      }
    },
    {
      "type": "Feature",
      "geometry": {
        "type": "Point",
        "coordinates": [
          133.733661,
          35.003289
        ]
      },
      "properties": {
        "NO": 61400,
        "共通ID": "E3321400040111",
        "都道府県名及び市町村名": "岡山県真庭市",
        "施設・場所名": "木山小学校",
        "住所": "岡山県真庭市下方1380",
        "指定緊急避難場所との住所同一": "1",
        "その他市町村長が必要と認める事項": null,
        "受入対象者": null,
        "備考": ""
      }
    },
    {
      "type": "Feature",
      "geometry": {
        "type": "Point",
        "coordinates": [
          133.732815,
          35.010334
        ]
      },
      "properties": {
        "NO": 61401,
        "共通ID": "E3321400046111",
        "都道府県名及び市町村名": "岡山県真庭市",
        "施設・場所名": "落合中学校",
        "住所": "岡山県真庭市下方625",
        "指定緊急避難場所との住所同一": "1",
        "その他市町村長が必要と認める事項": null,
        "受入対象者": null,
        "備考": ""
      }
    },
    {
      "type": "Feature",
      "geometry": {
        "type": "Point",
        "coordinates": [
          133.632878,
          34.961589
        ]
      },
      "properties": {
        "NO": 61402,
        "共通ID": "E3321400366111",
        "都道府県名及び市町村名": "岡山県真庭市",
        "施設・場所名": "北房振興局",
        "住所": "岡山県真庭市下呰部248",
        "指定緊急避難場所との住所同一": "1",
        "その他市町村長が必要と認める事項": "",
        "受入対象者": "",
        "備考": ""
      }
    },
    {
      "type": "Feature",
      "geometry": {
        "type": "Point",
        "coordinates": [
          133.632906,
          34.963303
        ]
      },
      "properties": {
        "NO": 61403,
        "共通ID": "E3321400050112",
        "都道府県名及び市町村名": "岡山県真庭市",
        "施設・場所名": "北房こども園",
        "住所": "岡山県真庭市下呰部289",
        "指定緊急避難場所との住所同一": "1",
        "その他市町村長が必要と認める事項": null,
        "受入対象者": null,
        "備考": ""
      }
    },
    {
      "type": "Feature",
      "geometry": {
        "type": "Point",
        "coordinates": [
          133.633555,
          34.964139
        ]
      },
      "properties": {
        "NO": 61404,
        "共通ID": "E3321400050111",
        "都道府県名及び市町村名": "岡山県真庭市",
        "施設・場所名": "北房小学校",
        "住所": "岡山県真庭市下呰部289",
        "指定緊急避難場所との住所同一": "1",
        "その他市町村長が必要と認める事項": null,
        "受入対象者": null,
        "備考": ""
      }
    },
    {
      "type": "Feature",
      "geometry": {
        "type": "Point",
        "coordinates": [
          133.730152,
          35.168947
        ]
      },
      "properties": {
        "NO": 61405,
        "共通ID": "E3321400053111",
        "都道府県名及び市町村名": "岡山県真庭市",
        "施設・場所名": "湯原クライミングセンター",
        "住所": "岡山県真庭市禾津164",
        "指定緊急避難場所との住所同一": "1",
        "その他市町村長が必要と認める事項": null,
        "受入対象者": null,
        "備考": ""
      }
    },
    {
      "type": "Feature",
      "geometry": {
        "type": "Point",
        "coordinates": [
          133.778923,
          35.103561
        ]
      },
      "properties": {
        "NO": 61406,
        "共通ID": "E3321400058111",
        "都道府県名及び市町村名": "岡山県真庭市",
        "施設・場所名": "樫邑小学校",
        "住所": "岡山県真庭市樫西3510",
        "指定緊急避難場所との住所同一": "1",
        "その他市町村長が必要と認める事項": null,
        "受入対象者": null,
        "備考": ""
      }
    },
    {
      "type": "Feature",
      "geometry": {
        "type": "Point",
        "coordinates": [
          133.786292,
          35.095678
        ]
      },
      "properties": {
        "NO": 61407,
        "共通ID": "E3321400060111",
        "都道府県名及び市町村名": "岡山県真庭市",
        "施設・場所名": "樫東生活改善センター",
        "住所": "岡山県真庭市樫東1354-2",
        "指定緊急避難場所との住所同一": "1",
        "その他市町村長が必要と認める事項": null,
        "受入対象者": null,
        "備考": ""
      }
    },
    {
      "type": "Feature",
      "geometry": {
        "type": "Point",
        "coordinates": [
          133.73007,
          35.175299
        ]
      },
      "properties": {
        "NO": 61408,
        "共通ID": "E3321400069111",
        "都道府県名及び市町村名": "岡山県真庭市",
        "施設・場所名": "湯原中学校",
        "住所": "岡山県真庭市久見105",
        "指定緊急避難場所との住所同一": "1",
        "その他市町村長が必要と認める事項": null,
        "受入対象者": null,
        "備考": ""
      }
    },
    {
      "type": "Feature",
      "geometry": {
        "type": "Point",
        "coordinates": [
          133.731728,
          35.174169
        ]
      },
      "properties": {
        "NO": 61409,
        "共通ID": "E3321400070111",
        "都道府県名及び市町村名": "岡山県真庭市",
        "施設・場所名": "湯原小学校",
        "住所": "岡山県真庭市久見70",
        "指定緊急避難場所との住所同一": "1",
        "その他市町村長が必要と認める事項": null,
        "受入対象者": null,
        "備考": ""
      }
    },
    {
      "type": "Feature",
      "geometry": {
        "type": "Point",
        "coordinates": [
          133.750646,
          35.082335
        ]
      },
      "properties": {
        "NO": 61410,
        "共通ID": "E3321400072111",
        "都道府県名及び市町村名": "岡山県真庭市",
        "施設・場所名": "遷喬小学校",
        "住所": "岡山県真庭市久世100",
        "指定緊急避難場所との住所同一": "1",
        "その他市町村長が必要と認める事項": null,
        "受入対象者": null,
        "備考": ""
      }
    },
    {
      "type": "Feature",
      "geometry": {
        "type": "Point",
        "coordinates": [
          133.753458,
          35.075177
        ]
      },
      "properties": {
        "NO": 61411,
        "共通ID": "E3321400076111",
        "都道府県名及び市町村名": "岡山県真庭市",
        "施設・場所名": "久世公民館",
        "住所": "岡山県真庭市久世2932-5",
        "指定緊急避難場所との住所同一": "1",
        "その他市町村長が必要と認める事項": null,
        "受入対象者": null,
        "備考": ""
      }
    },
    {
      "type": "Feature",
      "geometry": {
        "type": "Point",
        "coordinates": [
          133.679498,
          34.975905
        ]
      },
      "properties": {
        "NO": 61412,
        "共通ID": "E3321400080111",
        "都道府県名及び市町村名": "岡山県真庭市",
        "施設・場所名": "水田小学校",
        "住所": "岡山県真庭市宮地1608",
        "指定緊急避難場所との住所同一": "1",
        "その他市町村長が必要と認める事項": null,
        "受入対象者": null,
        "備考": ""
      }
    },
    {
      "type": "Feature",
      "geometry": {
        "type": "Point",
        "coordinates": [
          133.698706,
          34.987776
        ]
      },
      "properties": {
        "NO": 61413,
        "共通ID": "E3321400090111",
        "都道府県名及び市町村名": "岡山県真庭市",
        "施設・場所名": "美川小学校",
        "住所": "岡山県真庭市栗原720",
        "指定緊急避難場所との住所同一": "1",
        "その他市町村長が必要と認める事項": null,
        "受入対象者": null,
        "備考": ""
      }
    },
    {
      "type": "Feature",
      "geometry": {
        "type": "Point",
        "coordinates": [
          133.66162,
          35.039457
        ]
      },
      "properties": {
        "NO": 61414,
        "共通ID": "E3321400094111",
        "都道府県名及び市町村名": "岡山県真庭市",
        "施設・場所名": "月田小学校",
        "住所": "岡山県真庭市月田5606-2",
        "指定緊急避難場所との住所同一": "1",
        "その他市町村長が必要と認める事項": null,
        "受入対象者": null,
        "備考": ""
      }
    },
    {
      "type": "Feature",
      "geometry": {
        "type": "Point",
        "coordinates": [
          133.606747,
          35.089465
        ]
      },
      "properties": {
        "NO": 61415,
        "共通ID": "E3321400105111",
        "都道府県名及び市町村名": "岡山県真庭市",
        "施設・場所名": "真庭市農業構造改善センター",
        "住所": "岡山県真庭市古呂々尾中1412-3",
        "指定緊急避難場所との住所同一": "1",
        "その他市町村長が必要と認める事項": null,
        "受入対象者": null,
        "備考": ""
      }
    },
    {
      "type": "Feature",
      "geometry": {
        "type": "Point",
        "coordinates": [
          133.750666,
          35.093088
        ]
      },
      "properties": {
        "NO": 61416,
        "共通ID": "E3321400123111",
        "都道府県名及び市町村名": "岡山県真庭市",
        "施設・場所名": "産業学習館",
        "住所": "岡山県真庭市三阪1130-22",
        "指定緊急避難場所との住所同一": "1",
        "その他市町村長が必要と認める事項": null,
        "受入対象者": null,
        "備考": ""
      }
    },
    {
      "type": "Feature",
      "geometry": {
        "type": "Point",
        "coordinates": [
          133.686414,
          35.081941
        ]
      },
      "properties": {
        "NO": 61417,
        "共通ID": "E3321400125111",
        "都道府県名及び市町村名": "岡山県真庭市",
        "施設・場所名": "勝山中学校",
        "住所": "岡山県真庭市三田190",
        "指定緊急避難場所との住所同一": "1",
        "その他市町村長が必要と認める事項": null,
        "受入対象者": null,
        "備考": ""
      }
    },
    {
      "type": "Feature",
      "geometry": {
        "type": "Point",
        "coordinates": [
          133.609252,
          35.060212
        ]
      },
      "properties": {
        "NO": 61418,
        "共通ID": "E3321400139111",
        "都道府県名及び市町村名": "岡山県真庭市",
        "施設・場所名": "富原小学校",
        "住所": "岡山県真庭市若代1948",
        "指定緊急避難場所との住所同一": "1",
        "その他市町村長が必要と認める事項": null,
        "受入対象者": null,
        "備考": ""
      }
    },
    {
      "type": "Feature",
      "geometry": {
        "type": "Point",
        "coordinates": [
          133.672961,
          35.21877
        ]
      },
      "properties": {
        "NO": 61419,
        "共通ID": "E3321400144111",
        "都道府県名及び市町村名": "岡山県真庭市",
        "施設・場所名": "二川みらいづくりセンター",
        "住所": "岡山県真庭市種966",
        "指定緊急避難場所との住所同一": "1",
        "その他市町村長が必要と認める事項": "",
        "受入対象者": "",
        "備考": ""
      }
    },
    {
      "type": "Feature",
      "geometry": {
        "type": "Point",
        "coordinates": [
          133.691154,
          35.080292
        ]
      },
      "properties": {
        "NO": 61420,
        "共通ID": "E3321400145111",
        "都道府県名及び市町村名": "岡山県真庭市",
        "施設・場所名": "勝山文化センター",
        "住所": "岡山県真庭市勝山319",
        "指定緊急避難場所との住所同一": "1",
        "その他市町村長が必要と認める事項": null,
        "受入対象者": null,
        "備考": ""
      }
    },
    {
      "type": "Feature",
      "geometry": {
        "type": "Point",
        "coordinates": [
          133.694741,
          35.08335
        ]
      },
      "properties": {
        "NO": 61421,
        "共通ID": "E3321400147111",
        "都道府県名及び市町村名": "岡山県真庭市",
        "施設・場所名": "勝山高校",
        "住所": "岡山県真庭市勝山481",
        "指定緊急避難場所との住所同一": "1",
        "その他市町村長が必要と認める事項": null,
        "受入対象者": null,
        "備考": ""
      }
    },
    {
      "type": "Feature",
      "geometry": {
        "type": "Point",
        "coordinates": [
          133.69231,
          35.083211
        ]
      },
      "properties": {
        "NO": 61422,
        "共通ID": "E3321400148111",
        "都道府県名及び市町村名": "岡山県真庭市",
        "施設・場所名": "勝山こども園",
        "住所": "岡山県真庭市勝山628-1",
        "指定緊急避難場所との住所同一": "1",
        "その他市町村長が必要と認める事項": null,
        "受入対象者": null,
        "備考": ""
      }
    },
    {
      "type": "Feature",
      "geometry": {
        "type": "Point",
        "coordinates": [
          133.642014,
          34.963936
        ]
      },
      "properties": {
        "NO": 61423,
        "共通ID": "E3321400168111",
        "都道府県名及び市町村名": "岡山県真庭市",
        "施設・場所名": "北房中学校",
        "住所": "岡山県真庭市上水田2758",
        "指定緊急避難場所との住所同一": "1",
        "その他市町村長が必要と認める事項": null,
        "受入対象者": null,
        "備考": ""
      }
    },
    {
      "type": "Feature",
      "geometry": {
        "type": "Point",
        "coordinates": [
          133.633521,
          34.961873
        ]
      },
      "properties": {
        "NO": 61424,
        "共通ID": "E3321400169111",
        "都道府県名及び市町村名": "岡山県真庭市",
        "施設・場所名": "北房文化センター",
        "住所": "岡山県真庭市上水田3131",
        "指定緊急避難場所との住所同一": "1",
        "その他市町村長が必要と認める事項": null,
        "受入対象者": null,
        "備考": ""
      }
    },
    {
      "type": "Feature",
      "geometry": {
        "type": "Point",
        "coordinates": [
          133.623576,
          34.937472
        ]
      },
      "properties": {
        "NO": 61425,
        "共通ID": "E3321400185111",
        "都道府県名及び市町村名": "岡山県真庭市",
        "施設・場所名": "Ｂ＆Ｇ海洋センター",
        "住所": "岡山県真庭市上中津井243-2",
        "指定緊急避難場所との住所同一": "1",
        "その他市町村長が必要と認める事項": null,
        "受入対象者": null,
        "備考": ""
      }
    },
    {
      "type": "Feature",
      "geometry": {
        "type": "Point",
        "coordinates": [
          133.652971,
          35.093175
        ]
      },
      "properties": {
        "NO": 61426,
        "共通ID": "E3321400189111",
        "都道府県名及び市町村名": "岡山県真庭市",
        "施設・場所名": "神代コミュニティセンター",
        "住所": "岡山県真庭市神代913-1",
        "指定緊急避難場所との住所同一": "1",
        "その他市町村長が必要と認める事項": null,
        "受入対象者": null,
        "備考": ""
      }
    },
    {
      "type": "Feature",
      "geometry": {
        "type": "Point",
        "coordinates": [
          133.710619,
          35.08086
        ]
      },
      "properties": {
        "NO": 61427,
        "共通ID": "E3321400201111",
        "都道府県名及び市町村名": "岡山県真庭市",
        "施設・場所名": "大上公民館",
        "住所": "岡山県真庭市草加部1007-2",
        "指定緊急避難場所との住所同一": "1",
        "その他市町村長が必要と認める事項": null,
        "受入対象者": null,
        "備考": ""
      }
    },
    {
      "type": "Feature",
      "geometry": {
        "type": "Point",
        "coordinates": [
          133.719326,
          35.074901
        ]
      },
      "properties": {
        "NO": 61428,
        "共通ID": "E3321400202111",
        "都道府県名及び市町村名": "岡山県真庭市",
        "施設・場所名": "全農岡山県本部家畜市場",
        "住所": "岡山県真庭市草加部1810",
        "指定緊急避難場所との住所同一": "1",
        "その他市町村長が必要と認める事項": null,
        "受入対象者": null,
        "備考": ""
      }
    },
    {
      "type": "Feature",
      "geometry": {
        "type": "Point",
        "coordinates": [
          133.719897,
          35.081115
        ]
      },
      "properties": {
        "NO": 61429,
        "共通ID": "E3321400204111",
        "都道府県名及び市町村名": "岡山県真庭市",
        "施設・場所名": "草加部小学校",
        "住所": "岡山県真庭市草加部538",
        "指定緊急避難場所との住所同一": "1",
        "その他市町村長が必要と認める事項": null,
        "受入対象者": null,
        "備考": ""
      }
    },
    {
      "type": "Feature",
      "geometry": {
        "type": "Point",
        "coordinates": [
          133.764183,
          35.073876
        ]
      },
      "properties": {
        "NO": 61430,
        "共通ID": "E3321400207111",
        "都道府県名及び市町村名": "岡山県真庭市",
        "施設・場所名": "久世中学校",
        "住所": "岡山県真庭市台金屋202",
        "指定緊急避難場所との住所同一": "1",
        "その他市町村長が必要と認める事項": null,
        "受入対象者": null,
        "備考": ""
      }
    },
    {
      "type": "Feature",
      "geometry": {
        "type": "Point",
        "coordinates": [
          133.800227,
          35.049767
        ]
      },
      "properties": {
        "NO": 61431,
        "共通ID": "E3321400211111",
        "都道府県名及び市町村名": "岡山県真庭市",
        "施設・場所名": "河内小学校",
        "住所": "岡山県真庭市中河内2119-1",
        "指定緊急避難場所との住所同一": "1",
        "その他市町村長が必要と認める事項": null,
        "受入対象者": null,
        "備考": ""
      }
    },
    {
      "type": "Feature",
      "geometry": {
        "type": "Point",
        "coordinates": [
          133.751755,
          35.071568
        ]
      },
      "properties": {
        "NO": 61432,
        "共通ID": "E3321400214112",
        "都道府県名及び市町村名": "岡山県真庭市",
        "施設・場所名": "旧真庭高校久世校地",
        "住所": "岡山県真庭市中島143",
        "指定緊急避難場所との住所同一": "1",
        "その他市町村長が必要と認める事項": "",
        "受入対象者": "",
        "備考": ""
      }
    },
    {
      "type": "Feature",
      "geometry": {
        "type": "Point",
        "coordinates": [
          133.761862,
          35.036061
        ]
      },
      "properties": {
        "NO": 61433,
        "共通ID": "E3321400222111",
        "都道府県名及び市町村名": "岡山県真庭市",
        "施設・場所名": "川東小学校",
        "住所": "岡山県真庭市田原175",
        "指定緊急避難場所との住所同一": "1",
        "その他市町村長が必要と認める事項": null,
        "受入対象者": null,
        "備考": ""
      }
    },
    {
      "type": "Feature",
      "geometry": {
        "type": "Point",
        "coordinates": [
          133.749,
          34.980174
        ]
      },
      "properties": {
        "NO": 61434,
        "共通ID": "E3321400226111",
        "都道府県名及び市町村名": "岡山県真庭市",
        "施設・場所名": "旧上田小学校",
        "住所": "岡山県真庭市田原山上2138",
        "指定緊急避難場所との住所同一": "1",
        "その他市町村長が必要と認める事項": null,
        "受入対象者": null,
        "備考": ""
      }
    },
    {
      "type": "Feature",
      "geometry": {
        "type": "Point",
        "coordinates": [
          133.752477,
          35.07742
        ]
      },
      "properties": {
        "NO": 61435,
        "共通ID": "E3321400237111",
        "都道府県名及び市町村名": "岡山県真庭市",
        "施設・場所名": "真庭市久世エスパスセンター",
        "住所": "岡山県真庭市鍋屋17-1",
        "指定緊急避難場所との住所同一": "1",
        "その他市町村長が必要と認める事項": null,
        "受入対象者": null,
        "備考": ""
      }
    },
    {
      "type": "Feature",
      "geometry": {
        "type": "Point",
        "coordinates": [
          133.744414,
          35.053595
        ]
      },
      "properties": {
        "NO": 61436,
        "共通ID": "E3321400238111",
        "都道府県名及び市町村名": "岡山県真庭市",
        "施設・場所名": "天津小学校",
        "住所": "岡山県真庭市日名20-2",
        "指定緊急避難場所との住所同一": "1",
        "その他市町村長が必要と認める事項": null,
        "受入対象者": null,
        "備考": ""
      }
    },
    {
      "type": "Feature",
      "geometry": {
        "type": "Point",
        "coordinates": [
          133.703434,
          35.017653
        ]
      },
      "properties": {
        "NO": 61437,
        "共通ID": "E3321400242111",
        "都道府県名及び市町村名": "岡山県真庭市",
        "施設・場所名": "木山小学校日野上分校",
        "住所": "岡山県真庭市日野上1317",
        "指定緊急避難場所との住所同一": "1",
        "その他市町村長が必要と認める事項": null,
        "受入対象者": null,
        "備考": ""
      }
    },
    {
      "type": "Feature",
      "geometry": {
        "type": "Point",
        "coordinates": [
          133.620774,
          35.156737
        ]
      },
      "properties": {
        "NO": 61438,
        "共通ID": "E3321400255111",
        "都道府県名及び市町村名": "岡山県真庭市",
        "施設・場所名": "美甘健康増進施設",
        "住所": "岡山県真庭市美甘3888-6",
        "指定緊急避難場所との住所同一": "1",
        "その他市町村長が必要と認める事項": null,
        "受入対象者": null,
        "備考": ""
      }
    },
    {
      "type": "Feature",
      "geometry": {
        "type": "Point",
        "coordinates": [
          133.621369,
          35.157026
        ]
      },
      "properties": {
        "NO": 61439,
        "共通ID": "E3321400256111",
        "都道府県名及び市町村名": "岡山県真庭市",
        "施設・場所名": "美甘小学校",
        "住所": "岡山県真庭市美甘4021-4",
        "指定緊急避難場所との住所同一": "1",
        "その他市町村長が必要と認める事項": null,
        "受入対象者": null,
        "備考": ""
      }
    },
    {
      "type": "Feature",
      "geometry": {
        "type": "Point",
        "coordinates": [
          133.623899,
          35.157129
        ]
      },
      "properties": {
        "NO": 61440,
        "共通ID": "E3321400258111",
        "都道府県名及び市町村名": "岡山県真庭市",
        "施設・場所名": "美甘振興局",
        "住所": "岡山県真庭市美甘4134",
        "指定緊急避難場所との住所同一": "1",
        "その他市町村長が必要と認める事項": null,
        "受入対象者": null,
        "備考": ""
      }
    },
    {
      "type": "Feature",
      "geometry": {
        "type": "Point",
        "coordinates": [
          133.67971,
          35.282651
        ]
      },
      "properties": {
        "NO": 61441,
        "共通ID": "E3321400269111",
        "都道府県名及び市町村名": "岡山県真庭市",
        "施設・場所名": "蒜山中学校",
        "住所": "岡山県真庭市蒜山下福田468",
        "指定緊急避難場所との住所同一": "",
        "その他市町村長が必要と認める事項": null,
        "受入対象者": null,
        "備考": ""
      }
    },
    {
      "type": "Feature",
      "geometry": {
        "type": "Point",
        "coordinates": [
          133.778044,
          35.265733
        ]
      },
      "properties": {
        "NO": 61442,
        "共通ID": "E3321400274111",
        "都道府県名及び市町村名": "岡山県真庭市",
        "施設・場所名": "中和ディサービスセンター",
        "住所": "岡山県真庭市蒜山下和1801",
        "指定緊急避難場所との住所同一": "1",
        "その他市町村長が必要と認める事項": null,
        "受入対象者": null,
        "備考": ""
      }
    },
    {
      "type": "Feature",
      "geometry": {
        "type": "Point",
        "coordinates": [
          133.777574,
          35.265967
        ]
      },
      "properties": {
        "NO": 61443,
        "共通ID": "E3321400274112",
        "都道府県名及び市町村名": "岡山県真庭市",
        "施設・場所名": "中和保健センターあじさい",
        "住所": "岡山県真庭市蒜山下和1801",
        "指定緊急避難場所との住所同一": "1",
        "その他市町村長が必要と認める事項": null,
        "受入対象者": null,
        "備考": ""
      }
    },
    {
      "type": "Feature",
      "geometry": {
        "type": "Point",
        "coordinates": [
          133.72682,
          35.295345
        ]
      },
      "properties": {
        "NO": 61444,
        "共通ID": "E3321400285111",
        "都道府県名及び市町村名": "岡山県真庭市",
        "施設・場所名": "蒜山高原スポーツ公園",
        "住所": "岡山県真庭市蒜山上長田2300-1",
        "指定緊急避難場所との住所同一": "1",
        "その他市町村長が必要と認める事項": null,
        "受入対象者": null,
        "備考": ""
      }
    },
    {
      "type": "Feature",
      "geometry": {
        "type": "Point",
        "coordinates": [
          133.688084,
          35.28775
        ]
      },
      "properties": {
        "NO": 61445,
        "共通ID": "E3321400287111",
        "都道府県名及び市町村名": "岡山県真庭市",
        "施設・場所名": "勝山高等学校蒜山校地",
        "住所": "岡山県真庭市蒜山上長田4-143",
        "指定緊急避難場所との住所同一": "1",
        "その他市町村長が必要と認める事項": null,
        "受入対象者": null,
        "備考": ""
      }
    },
    {
      "type": "Feature",
      "geometry": {
        "type": "Point",
        "coordinates": [
          133.634568,
          35.281039
        ]
      },
      "properties": {
        "NO": 61446,
        "共通ID": "E3321400298111",
        "都道府県名及び市町村名": "岡山県真庭市",
        "施設・場所名": "川上コミュニティセンター",
        "住所": "岡山県真庭市蒜山上福田425-1",
        "指定緊急避難場所との住所同一": "1",
        "その他市町村長が必要と認める事項": null,
        "受入対象者": null,
        "備考": ""
      }
    },
    {
      "type": "Feature",
      "geometry": {
        "type": "Point",
        "coordinates": [
          133.646682,
          35.281484
        ]
      },
      "properties": {
        "NO": 61447,
        "共通ID": "E3321400300111",
        "都道府県名及び市町村名": "岡山県真庭市",
        "施設・場所名": "川上小学校",
        "住所": "岡山県真庭市蒜山上福田890-17",
        "指定緊急避難場所との住所同一": "1",
        "その他市町村長が必要と認める事項": null,
        "受入対象者": null,
        "備考": ""
      }
    },
    {
      "type": "Feature",
      "geometry": {
        "type": "Point",
        "coordinates": [
          133.676415,
          35.280119
        ]
      },
      "properties": {
        "NO": 61448,
        "共通ID": "E3321400317111",
        "都道府県名及び市町村名": "岡山県真庭市",
        "施設・場所名": "八束コミュニティセンター",
        "住所": "岡山県真庭市蒜山富山根152-2",
        "指定緊急避難場所との住所同一": "1",
        "その他市町村長が必要と認める事項": null,
        "受入対象者": null,
        "備考": ""
      }
    },
    {
      "type": "Feature",
      "geometry": {
        "type": "Point",
        "coordinates": [
          133.677046,
          35.280061
        ]
      },
      "properties": {
        "NO": 61449,
        "共通ID": "E3321400318111",
        "都道府県名及び市町村名": "岡山県真庭市",
        "施設・場所名": "八束老人福祉センター",
        "住所": "岡山県真庭市蒜山富山根154-1",
        "指定緊急避難場所との住所同一": "",
        "その他市町村長が必要と認める事項": null,
        "受入対象者": null,
        "備考": ""
      }
    },
    {
      "type": "Feature",
      "geometry": {
        "type": "Point",
        "coordinates": [
          133.731232,
          35.194452
        ]
      },
      "properties": {
        "NO": 61450,
        "共通ID": "E3321400340111",
        "都道府県名及び市町村名": "岡山県真庭市",
        "施設・場所名": "湯原ふれあいセンター",
        "住所": "岡山県真庭市豊栄1515",
        "指定緊急避難場所との住所同一": "1",
        "その他市町村長が必要と認める事項": null,
        "受入対象者": null,
        "備考": ""
      }
    },
    {
      "type": "Feature",
      "geometry": {
        "type": "Point",
        "coordinates": [
          133.688374,
          35.084409
        ]
      },
      "properties": {
        "NO": 61451,
        "共通ID": "E3321400345111",
        "都道府県名及び市町村名": "岡山県真庭市",
        "施設・場所名": "勝山小学校",
        "住所": "岡山県真庭市本郷1801",
        "指定緊急避難場所との住所同一": "1",
        "その他市町村長が必要と認める事項": null,
        "受入対象者": null,
        "備考": ""
      }
    },
    {
      "type": "Feature",
      "geometry": {
        "type": "Point",
        "coordinates": [
          133.770476,
          35.081059
        ]
      },
      "properties": {
        "NO": 61452,
        "共通ID": "E3321400352111",
        "都道府県名及び市町村名": "岡山県真庭市",
        "施設・場所名": "西口西公民館",
        "住所": "岡山県真庭市目木1285",
        "指定緊急避難場所との住所同一": "1",
        "その他市町村長が必要と認める事項": null,
        "受入対象者": null,
        "備考": ""
      }
    },
    {
      "type": "Feature",
      "geometry": {
        "type": "Point",
        "coordinates": [
          133.772949,
          35.079666
        ]
      },
      "properties": {
        "NO": 61453,
        "共通ID": "E3321400353111",
        "都道府県名及び市町村名": "岡山県真庭市",
        "施設・場所名": "西口農業構造改善センター",
        "住所": "岡山県真庭市目木1555-4",
        "指定緊急避難場所との住所同一": "1",
        "その他市町村長が必要と認める事項": null,
        "受入対象者": null,
        "備考": ""
      }
    },
    {
      "type": "Feature",
      "geometry": {
        "type": "Point",
        "coordinates": [
          133.778498,
          35.077684
        ]
      },
      "properties": {
        "NO": 61454,
        "共通ID": "E3321400355111",
        "都道府県名及び市町村名": "岡山県真庭市",
        "施設・場所名": "米来小学校",
        "住所": "岡山県真庭市目木1804",
        "指定緊急避難場所との住所同一": "1",
        "その他市町村長が必要と認める事項": null,
        "受入対象者": null,
        "備考": ""
      }
    },
    {
      "type": "Feature",
      "geometry": {
        "type": "Point",
        "coordinates": [
          133.759902,
          35.050589
        ]
      },
      "properties": {
        "NO": 61455,
        "共通ID": "E3321400356111",
        "都道府県名及び市町村名": "岡山県真庭市",
        "施設・場所名": "天の川こども園",
        "住所": "岡山県真庭市野川797",
        "指定緊急避難場所との住所同一": "1",
        "その他市町村長が必要と認める事項": null,
        "受入対象者": null,
        "備考": ""
      }
    },
    {
      "type": "Feature",
      "geometry": {
        "type": "Point",
        "coordinates": [
          133.818749,
          35.111178
        ]
      },
      "properties": {
        "NO": 61456,
        "共通ID": "E3321400357111",
        "都道府県名及び市町村名": "岡山県真庭市",
        "施設・場所名": "余野小学校",
        "住所": "岡山県真庭市余野下475",
        "指定緊急避難場所との住所同一": "1",
        "その他市町村長が必要と認める事項": null,
        "受入対象者": null,
        "備考": ""
      }
    },
    {
      "type": "Feature",
      "geometry": {
        "type": "Point",
        "coordinates": [
          133.747761,
          35.014852
        ]
      },
      "properties": {
        "NO": 61457,
        "共通ID": "E3321400362111",
        "都道府県名及び市町村名": "岡山県真庭市",
        "施設・場所名": "落合体育館",
        "住所": "岡山県真庭市落合垂水618",
        "指定緊急避難場所との住所同一": "1",
        "その他市町村長が必要と認める事項": null,
        "受入対象者": null,
        "備考": ""
      }
    }
  ]
}