{
  "type": "FeatureCollection",
  "name": "343692",
  "features": [
    {
      "type": "Feature",
      "geometry": {
        "type": "Point",
        "coordinates": [
          132.463988,
          34.63066
        ]
      },
      "properties": {
        "NO": 63736,
        "共通ID": "E3436900102111",
        "都道府県名及び市町村名": "広島県北広島町",
        "施設・場所名": "阿坂老人憩の家・グランド",
        "住所": "広島県北広島町阿坂4197",
        "指定緊急避難場所との住所同一": "1",
        "その他市町村長が必要と認める事項": "",
        "受入対象者": "",
        "備考": ""
      }
    },
    {
      "type": "Feature",
      "geometry": {
        "type": "Point",
        "coordinates": [
          132.448972,
          34.628611
        ]
      },
      "properties": {
        "NO": 63737,
        "共通ID": "E3436900002111",
        "都道府県名及び市町村名": "広島県北広島町",
        "施設・場所名": "豊平保健福祉総合センターそよかぜ",
        "住所": "広島県北広島町阿坂4705",
        "指定緊急避難場所との住所同一": "1",
        "その他市町村長が必要と認める事項": "",
        "受入対象者": "",
        "備考": ""
      }
    },
    {
      "type": "Feature",
      "geometry": {
        "type": "Point",
        "coordinates": [
          132.353691,
          34.744375
        ]
      },
      "properties": {
        "NO": 63738,
        "共通ID": "E3436900004111",
        "都道府県名及び市町村名": "広島県北広島町",
        "施設・場所名": "美和集会センター・駐車場",
        "住所": "広島県北広島町移原660-1",
        "指定緊急避難場所との住所同一": "1",
        "その他市町村長が必要と認める事項": "",
        "受入対象者": "",
        "備考": ""
      }
    },
    {
      "type": "Feature",
      "geometry": {
        "type": "Point",
        "coordinates": [
          132.222065,
          34.728334
        ]
      },
      "properties": {
        "NO": 63739,
        "共通ID": "E3436900005111",
        "都道府県名及び市町村名": "広島県北広島町",
        "施設・場所名": "雲耕公民館",
        "住所": "広島県北広島町雲耕579",
        "指定緊急避難場所との住所同一": "1",
        "その他市町村長が必要と認める事項": "",
        "受入対象者": "",
        "備考": ""
      }
    },
    {
      "type": "Feature",
      "geometry": {
        "type": "Point",
        "coordinates": [
          132.26936,
          34.770939
        ]
      },
      "properties": {
        "NO": 63740,
        "共通ID": "E3436900006111",
        "都道府県名及び市町村名": "広島県北広島町",
        "施設・場所名": "奥原老人集会所",
        "住所": "広島県北広島町奥原313-1",
        "指定緊急避難場所との住所同一": "1",
        "その他市町村長が必要と認める事項": "",
        "受入対象者": "",
        "備考": ""
      }
    },
    {
      "type": "Feature",
      "geometry": {
        "type": "Point",
        "coordinates": [
          132.275449,
          34.737399
        ]
      },
      "properties": {
        "NO": 63741,
        "共通ID": "E3436900008111",
        "都道府県名及び市町村名": "広島県北広島町",
        "施設・場所名": "奥中原集落センター",
        "住所": "広島県北広島町奥中原248-1",
        "指定緊急避難場所との住所同一": "1",
        "その他市町村長が必要と認める事項": "",
        "受入対象者": "",
        "備考": ""
      }
    },
    {
      "type": "Feature",
      "geometry": {
        "type": "Point",
        "coordinates": [
          132.471036,
          34.710424
        ]
      },
      "properties": {
        "NO": 63742,
        "共通ID": "E3436900009111",
        "都道府県名及び市町村名": "広島県北広島町",
        "施設・場所名": "小笹ふれあい館",
        "住所": "広島県北広島町下石227",
        "指定緊急避難場所との住所同一": "1",
        "その他市町村長が必要と認める事項": "",
        "受入対象者": "",
        "備考": ""
      }
    },
    {
      "type": "Feature",
      "geometry": {
        "type": "Point",
        "coordinates": [
          132.513298,
          34.766677
        ]
      },
      "properties": {
        "NO": 63743,
        "共通ID": "E3436900011111",
        "都道府県名及び市町村名": "広島県北広島町",
        "施設・場所名": "岩戸集会所・駐車場",
        "住所": "広島県北広島町岩戸1693-1",
        "指定緊急避難場所との住所同一": "1",
        "その他市町村長が必要と認める事項": "",
        "受入対象者": "",
        "備考": ""
      }
    },
    {
      "type": "Feature",
      "geometry": {
        "type": "Point",
        "coordinates": [
          132.516032,
          34.775575
        ]
      },
      "properties": {
        "NO": 63744,
        "共通ID": "E3436900012111",
        "都道府県名及び市町村名": "広島県北広島町",
        "施設・場所名": "本谷会館・駐車場",
        "住所": "広島県北広島町岩戸754-1",
        "指定緊急避難場所との住所同一": "1",
        "その他市町村長が必要と認める事項": "",
        "受入対象者": "",
        "備考": ""
      }
    },
    {
      "type": "Feature",
      "geometry": {
        "type": "Point",
        "coordinates": [
          132.414768,
          34.620547
        ]
      },
      "properties": {
        "NO": 63745,
        "共通ID": "E3436900013111",
        "都道府県名及び市町村名": "広島県北広島町",
        "施設・場所名": "吉木福祉センター・駐車場",
        "住所": "広島県北広島町吉木1600",
        "指定緊急避難場所との住所同一": "1",
        "その他市町村長が必要と認める事項": "",
        "受入対象者": "",
        "備考": ""
      }
    },
    {
      "type": "Feature",
      "geometry": {
        "type": "Point",
        "coordinates": [
          132.490291,
          34.778923
        ]
      },
      "properties": {
        "NO": 63746,
        "共通ID": "E3436900014111",
        "都道府県名及び市町村名": "広島県北広島町",
        "施設・場所名": "からしろ館・駐車場",
        "住所": "広島県北広島町宮迫386-12",
        "指定緊急避難場所との住所同一": "1",
        "その他市町村長が必要と認める事項": "",
        "受入対象者": "",
        "備考": ""
      }
    },
    {
      "type": "Feature",
      "geometry": {
        "type": "Point",
        "coordinates": [
          132.230716,
          34.694261
        ]
      },
      "properties": {
        "NO": 63747,
        "共通ID": "E3436900015111",
        "都道府県名及び市町村名": "広島県北広島町",
        "施設・場所名": "こぶしの里ふれあいセンター",
        "住所": "広島県北広島町橋山10052-3",
        "指定緊急避難場所との住所同一": "1",
        "その他市町村長が必要と認める事項": "",
        "受入対象者": "",
        "備考": ""
      }
    },
    {
      "type": "Feature",
      "geometry": {
        "type": "Point",
        "coordinates": [
          132.539292,
          34.679367
        ]
      },
      "properties": {
        "NO": 63748,
        "共通ID": "E3436900016111",
        "都道府県名及び市町村名": "広島県北広島町",
        "施設・場所名": "千代田中学校屋内運動場",
        "住所": "広島県北広島町古保利450",
        "指定緊急避難場所との住所同一": "1",
        "その他市町村長が必要と認める事項": "",
        "受入対象者": "",
        "備考": ""
      }
    },
    {
      "type": "Feature",
      "geometry": {
        "type": "Point",
        "coordinates": [
          132.407267,
          34.668345
        ]
      },
      "properties": {
        "NO": 63749,
        "共通ID": "E3436900018111",
        "都道府県名及び市町村名": "広島県北広島町",
        "施設・場所名": "琴庄老人集会所",
        "住所": "広島県北広島町戸谷1123",
        "指定緊急避難場所との住所同一": "1",
        "その他市町村長が必要と認める事項": "",
        "受入対象者": "",
        "備考": ""
      }
    },
    {
      "type": "Feature",
      "geometry": {
        "type": "Point",
        "coordinates": [
          132.398492,
          34.644224
        ]
      },
      "properties": {
        "NO": 63750,
        "共通ID": "E3436900019111",
        "都道府県名及び市町村名": "広島県北広島町",
        "施設・場所名": "戸谷希望の館",
        "住所": "広島県北広島町戸谷11772",
        "指定緊急避難場所との住所同一": "1",
        "その他市町村長が必要と認める事項": "",
        "受入対象者": "",
        "備考": ""
      }
    },
    {
      "type": "Feature",
      "geometry": {
        "type": "Point",
        "coordinates": [
          132.366101,
          34.645877
        ]
      },
      "properties": {
        "NO": 63751,
        "共通ID": "E3436900020111",
        "都道府県名及び市町村名": "広島県北広島町",
        "施設・場所名": "共盛老人集会所・グランド",
        "住所": "広島県北広島町戸谷5655-1",
        "指定緊急避難場所との住所同一": "1",
        "その他市町村長が必要と認める事項": "",
        "受入対象者": "",
        "備考": ""
      }
    },
    {
      "type": "Feature",
      "geometry": {
        "type": "Point",
        "coordinates": [
          132.381958,
          34.705916
        ]
      },
      "properties": {
        "NO": 63752,
        "共通ID": "E3436900021111",
        "都道府県名及び市町村名": "広島県北広島町",
        "施設・場所名": "美和東文化センター・グランド",
        "住所": "広島県北広島町溝口1099",
        "指定緊急避難場所との住所同一": "1",
        "その他市町村長が必要と認める事項": "",
        "受入対象者": "",
        "備考": ""
      }
    },
    {
      "type": "Feature",
      "geometry": {
        "type": "Point",
        "coordinates": [
          132.387918,
          34.726818
        ]
      },
      "properties": {
        "NO": 63753,
        "共通ID": "E3436900022111",
        "都道府県名及び市町村名": "広島県北広島町",
        "施設・場所名": "枕集落センター・駐車場",
        "住所": "広島県北広島町溝口477",
        "指定緊急避難場所との住所同一": "1",
        "その他市町村長が必要と認める事項": "",
        "受入対象者": "",
        "備考": ""
      }
    },
    {
      "type": "Feature",
      "geometry": {
        "type": "Point",
        "coordinates": [
          132.234599,
          34.734526
        ]
      },
      "properties": {
        "NO": 63754,
        "共通ID": "E3436900023111",
        "都道府県名及び市町村名": "広島県北広島町",
        "施設・場所名": "亀山振興センター",
        "住所": "広島県北広島町荒神原1272",
        "指定緊急避難場所との住所同一": "1",
        "その他市町村長が必要と認める事項": "",
        "受入対象者": "",
        "備考": ""
      }
    },
    {
      "type": "Feature",
      "geometry": {
        "type": "Point",
        "coordinates": [
          132.250392,
          34.72926
        ]
      },
      "properties": {
        "NO": 63755,
        "共通ID": "E3436900024111",
        "都道府県名及び市町村名": "広島県北広島町",
        "施設・場所名": "芸北ホリスティックセンター・駐車場",
        "住所": "広島県北広島町荒神原200",
        "指定緊急避難場所との住所同一": "1",
        "その他市町村長が必要と認める事項": "",
        "受入対象者": "",
        "備考": ""
      }
    },
    {
      "type": "Feature",
      "geometry": {
        "type": "Point",
        "coordinates": [
          132.245691,
          34.727964
        ]
      },
      "properties": {
        "NO": 63756,
        "共通ID": "E3436900025111",
        "都道府県名及び市町村名": "広島県北広島町",
        "施設・場所名": "荒神農耕センター",
        "住所": "広島県北広島町荒神原308-1",
        "指定緊急避難場所との住所同一": "1",
        "その他市町村長が必要と認める事項": "",
        "受入対象者": "",
        "備考": ""
      }
    },
    {
      "type": "Feature",
      "geometry": {
        "type": "Point",
        "coordinates": [
          132.368819,
          34.753314
        ]
      },
      "properties": {
        "NO": 63757,
        "共通ID": "E3436900026111",
        "都道府県名及び市町村名": "広島県北広島町",
        "施設・場所名": "高野会館",
        "住所": "広島県北広島町高野611-1",
        "指定緊急避難場所との住所同一": "1",
        "その他市町村長が必要と認める事項": "",
        "受入対象者": "",
        "備考": ""
      }
    },
    {
      "type": "Feature",
      "geometry": {
        "type": "Point",
        "coordinates": [
          132.441649,
          34.60612
        ]
      },
      "properties": {
        "NO": 63758,
        "共通ID": "E3436900027111",
        "都道府県名及び市町村名": "広島県北広島町",
        "施設・場所名": "今吉田老人集会所・グランド",
        "住所": "広島県北広島町今吉田1736",
        "指定緊急避難場所との住所同一": "1",
        "その他市町村長が必要と認める事項": "",
        "受入対象者": "",
        "備考": ""
      }
    },
    {
      "type": "Feature",
      "geometry": {
        "type": "Point",
        "coordinates": [
          132.523654,
          34.688412
        ]
      },
      "properties": {
        "NO": 63759,
        "共通ID": "E3436900028111",
        "都道府県名及び市町村名": "広島県北広島町",
        "施設・場所名": "八重小学校屋内運動場・グランド",
        "住所": "広島県北広島町今田2288-1",
        "指定緊急避難場所との住所同一": "1",
        "その他市町村長が必要と認める事項": "",
        "受入対象者": "",
        "備考": ""
      }
    },
    {
      "type": "Feature",
      "geometry": {
        "type": "Point",
        "coordinates": [
          132.523401,
          34.687168
        ]
      },
      "properties": {
        "NO": 63760,
        "共通ID": "E3436900029111",
        "都道府県名及び市町村名": "広島県北広島町",
        "施設・場所名": "八重総合センター",
        "住所": "広島県北広島町今田2303-1",
        "指定緊急避難場所との住所同一": "1",
        "その他市町村長が必要と認める事項": "",
        "受入対象者": "",
        "備考": ""
      }
    },
    {
      "type": "Feature",
      "geometry": {
        "type": "Point",
        "coordinates": [
          132.509684,
          34.667074
        ]
      },
      "properties": {
        "NO": 63761,
        "共通ID": "E3436900030111",
        "都道府県名及び市町村名": "広島県北広島町",
        "施設・場所名": "奥今田会館",
        "住所": "広島県北広島町今田898-1",
        "指定緊急避難場所との住所同一": "1",
        "その他市町村長が必要と認める事項": "",
        "受入対象者": "",
        "備考": ""
      }
    },
    {
      "type": "Feature",
      "geometry": {
        "type": "Point",
        "coordinates": [
          132.308241,
          34.776239
        ]
      },
      "properties": {
        "NO": 63762,
        "共通ID": "E3436900031111",
        "都道府県名及び市町村名": "広島県北広島町",
        "施設・場所名": "サイオト集会所・グランド",
        "住所": "広島県北広島町才乙696-1",
        "指定緊急避難場所との住所同一": "1",
        "その他市町村長が必要と認める事項": "",
        "受入対象者": "",
        "備考": ""
      }
    },
    {
      "type": "Feature",
      "geometry": {
        "type": "Point",
        "coordinates": [
          132.298748,
          34.731758
        ]
      },
      "properties": {
        "NO": 63763,
        "共通ID": "E3436900032111",
        "都道府県名及び市町村名": "広島県北広島町",
        "施設・場所名": "芸北Ｂ＆Ｇ海洋センター",
        "住所": "広島県北広島町細見10141-16",
        "指定緊急避難場所との住所同一": "1",
        "その他市町村長が必要と認める事項": "",
        "受入対象者": "",
        "備考": ""
      }
    },
    {
      "type": "Feature",
      "geometry": {
        "type": "Point",
        "coordinates": [
          132.305098,
          34.733985
        ]
      },
      "properties": {
        "NO": 63764,
        "共通ID": "E3436900034111",
        "都道府県名及び市町村名": "広島県北広島町",
        "施設・場所名": "細見上集会所",
        "住所": "広島県北広島町細見406-4",
        "指定緊急避難場所との住所同一": "",
        "その他市町村長が必要と認める事項": "",
        "受入対象者": "",
        "備考": ""
      }
    },
    {
      "type": "Feature",
      "geometry": {
        "type": "Point",
        "coordinates": [
          132.31448,
          34.72551
        ]
      },
      "properties": {
        "NO": 63765,
        "共通ID": "E3436900035111",
        "都道府県名及び市町村名": "広島県北広島町",
        "施設・場所名": "細見下コミュニティセンター",
        "住所": "広島県北広島町細見932-5",
        "指定緊急避難場所との住所同一": "1",
        "その他市町村長が必要と認める事項": "",
        "受入対象者": "",
        "備考": ""
      }
    },
    {
      "type": "Feature",
      "geometry": {
        "type": "Point",
        "coordinates": [
          132.442617,
          34.714829
        ]
      },
      "properties": {
        "NO": 63766,
        "共通ID": "E3436900036111",
        "都道府県名及び市町村名": "広島県北広島町",
        "施設・場所名": "原東交流センター・グランド",
        "住所": "広島県北広島町志路原518",
        "指定緊急避難場所との住所同一": "1",
        "その他市町村長が必要と認める事項": "",
        "受入対象者": "",
        "備考": ""
      }
    },
    {
      "type": "Feature",
      "geometry": {
        "type": "Point",
        "coordinates": [
          132.505583,
          34.688224
        ]
      },
      "properties": {
        "NO": 63767,
        "共通ID": "E3436900037111",
        "都道府県名及び市町村名": "広島県北広島町",
        "施設・場所名": "八重西総合センター",
        "住所": "広島県北広島町寺原2753",
        "指定緊急避難場所との住所同一": "1",
        "その他市町村長が必要と認める事項": "",
        "受入対象者": "",
        "備考": ""
      }
    },
    {
      "type": "Feature",
      "geometry": {
        "type": "Point",
        "coordinates": [
          132.334115,
          34.730711
        ]
      },
      "properties": {
        "NO": 63768,
        "共通ID": "E3436900038111",
        "都道府県名及び市町村名": "広島県北広島町",
        "施設・場所名": "小原振興センター・駐車場",
        "住所": "広島県北広島町小原722-1",
        "指定緊急避難場所との住所同一": "1",
        "その他市町村長が必要と認める事項": "",
        "受入対象者": "",
        "備考": ""
      }
    },
    {
      "type": "Feature",
      "geometry": {
        "type": "Point",
        "coordinates": [
          132.450018,
          34.711973
        ]
      },
      "properties": {
        "NO": 63769,
        "共通ID": "E3436900039111",
        "都道府県名及び市町村名": "広島県北広島町",
        "施設・場所名": "上石集会所・駐車場",
        "住所": "広島県北広島町上石781",
        "指定緊急避難場所との住所同一": "1",
        "その他市町村長が必要と認める事項": "",
        "受入対象者": "",
        "備考": ""
      }
    },
    {
      "type": "Feature",
      "geometry": {
        "type": "Point",
        "coordinates": [
          132.491817,
          34.76415
        ]
      },
      "properties": {
        "NO": 63770,
        "共通ID": "E3436900041111",
        "都道府県名及び市町村名": "広島県北広島町",
        "施設・場所名": "北広島町図書館",
        "住所": "広島県北広島町新庄1031-1",
        "指定緊急避難場所との住所同一": "1",
        "その他市町村長が必要と認める事項": "",
        "受入対象者": "",
        "備考": ""
      }
    },
    {
      "type": "Feature",
      "geometry": {
        "type": "Point",
        "coordinates": [
          132.498904,
          34.761663
        ]
      },
      "properties": {
        "NO": 63771,
        "共通ID": "E3436900043111",
        "都道府県名及び市町村名": "広島県北広島町",
        "施設・場所名": "大朝教育集会所・駐車場",
        "住所": "広島県北広島町新庄2883",
        "指定緊急避難場所との住所同一": "1",
        "その他市町村長が必要と認める事項": "",
        "受入対象者": "",
        "備考": ""
      }
    },
    {
      "type": "Feature",
      "geometry": {
        "type": "Point",
        "coordinates": [
          132.497619,
          34.763634
        ]
      },
      "properties": {
        "NO": 63772,
        "共通ID": "E3436900044111",
        "都道府県名及び市町村名": "広島県北広島町",
        "施設・場所名": "新庄小学校屋内運動場・グランド",
        "住所": "広島県北広島町新庄3497",
        "指定緊急避難場所との住所同一": "1",
        "その他市町村長が必要と認める事項": "",
        "受入対象者": "",
        "備考": ""
      }
    },
    {
      "type": "Feature",
      "geometry": {
        "type": "Point",
        "coordinates": [
          132.492696,
          34.764077
        ]
      },
      "properties": {
        "NO": 63773,
        "共通ID": "E3436900046112",
        "都道府県名及び市町村名": "広島県北広島町",
        "施設・場所名": "新庄学園体育館・グランド",
        "住所": "広島県北広島町新庄848",
        "指定緊急避難場所との住所同一": "1",
        "その他市町村長が必要と認める事項": "",
        "受入対象者": "",
        "備考": ""
      }
    },
    {
      "type": "Feature",
      "geometry": {
        "type": "Point",
        "coordinates": [
          132.492166,
          34.76313
        ]
      },
      "properties": {
        "NO": 63774,
        "共通ID": "E3436900046111",
        "都道府県名及び市町村名": "広島県北広島町",
        "施設・場所名": "新庄学園同窓会館",
        "住所": "広島県北広島町新庄848",
        "指定緊急避難場所との住所同一": "1",
        "その他市町村長が必要と認める事項": "",
        "受入対象者": "",
        "備考": ""
      }
    },
    {
      "type": "Feature",
      "geometry": {
        "type": "Point",
        "coordinates": [
          132.543726,
          34.686275
        ]
      },
      "properties": {
        "NO": 63775,
        "共通ID": "E3436900047111",
        "都道府県名及び市町村名": "広島県北広島町",
        "施設・場所名": "千代田運動公園総合体育館（Ｋｕｍａｈｉｒａ　Ｓｐｏｒｔｓ　Ａｒｅｎａ）・駐車場他",
        "住所": "広島県北広島町壬生10500",
        "指定緊急避難場所との住所同一": "1",
        "その他市町村長が必要と認める事項": "",
        "受入対象者": "",
        "備考": ""
      }
    },
    {
      "type": "Feature",
      "geometry": {
        "type": "Point",
        "coordinates": [
          132.555542,
          34.678675
        ]
      },
      "properties": {
        "NO": 63776,
        "共通ID": "E3436900049111",
        "都道府県名及び市町村名": "広島県北広島町",
        "施設・場所名": "壬生小学校屋内運動場・グランド",
        "住所": "広島県北広島町壬生855",
        "指定緊急避難場所との住所同一": "1",
        "その他市町村長が必要と認める事項": "",
        "受入対象者": "",
        "備考": ""
      }
    },
    {
      "type": "Feature",
      "geometry": {
        "type": "Point",
        "coordinates": [
          132.239307,
          34.720596
        ]
      },
      "properties": {
        "NO": 63777,
        "共通ID": "E3436900050111",
        "都道府県名及び市町村名": "広島県北広島町",
        "施設・場所名": "政所振興センター",
        "住所": "広島県北広島町政所310-1",
        "指定緊急避難場所との住所同一": "1",
        "その他市町村長が必要と認める事項": "",
        "受入対象者": "",
        "備考": ""
      }
    },
    {
      "type": "Feature",
      "geometry": {
        "type": "Point",
        "coordinates": [
          132.572123,
          34.679194
        ]
      },
      "properties": {
        "NO": 63778,
        "共通ID": "E3436900053111",
        "都道府県名及び市町村名": "広島県北広島町",
        "施設・場所名": "川井会館",
        "住所": "広島県北広島町川井163-1",
        "指定緊急避難場所との住所同一": "1",
        "その他市町村長が必要と認める事項": "",
        "受入対象者": "",
        "備考": ""
      }
    },
    {
      "type": "Feature",
      "geometry": {
        "type": "Point",
        "coordinates": [
          132.516309,
          34.746393
        ]
      },
      "properties": {
        "NO": 63779,
        "共通ID": "E3436900054111",
        "都道府県名及び市町村名": "広島県北広島町",
        "施設・場所名": "上川戸会館",
        "住所": "広島県北広島町川戸309-3",
        "指定緊急避難場所との住所同一": "",
        "その他市町村長が必要と認める事項": "",
        "受入対象者": "",
        "備考": ""
      }
    },
    {
      "type": "Feature",
      "geometry": {
        "type": "Point",
        "coordinates": [
          132.523152,
          34.731303
        ]
      },
      "properties": {
        "NO": 63780,
        "共通ID": "E3436900055111",
        "都道府県名及び市町村名": "広島県北広島町",
        "施設・場所名": "川戸地区運動施設",
        "住所": "広島県北広島町川戸3373",
        "指定緊急避難場所との住所同一": "1",
        "その他市町村長が必要と認める事項": "",
        "受入対象者": "",
        "備考": ""
      }
    },
    {
      "type": "Feature",
      "geometry": {
        "type": "Point",
        "coordinates": [
          132.543522,
          34.737078
        ]
      },
      "properties": {
        "NO": 63781,
        "共通ID": "E3436900056111",
        "都道府県名及び市町村名": "広島県北広島町",
        "施設・場所名": "曙公会堂・駐車場",
        "住所": "広島県北広島町川戸4570",
        "指定緊急避難場所との住所同一": "1",
        "その他市町村長が必要と認める事項": "",
        "受入対象者": "",
        "備考": ""
      }
    },
    {
      "type": "Feature",
      "geometry": {
        "type": "Point",
        "coordinates": [
          132.276495,
          34.725903
        ]
      },
      "properties": {
        "NO": 63782,
        "共通ID": "E3436900057111",
        "都道府県名及び市町村名": "広島県北広島町",
        "施設・場所名": "加計高等学校芸北分校武道場・グランド",
        "住所": "広島県北広島町川小田10075-15",
        "指定緊急避難場所との住所同一": "1",
        "その他市町村長が必要と認める事項": "",
        "受入対象者": "",
        "備考": ""
      }
    },
    {
      "type": "Feature",
      "geometry": {
        "type": "Point",
        "coordinates": [
          132.277093,
          34.725399
        ]
      },
      "properties": {
        "NO": 63783,
        "共通ID": "E3436900058111",
        "都道府県名及び市町村名": "広島県北広島町",
        "施設・場所名": "芸北文化ホール",
        "住所": "広島県北広島町川小田10075-54",
        "指定緊急避難場所との住所同一": "1",
        "その他市町村長が必要と認める事項": "",
        "受入対象者": "",
        "備考": ""
      }
    },
    {
      "type": "Feature",
      "geometry": {
        "type": "Point",
        "coordinates": [
          132.285434,
          34.734819
        ]
      },
      "properties": {
        "NO": 63784,
        "共通ID": "E3436900060111",
        "都道府県名及び市町村名": "広島県北広島町",
        "施設・場所名": "芸北小学校屋内運動場・グランド",
        "住所": "広島県北広島町川小田213-3",
        "指定緊急避難場所との住所同一": "1",
        "その他市町村長が必要と認める事項": "",
        "受入対象者": "",
        "備考": ""
      }
    },
    {
      "type": "Feature",
      "geometry": {
        "type": "Point",
        "coordinates": [
          132.282892,
          34.731592
        ]
      },
      "properties": {
        "NO": 63785,
        "共通ID": "E3436900061111",
        "都道府県名及び市町村名": "広島県北広島町",
        "施設・場所名": "川小田集落センター",
        "住所": "広島県北広島町川小田388-1",
        "指定緊急避難場所との住所同一": "1",
        "その他市町村長が必要と認める事項": "",
        "受入対象者": "",
        "備考": ""
      }
    },
    {
      "type": "Feature",
      "geometry": {
        "type": "Point",
        "coordinates": [
          132.5537,
          34.69438
        ]
      },
      "properties": {
        "NO": 63786,
        "共通ID": "E3436900063111",
        "都道府県名及び市町村名": "広島県北広島町",
        "施設・場所名": "上川東公会堂・駐車場",
        "住所": "広島県北広島町川東1114-8",
        "指定緊急避難場所との住所同一": "1",
        "その他市町村長が必要と認める事項": "",
        "受入対象者": "",
        "備考": ""
      }
    },
    {
      "type": "Feature",
      "geometry": {
        "type": "Point",
        "coordinates": [
          132.274985,
          34.769607
        ]
      },
      "properties": {
        "NO": 63787,
        "共通ID": "E3436900064111",
        "都道府県名及び市町村名": "広島県北広島町",
        "施設・場所名": "草安集会センター",
        "住所": "広島県北広島町草安208",
        "指定緊急避難場所との住所同一": "1",
        "その他市町村長が必要と認める事項": "",
        "受入対象者": "",
        "備考": ""
      }
    },
    {
      "type": "Feature",
      "geometry": {
        "type": "Point",
        "coordinates": [
          132.505351,
          34.71207
        ]
      },
      "properties": {
        "NO": 63788,
        "共通ID": "E3436900065111",
        "都道府県名及び市町村名": "広島県北広島町",
        "施設・場所名": "蔵迫地区センター",
        "住所": "広島県北広島町蔵迫1380",
        "指定緊急避難場所との住所同一": "1",
        "その他市町村長が必要と認める事項": "",
        "受入対象者": "",
        "備考": ""
      }
    },
    {
      "type": "Feature",
      "geometry": {
        "type": "Point",
        "coordinates": [
          132.47309,
          34.770073
        ]
      },
      "properties": {
        "NO": 63789,
        "共通ID": "E3436900066112",
        "都道府県名及び市町村名": "広島県北広島町",
        "施設・場所名": "グリーンヒルおおあさ・バンガロー",
        "住所": "広島県北広島町大朝11370",
        "指定緊急避難場所との住所同一": "1",
        "その他市町村長が必要と認める事項": "",
        "受入対象者": "",
        "備考": ""
      }
    },
    {
      "type": "Feature",
      "geometry": {
        "type": "Point",
        "coordinates": [
          132.473429,
          34.769256
        ]
      },
      "properties": {
        "NO": 63790,
        "共通ID": "E3436900066111",
        "都道府県名及び市町村名": "広島県北広島町",
        "施設・場所名": "大朝Ｂ＆Ｇ海洋センター・グランド・駐車場",
        "住所": "広島県北広島町大朝11370",
        "指定緊急避難場所との住所同一": "1",
        "その他市町村長が必要と認める事項": "",
        "受入対象者": "",
        "備考": ""
      }
    },
    {
      "type": "Feature",
      "geometry": {
        "type": "Point",
        "coordinates": [
          132.464575,
          34.77169
        ]
      },
      "properties": {
        "NO": 63791,
        "共通ID": "E3436900067111",
        "都道府県名及び市町村名": "広島県北広島町",
        "施設・場所名": "大朝地域づくりセンター・駐車場",
        "住所": "広島県北広島町大朝2497",
        "指定緊急避難場所との住所同一": "1",
        "その他市町村長が必要と認める事項": "",
        "受入対象者": "",
        "備考": ""
      }
    },
    {
      "type": "Feature",
      "geometry": {
        "type": "Point",
        "coordinates": [
          132.46497,
          34.772055
        ]
      },
      "properties": {
        "NO": 63792,
        "共通ID": "E3436900068111",
        "都道府県名及び市町村名": "広島県北広島町",
        "施設・場所名": "大朝福祉センター（町社協事務所）",
        "住所": "広島県北広島町大朝2513-1",
        "指定緊急避難場所との住所同一": "1",
        "その他市町村長が必要と認める事項": "",
        "受入対象者": "",
        "備考": ""
      }
    },
    {
      "type": "Feature",
      "geometry": {
        "type": "Point",
        "coordinates": [
          132.453838,
          34.762373
        ]
      },
      "properties": {
        "NO": 63793,
        "共通ID": "E3436900069111",
        "都道府県名及び市町村名": "広島県北広島町",
        "施設・場所名": "茅原会館",
        "住所": "広島県北広島町大朝3443-4",
        "指定緊急避難場所との住所同一": "1",
        "その他市町村長が必要と認める事項": "",
        "受入対象者": "",
        "備考": ""
      }
    },
    {
      "type": "Feature",
      "geometry": {
        "type": "Point",
        "coordinates": [
          132.466933,
          34.76852
        ]
      },
      "properties": {
        "NO": 63794,
        "共通ID": "E3436900070111",
        "都道府県名及び市町村名": "広島県北広島町",
        "施設・場所名": "大朝体育館・駐車場",
        "住所": "広島県北広島町大朝4436-1",
        "指定緊急避難場所との住所同一": "1",
        "その他市町村長が必要と認める事項": "",
        "受入対象者": "",
        "備考": ""
      }
    },
    {
      "type": "Feature",
      "geometry": {
        "type": "Point",
        "coordinates": [
          132.468156,
          34.768453
        ]
      },
      "properties": {
        "NO": 63795,
        "共通ID": "E3436900072111",
        "都道府県名及び市町村名": "広島県北広島町",
        "施設・場所名": "大朝中学校屋内運動場・グランド",
        "住所": "広島県北広島町大朝4683-1",
        "指定緊急避難場所との住所同一": "1",
        "その他市町村長が必要と認める事項": "",
        "受入対象者": "",
        "備考": ""
      }
    },
    {
      "type": "Feature",
      "geometry": {
        "type": "Point",
        "coordinates": [
          132.478668,
          34.779621
        ]
      },
      "properties": {
        "NO": 63796,
        "共通ID": "E3436900073111",
        "都道府県名及び市町村名": "広島県北広島町",
        "施設・場所名": "小枝会館",
        "住所": "広島県北広島町大朝6063-4",
        "指定緊急避難場所との住所同一": "1",
        "その他市町村長が必要と認める事項": "",
        "受入対象者": "",
        "備考": ""
      }
    },
    {
      "type": "Feature",
      "geometry": {
        "type": "Point",
        "coordinates": [
          132.463845,
          34.776846
        ]
      },
      "properties": {
        "NO": 63797,
        "共通ID": "E3436900074111",
        "都道府県名及び市町村名": "広島県北広島町",
        "施設・場所名": "間所集会所",
        "住所": "広島県北広島町大朝719-3",
        "指定緊急避難場所との住所同一": "1",
        "その他市町村長が必要と認める事項": "",
        "受入対象者": "",
        "備考": ""
      }
    },
    {
      "type": "Feature",
      "geometry": {
        "type": "Point",
        "coordinates": [
          132.444905,
          34.782543
        ]
      },
      "properties": {
        "NO": 63798,
        "共通ID": "E3436900075111",
        "都道府県名及び市町村名": "広島県北広島町",
        "施設・場所名": "大塚ふれあいセンター・グランド",
        "住所": "広島県北広島町大塚2108-1",
        "指定緊急避難場所との住所同一": "1",
        "その他市町村長が必要と認める事項": "",
        "受入対象者": "",
        "備考": ""
      }
    },
    {
      "type": "Feature",
      "geometry": {
        "type": "Point",
        "coordinates": [
          132.33432,
          34.754072
        ]
      },
      "properties": {
        "NO": 63799,
        "共通ID": "E3436900076111",
        "都道府県名及び市町村名": "広島県北広島町",
        "施設・場所名": "おおぐれ交流施設　清流の家・駐車場",
        "住所": "広島県北広島町大暮590",
        "指定緊急避難場所との住所同一": "1",
        "その他市町村長が必要と認める事項": "",
        "受入対象者": "",
        "備考": ""
      }
    },
    {
      "type": "Feature",
      "geometry": {
        "type": "Point",
        "coordinates": [
          132.27704,
          34.762597
        ]
      },
      "properties": {
        "NO": 63800,
        "共通ID": "E3436900077111",
        "都道府県名及び市町村名": "広島県北広島町",
        "施設・場所名": "雲月ふれあいセンター",
        "住所": "広島県北広島町大利原230",
        "指定緊急避難場所との住所同一": "1",
        "その他市町村長が必要と認める事項": "",
        "受入対象者": "",
        "備考": ""
      }
    },
    {
      "type": "Feature",
      "geometry": {
        "type": "Point",
        "coordinates": [
          132.426352,
          34.680134
        ]
      },
      "properties": {
        "NO": 63801,
        "共通ID": "E3436900078111",
        "都道府県名及び市町村名": "広島県北広島町",
        "施設・場所名": "中原老人集会所・グランド",
        "住所": "広島県北広島町中原677-1",
        "指定緊急避難場所との住所同一": "1",
        "その他市町村長が必要と認める事項": "",
        "受入対象者": "",
        "備考": ""
      }
    },
    {
      "type": "Feature",
      "geometry": {
        "type": "Point",
        "coordinates": [
          132.242847,
          34.722651
        ]
      },
      "properties": {
        "NO": 63802,
        "共通ID": "E3436900079111",
        "都道府県名及び市町村名": "広島県北広島町",
        "施設・場所名": "中祖会館",
        "住所": "広島県北広島町中祖210",
        "指定緊急避難場所との住所同一": "1",
        "その他市町村長が必要と認める事項": "",
        "受入対象者": "",
        "備考": ""
      }
    },
    {
      "type": "Feature",
      "geometry": {
        "type": "Point",
        "coordinates": [
          132.568118,
          34.671065
        ]
      },
      "properties": {
        "NO": 63803,
        "共通ID": "E3436900080111",
        "都道府県名及び市町村名": "広島県北広島町",
        "施設・場所名": "保余原会館・駐車場",
        "住所": "広島県北広島町丁保余原575-1",
        "指定緊急避難場所との住所同一": "1",
        "その他市町村長が必要と認める事項": "",
        "受入対象者": "",
        "備考": ""
      }
    },
    {
      "type": "Feature",
      "geometry": {
        "type": "Point",
        "coordinates": [
          132.384398,
          34.622846
        ]
      },
      "properties": {
        "NO": 63804,
        "共通ID": "E3436900081111",
        "都道府県名及び市町村名": "広島県北広島町",
        "施設・場所名": "長笹老人集会所・グランド",
        "住所": "広島県北広島町長笹911-1",
        "指定緊急避難場所との住所同一": "1",
        "その他市町村長が必要と認める事項": "",
        "受入対象者": "",
        "備考": ""
      }
    },
    {
      "type": "Feature",
      "geometry": {
        "type": "Point",
        "coordinates": [
          132.430767,
          34.738668
        ]
      },
      "properties": {
        "NO": 63805,
        "共通ID": "E3436900082111",
        "都道府県名及び市町村名": "広島県北広島町",
        "施設・場所名": "交流館天狗の里",
        "住所": "広島県北広島町田原647-1",
        "指定緊急避難場所との住所同一": "1",
        "その他市町村長が必要と認める事項": "",
        "受入対象者": "",
        "備考": ""
      }
    },
    {
      "type": "Feature",
      "geometry": {
        "type": "Point",
        "coordinates": [
          132.427112,
          34.653311
        ]
      },
      "properties": {
        "NO": 63806,
        "共通ID": "E3436900083111",
        "都道府県名及び市町村名": "広島県北広島町",
        "施設・場所名": "豊平学園屋内運動場・グランド",
        "住所": "広島県北広島町都志見10914",
        "指定緊急避難場所との住所同一": "1",
        "その他市町村長が必要と認める事項": "",
        "受入対象者": "",
        "備考": ""
      }
    },
    {
      "type": "Feature",
      "geometry": {
        "type": "Point",
        "coordinates": [
          132.443951,
          34.645319
        ]
      },
      "properties": {
        "NO": 63807,
        "共通ID": "E3436900084111",
        "都道府県名及び市町村名": "広島県北広島町",
        "施設・場所名": "豊平総合運動公園",
        "住所": "広島県北広島町都志見12609",
        "指定緊急避難場所との住所同一": "1",
        "その他市町村長が必要と認める事項": "",
        "受入対象者": "",
        "備考": ""
      }
    },
    {
      "type": "Feature",
      "geometry": {
        "type": "Point",
        "coordinates": [
          132.441885,
          34.649225
        ]
      },
      "properties": {
        "NO": 63808,
        "共通ID": "E3436900085111",
        "都道府県名及び市町村名": "広島県北広島町",
        "施設・場所名": "都志見生活改善センター・グランド",
        "住所": "広島県北広島町都志見4417-2",
        "指定緊急避難場所との住所同一": "1",
        "その他市町村長が必要と認める事項": "",
        "受入対象者": "",
        "備考": ""
      }
    },
    {
      "type": "Feature",
      "geometry": {
        "type": "Point",
        "coordinates": [
          132.447949,
          34.646709
        ]
      },
      "properties": {
        "NO": 63809,
        "共通ID": "E3436900086111",
        "都道府県名及び市町村名": "広島県北広島町",
        "施設・場所名": "豊平教育集会所",
        "住所": "広島県北広島町都志見4857-5",
        "指定緊急避難場所との住所同一": "1",
        "その他市町村長が必要と認める事項": "",
        "受入対象者": "",
        "備考": ""
      }
    },
    {
      "type": "Feature",
      "geometry": {
        "type": "Point",
        "coordinates": [
          132.256127,
          34.793399
        ]
      },
      "properties": {
        "NO": 63810,
        "共通ID": "E3436900087111",
        "都道府県名及び市町村名": "広島県北広島町",
        "施設・場所名": "土橋生活改善センター",
        "住所": "広島県北広島町土橋71-1",
        "指定緊急避難場所との住所同一": "1",
        "その他市町村長が必要と認める事項": "",
        "受入対象者": "",
        "備考": ""
      }
    },
    {
      "type": "Feature",
      "geometry": {
        "type": "Point",
        "coordinates": [
          132.173133,
          34.708982
        ]
      },
      "properties": {
        "NO": 63811,
        "共通ID": "E3436900103111",
        "都道府県名及び市町村名": "広島県北広島町",
        "施設・場所名": "八幡高原センター・駐車場",
        "住所": "広島県北広島町東八幡原899-1",
        "指定緊急避難場所との住所同一": "1",
        "その他市町村長が必要と認める事項": "",
        "受入対象者": "",
        "備考": ""
      }
    },
    {
      "type": "Feature",
      "geometry": {
        "type": "Point",
        "coordinates": [
          132.565347,
          34.643188
        ]
      },
      "properties": {
        "NO": 63812,
        "共通ID": "E3436900088111",
        "都道府県名及び市町村名": "広島県北広島町",
        "施設・場所名": "旧南方小学校屋内運動場・グランド",
        "住所": "広島県北広島町南方1918",
        "指定緊急避難場所との住所同一": "1",
        "その他市町村長が必要と認める事項": "",
        "受入対象者": "",
        "備考": ""
      }
    },
    {
      "type": "Feature",
      "geometry": {
        "type": "Point",
        "coordinates": [
          132.564812,
          34.642922
        ]
      },
      "properties": {
        "NO": 63813,
        "共通ID": "E3436900089111",
        "都道府県名及び市町村名": "広島県北広島町",
        "施設・場所名": "南方総合センター",
        "住所": "広島県北広島町南方1939-1",
        "指定緊急避難場所との住所同一": "1",
        "その他市町村長が必要と認める事項": "",
        "受入対象者": "",
        "備考": ""
      }
    },
    {
      "type": "Feature",
      "geometry": {
        "type": "Point",
        "coordinates": [
          132.553856,
          34.649199
        ]
      },
      "properties": {
        "NO": 63814,
        "共通ID": "E3436900090111",
        "都道府県名及び市町村名": "広島県北広島町",
        "施設・場所名": "小木次集会所",
        "住所": "広島県北広島町南方3123-3",
        "指定緊急避難場所との住所同一": "1",
        "その他市町村長が必要と認める事項": "",
        "受入対象者": "",
        "備考": ""
      }
    },
    {
      "type": "Feature",
      "geometry": {
        "type": "Point",
        "coordinates": [
          132.547155,
          34.59887
        ]
      },
      "properties": {
        "NO": 63815,
        "共通ID": "E3436900091111",
        "都道府県名及び市町村名": "広島県北広島町",
        "施設・場所名": "畑ふれあいセンター・グランド",
        "住所": "広島県北広島町南方6398",
        "指定緊急避難場所との住所同一": "1",
        "その他市町村長が必要と認める事項": "",
        "受入対象者": "",
        "備考": ""
      }
    },
    {
      "type": "Feature",
      "geometry": {
        "type": "Point",
        "coordinates": [
          132.421406,
          34.767377
        ]
      },
      "properties": {
        "NO": 63816,
        "共通ID": "E3436900092111",
        "都道府県名及び市町村名": "広島県北広島町",
        "施設・場所名": "筏津コミュニティセンター・グランド",
        "住所": "広島県北広島町筏津656-2",
        "指定緊急避難場所との住所同一": "1",
        "その他市町村長が必要と認める事項": "",
        "受入対象者": "",
        "備考": ""
      }
    },
    {
      "type": "Feature",
      "geometry": {
        "type": "Point",
        "coordinates": [
          132.496477,
          34.603023
        ]
      },
      "properties": {
        "NO": 63817,
        "共通ID": "E3436900093111",
        "都道府県名及び市町村名": "広島県北広島町",
        "施設・場所名": "明神会館・広場",
        "住所": "広島県北広島町本地13849-291",
        "指定緊急避難場所との住所同一": "1",
        "その他市町村長が必要と認める事項": "",
        "受入対象者": "",
        "備考": ""
      }
    },
    {
      "type": "Feature",
      "geometry": {
        "type": "Point",
        "coordinates": [
          132.510119,
          34.639115
        ]
      },
      "properties": {
        "NO": 63818,
        "共通ID": "E3436900094111",
        "都道府県名及び市町村名": "広島県北広島町",
        "施設・場所名": "本地総合センター・南側駐車場",
        "住所": "広島県北広島町本地2673-1",
        "指定緊急避難場所との住所同一": "1",
        "その他市町村長が必要と認める事項": "",
        "受入対象者": "",
        "備考": ""
      }
    },
    {
      "type": "Feature",
      "geometry": {
        "type": "Point",
        "coordinates": [
          132.510414,
          34.639237
        ]
      },
      "properties": {
        "NO": 63819,
        "共通ID": "E3436900095111",
        "都道府県名及び市町村名": "広島県北広島町",
        "施設・場所名": "本地小学校屋内運動場・グランド",
        "住所": "広島県北広島町本地2812-1",
        "指定緊急避難場所との住所同一": "1",
        "その他市町村長が必要と認める事項": "",
        "受入対象者": "",
        "備考": ""
      }
    },
    {
      "type": "Feature",
      "geometry": {
        "type": "Point",
        "coordinates": [
          132.527479,
          34.653297
        ]
      },
      "properties": {
        "NO": 63820,
        "共通ID": "E3436900096111",
        "都道府県名及び市町村名": "広島県北広島町",
        "施設・場所名": "葭原自治会館・駐車場",
        "住所": "広島県北広島町本地5990",
        "指定緊急避難場所との住所同一": "1",
        "その他市町村長が必要と認める事項": "",
        "受入対象者": "",
        "備考": ""
      }
    },
    {
      "type": "Feature",
      "geometry": {
        "type": "Point",
        "coordinates": [
          132.516522,
          34.689661
        ]
      },
      "properties": {
        "NO": 63821,
        "共通ID": "E3436900097111",
        "都道府県名及び市町村名": "広島県北広島町",
        "施設・場所名": "広島県立千代田高等学校",
        "住所": "広島県北広島町有間600-1",
        "指定緊急避難場所との住所同一": "1",
        "その他市町村長が必要と認める事項": "",
        "受入対象者": "",
        "備考": ""
      }
    },
    {
      "type": "Feature",
      "geometry": {
        "type": "Point",
        "coordinates": [
          132.537384,
          34.674017
        ]
      },
      "properties": {
        "NO": 63822,
        "共通ID": "E3436900099111",
        "都道府県名及び市町村名": "広島県北広島町",
        "施設・場所名": "北広島町まちづくりセンター",
        "住所": "広島県北広島町有田1234",
        "指定緊急避難場所との住所同一": "1",
        "その他市町村長が必要と認める事項": "",
        "受入対象者": "",
        "備考": ""
      }
    },
    {
      "type": "Feature",
      "geometry": {
        "type": "Point",
        "coordinates": [
          132.533545,
          34.671188
        ]
      },
      "properties": {
        "NO": 63823,
        "共通ID": "E3436900101111",
        "都道府県名及び市町村名": "広島県北広島町",
        "施設・場所名": "八重東小学校屋内運動場・グランド",
        "住所": "広島県北広島町有田1897",
        "指定緊急避難場所との住所同一": "1",
        "その他市町村長が必要と認める事項": "",
        "受入対象者": "",
        "備考": ""
      }
    }
  ]
}