{
  "type": "FeatureCollection",
  "name": "352047",
  "features": [
    {
      "type": "Feature",
      "geometry": {
        "type": "Point",
        "coordinates": [
          131.141632,
          34.782751
        ]
      },
      "properties": {
        "NO": 64401,
        "共通ID": "E3520400001111",
        "都道府県名及び市町村名": "山口県萩市",
        "施設・場所名": "見島体育館",
        "住所": "山口県萩市見島2002-14",
        "指定緊急避難場所との住所同一": "1",
        "その他市町村長が必要と認める事項": null,
        "受入対象者": null,
        "備考": ""
      }
    },
    {
      "type": "Feature",
      "geometry": {
        "type": "Point",
        "coordinates": [
          131.150217,
          34.762624
        ]
      },
      "properties": {
        "NO": 64402,
        "共通ID": "E3520400002111",
        "都道府県名及び市町村名": "山口県萩市",
        "施設・場所名": "見島ふれあい交流センター（見島支所・見島公民館）",
        "住所": "山口県萩市見島326-12",
        "指定緊急避難場所との住所同一": "1",
        "その他市町村長が必要と認める事項": null,
        "受入対象者": null,
        "備考": ""
      }
    },
    {
      "type": "Feature",
      "geometry": {
        "type": "Point",
        "coordinates": [
          131.150191,
          34.763963
        ]
      },
      "properties": {
        "NO": 64403,
        "共通ID": "E3520400004111",
        "都道府県名及び市町村名": "山口県萩市",
        "施設・場所名": "見島小中学校体育館",
        "住所": "山口県萩市見島951-1",
        "指定緊急避難場所との住所同一": "1",
        "その他市町村長が必要と認める事項": null,
        "受入対象者": null,
        "備考": ""
      }
    },
    {
      "type": "Feature",
      "geometry": {
        "type": "Point",
        "coordinates": [
          131.334706,
          34.392187
        ]
      },
      "properties": {
        "NO": 64404,
        "共通ID": "E3520400007111",
        "都道府県名及び市町村名": "山口県萩市",
        "施設・場所名": "三見出張所（三見公民館）",
        "住所": "山口県萩市三見2393",
        "指定緊急避難場所との住所同一": "1",
        "その他市町村長が必要と認める事項": null,
        "受入対象者": null,
        "備考": ""
      }
    },
    {
      "type": "Feature",
      "geometry": {
        "type": "Point",
        "coordinates": [
          131.329165,
          34.398656
        ]
      },
      "properties": {
        "NO": 64405,
        "共通ID": "E3520400009111",
        "都道府県名及び市町村名": "山口県萩市",
        "施設・場所名": "山口県漁協三見支店",
        "住所": "山口県萩市三見3333",
        "指定緊急避難場所との住所同一": "1",
        "その他市町村長が必要と認める事項": null,
        "受入対象者": null,
        "備考": ""
      }
    },
    {
      "type": "Feature",
      "geometry": {
        "type": "Point",
        "coordinates": [
          131.333413,
          34.39234
        ]
      },
      "properties": {
        "NO": 64406,
        "共通ID": "E3520400010111",
        "都道府県名及び市町村名": "山口県萩市",
        "施設・場所名": "三見小・中学校体育館",
        "住所": "山口県萩市三見3523-1",
        "指定緊急避難場所との住所同一": "1",
        "その他市町村長が必要と認める事項": null,
        "受入対象者": null,
        "備考": ""
      }
    },
    {
      "type": "Feature",
      "geometry": {
        "type": "Point",
        "coordinates": [
          131.538581,
          34.340857
        ]
      },
      "properties": {
        "NO": 64407,
        "共通ID": "E3520400076112",
        "都道府県名及び市町村名": "山口県萩市",
        "施設・場所名": "江舟集会所",
        "住所": "山口県萩市川上",
        "指定緊急避難場所との住所同一": "1",
        "その他市町村長が必要と認める事項": "",
        "受入対象者": "",
        "備考": ""
      }
    },
    {
      "type": "Feature",
      "geometry": {
        "type": "Point",
        "coordinates": [
          131.452167,
          34.380064
        ]
      },
      "properties": {
        "NO": 64408,
        "共通ID": "E3520400076111",
        "都道府県名及び市町村名": "山口県萩市",
        "施設・場所名": "立野集会所",
        "住所": "山口県萩市川上",
        "指定緊急避難場所との住所同一": "1",
        "その他市町村長が必要と認める事項": null,
        "受入対象者": null,
        "備考": ""
      }
    },
    {
      "type": "Feature",
      "geometry": {
        "type": "Point",
        "coordinates": [
          131.457477,
          34.358733
        ]
      },
      "properties": {
        "NO": 64409,
        "共通ID": "E3520400077111",
        "都道府県名及び市町村名": "山口県萩市",
        "施設・場所名": "川上体育館",
        "住所": "山口県萩市川上4462-8",
        "指定緊急避難場所との住所同一": "1",
        "その他市町村長が必要と認める事項": null,
        "受入対象者": null,
        "備考": ""
      }
    },
    {
      "type": "Feature",
      "geometry": {
        "type": "Point",
        "coordinates": [
          131.461649,
          34.357481
        ]
      },
      "properties": {
        "NO": 64410,
        "共通ID": "E3520400078111",
        "都道府県名及び市町村名": "山口県萩市",
        "施設・場所名": "川上公民館",
        "住所": "山口県萩市川上4527",
        "指定緊急避難場所との住所同一": "1",
        "その他市町村長が必要と認める事項": null,
        "受入対象者": null,
        "備考": ""
      }
    },
    {
      "type": "Feature",
      "geometry": {
        "type": "Point",
        "coordinates": [
          131.281768,
          34.503696
        ]
      },
      "properties": {
        "NO": 64411,
        "共通ID": "E3520400020111",
        "都道府県名及び市町村名": "山口県萩市",
        "施設・場所名": "相島文化センター",
        "住所": "山口県萩市相島13-1",
        "指定緊急避難場所との住所同一": "1",
        "その他市町村長が必要と認める事項": null,
        "受入対象者": null,
        "備考": ""
      }
    },
    {
      "type": "Feature",
      "geometry": {
        "type": "Point",
        "coordinates": [
          131.282273,
          34.503292
        ]
      },
      "properties": {
        "NO": 64412,
        "共通ID": "E3520400021111",
        "都道府県名及び市町村名": "山口県萩市",
        "施設・場所名": "相島小・中学校体育館",
        "住所": "山口県萩市相島9",
        "指定緊急避難場所との住所同一": "1",
        "その他市町村長が必要と認める事項": null,
        "受入対象者": null,
        "備考": ""
      }
    },
    {
      "type": "Feature",
      "geometry": {
        "type": "Point",
        "coordinates": [
          131.443554,
          34.471393
        ]
      },
      "properties": {
        "NO": 64413,
        "共通ID": "E3520400150111",
        "都道府県名及び市町村名": "山口県萩市",
        "施設・場所名": "大井貞平公会堂",
        "住所": "山口県萩市大井",
        "指定緊急避難場所との住所同一": "1",
        "その他市町村長が必要と認める事項": "",
        "受入対象者": "",
        "備考": ""
      }
    },
    {
      "type": "Feature",
      "geometry": {
        "type": "Point",
        "coordinates": [
          131.456216,
          34.468374
        ]
      },
      "properties": {
        "NO": 64414,
        "共通ID": "E3520400022111",
        "都道府県名及び市町村名": "山口県萩市",
        "施設・場所名": "大井小中学校体育館",
        "住所": "山口県萩市大井1126",
        "指定緊急避難場所との住所同一": "1",
        "その他市町村長が必要と認める事項": null,
        "受入対象者": null,
        "備考": ""
      }
    },
    {
      "type": "Feature",
      "geometry": {
        "type": "Point",
        "coordinates": [
          131.45113,
          34.469011
        ]
      },
      "properties": {
        "NO": 64415,
        "共通ID": "E3520400023111",
        "都道府県名及び市町村名": "山口県萩市",
        "施設・場所名": "大井出張所（大井公民館）",
        "住所": "山口県萩市大井1447-2",
        "指定緊急避難場所との住所同一": "1",
        "その他市町村長が必要と認める事項": null,
        "受入対象者": null,
        "備考": ""
      }
    },
    {
      "type": "Feature",
      "geometry": {
        "type": "Point",
        "coordinates": [
          131.446726,
          34.476153
        ]
      },
      "properties": {
        "NO": 64416,
        "共通ID": "E3520400024111",
        "都道府県名及び市町村名": "山口県萩市",
        "施設・場所名": "山口県漁協大井支店",
        "住所": "山口県萩市大井1991-2",
        "指定緊急避難場所との住所同一": "1",
        "その他市町村長が必要と認める事項": null,
        "受入対象者": null,
        "備考": ""
      }
    },
    {
      "type": "Feature",
      "geometry": {
        "type": "Point",
        "coordinates": [
          131.469651,
          34.467196
        ]
      },
      "properties": {
        "NO": 64417,
        "共通ID": "E3520400027111",
        "都道府県名及び市町村名": "山口県萩市",
        "施設・場所名": "大井坂本公会堂",
        "住所": "山口県萩市大井5038-1",
        "指定緊急避難場所との住所同一": "1",
        "その他市町村長が必要と認める事項": null,
        "受入対象者": null,
        "備考": ""
      }
    },
    {
      "type": "Feature",
      "geometry": {
        "type": "Point",
        "coordinates": [
          131.411653,
          34.449596
        ]
      },
      "properties": {
        "NO": 64418,
        "共通ID": "E3520400028111",
        "都道府県名及び市町村名": "山口県萩市",
        "施設・場所名": "旧山口県漁協大井浦支店",
        "住所": "山口県萩市大井5190",
        "指定緊急避難場所との住所同一": "1",
        "その他市町村長が必要と認める事項": null,
        "受入対象者": null,
        "備考": ""
      }
    },
    {
      "type": "Feature",
      "geometry": {
        "type": "Point",
        "coordinates": [
          131.701124,
          34.603633
        ]
      },
      "properties": {
        "NO": 64419,
        "共通ID": "E3520400032111",
        "都道府県名及び市町村名": "山口県萩市",
        "施設・場所名": "下小川ふれあいセンター",
        "住所": "山口県萩市大字下小川1731-1",
        "指定緊急避難場所との住所同一": "1",
        "その他市町村長が必要と認める事項": null,
        "受入対象者": null,
        "備考": ""
      }
    },
    {
      "type": "Feature",
      "geometry": {
        "type": "Point",
        "coordinates": [
          131.577634,
          34.437477
        ]
      },
      "properties": {
        "NO": 64420,
        "共通ID": "E3520400036111",
        "都道府県名及び市町村名": "山口県萩市",
        "施設・場所名": "むつみ農村環境改善センター（吉部公民館）",
        "住所": "山口県萩市大字吉部上3191-1",
        "指定緊急避難場所との住所同一": "1",
        "その他市町村長が必要と認める事項": null,
        "受入対象者": null,
        "備考": ""
      }
    },
    {
      "type": "Feature",
      "geometry": {
        "type": "Point",
        "coordinates": [
          131.578135,
          34.437737
        ]
      },
      "properties": {
        "NO": 64421,
        "共通ID": "E3520400037111",
        "都道府県名及び市町村名": "山口県萩市",
        "施設・場所名": "むつみ小学校体育館",
        "住所": "山口県萩市大字吉部上3192",
        "指定緊急避難場所との住所同一": "1",
        "その他市町村長が必要と認める事項": null,
        "受入対象者": null,
        "備考": ""
      }
    },
    {
      "type": "Feature",
      "geometry": {
        "type": "Point",
        "coordinates": [
          131.600055,
          34.445886
        ]
      },
      "properties": {
        "NO": 64422,
        "共通ID": "E3520400039111",
        "都道府県名及び市町村名": "山口県萩市",
        "施設・場所名": "むつみＢ＆Ｇ海洋センター",
        "住所": "山口県萩市大字吉部上853-13",
        "指定緊急避難場所との住所同一": "1",
        "その他市町村長が必要と認める事項": null,
        "受入対象者": null,
        "備考": ""
      }
    },
    {
      "type": "Feature",
      "geometry": {
        "type": "Point",
        "coordinates": [
          131.39927,
          34.410538
        ]
      },
      "properties": {
        "NO": 64423,
        "共通ID": "E3520400041111",
        "都道府県名及び市町村名": "山口県萩市",
        "施設・場所名": "明倫小学校体育館",
        "住所": "山口県萩市大字江向475",
        "指定緊急避難場所との住所同一": "1",
        "その他市町村長が必要と認める事項": null,
        "受入対象者": null,
        "備考": ""
      }
    },
    {
      "type": "Feature",
      "geometry": {
        "type": "Point",
        "coordinates": [
          131.398813,
          34.410626
        ]
      },
      "properties": {
        "NO": 64424,
        "共通ID": "E3520400041112",
        "都道府県名及び市町村名": "山口県萩市",
        "施設・場所名": "明倫小学校校舎",
        "住所": "山口県萩市大字江向475",
        "指定緊急避難場所との住所同一": "1",
        "その他市町村長が必要と認める事項": null,
        "受入対象者": null,
        "備考": ""
      }
    },
    {
      "type": "Feature",
      "geometry": {
        "type": "Point",
        "coordinates": [
          131.39815,
          34.40845
        ]
      },
      "properties": {
        "NO": 64425,
        "共通ID": "E3520400042111",
        "都道府県名及び市町村名": "山口県萩市",
        "施設・場所名": "中央公民館（萩市民館内）",
        "住所": "山口県萩市大字江向495-4",
        "指定緊急避難場所との住所同一": "1",
        "その他市町村長が必要と認める事項": null,
        "受入対象者": null,
        "備考": ""
      }
    },
    {
      "type": "Feature",
      "geometry": {
        "type": "Point",
        "coordinates": [
          131.65319,
          34.639905
        ]
      },
      "properties": {
        "NO": 64426,
        "共通ID": "E3520400045111",
        "都道府県名及び市町村名": "山口県萩市",
        "施設・場所名": "本町集会所",
        "住所": "山口県萩市大字江崎1087",
        "指定緊急避難場所との住所同一": "1",
        "その他市町村長が必要と認める事項": null,
        "受入対象者": null,
        "備考": ""
      }
    },
    {
      "type": "Feature",
      "geometry": {
        "type": "Point",
        "coordinates": [
          131.655051,
          34.642646
        ]
      },
      "properties": {
        "NO": 64427,
        "共通ID": "E3520400046111",
        "都道府県名及び市町村名": "山口県萩市",
        "施設・場所名": "田万川コミュニティセンター（江崎公民館）",
        "住所": "山口県萩市大字江崎338",
        "指定緊急避難場所との住所同一": "1",
        "その他市町村長が必要と認める事項": null,
        "受入対象者": null,
        "備考": ""
      }
    },
    {
      "type": "Feature",
      "geometry": {
        "type": "Point",
        "coordinates": [
          131.654475,
          34.641728
        ]
      },
      "properties": {
        "NO": 64428,
        "共通ID": "E3520400154111",
        "都道府県名及び市町村名": "山口県萩市",
        "施設・場所名": "田万川体育館",
        "住所": "山口県萩市大字江崎349-2",
        "指定緊急避難場所との住所同一": "1",
        "その他市町村長が必要と認める事項": "",
        "受入対象者": "",
        "備考": ""
      }
    },
    {
      "type": "Feature",
      "geometry": {
        "type": "Point",
        "coordinates": [
          131.645507,
          34.640283
        ]
      },
      "properties": {
        "NO": 64429,
        "共通ID": "E3520400048111",
        "都道府県名及び市町村名": "山口県萩市",
        "施設・場所名": "江崎漁村センター（山口県漁協江崎支店）",
        "住所": "山口県萩市大字江崎8765-11",
        "指定緊急避難場所との住所同一": "1",
        "その他市町村長が必要と認める事項": null,
        "受入対象者": null,
        "備考": ""
      }
    },
    {
      "type": "Feature",
      "geometry": {
        "type": "Point",
        "coordinates": [
          131.604629,
          34.459647
        ]
      },
      "properties": {
        "NO": 64430,
        "共通ID": "E3520400049111",
        "都道府県名及び市町村名": "山口県萩市",
        "施設・場所名": "高佐下ふれあいセンター",
        "住所": "山口県萩市大字高佐下2572-98",
        "指定緊急避難場所との住所同一": "1",
        "その他市町村長が必要と認める事項": null,
        "受入対象者": null,
        "備考": ""
      }
    },
    {
      "type": "Feature",
      "geometry": {
        "type": "Point",
        "coordinates": [
          131.610921,
          34.471676
        ]
      },
      "properties": {
        "NO": 64431,
        "共通ID": "E3520400050111",
        "都道府県名及び市町村名": "山口県萩市",
        "施設・場所名": "むつみコミュニティセンター（高俣公民館）",
        "住所": "山口県萩市大字高佐下744",
        "指定緊急避難場所との住所同一": "1",
        "その他市町村長が必要と認める事項": null,
        "受入対象者": null,
        "備考": ""
      }
    },
    {
      "type": "Feature",
      "geometry": {
        "type": "Point",
        "coordinates": [
          131.459465,
          34.285314
        ]
      },
      "properties": {
        "NO": 64432,
        "共通ID": "E3520400051111",
        "都道府県名及び市町村名": "山口県萩市",
        "施設・場所名": "佐々並小学校体育館",
        "住所": "山口県萩市大字佐々並2499",
        "指定緊急避難場所との住所同一": "1",
        "その他市町村長が必要と認める事項": null,
        "受入対象者": null,
        "備考": ""
      }
    },
    {
      "type": "Feature",
      "geometry": {
        "type": "Point",
        "coordinates": [
          131.462163,
          34.286325
        ]
      },
      "properties": {
        "NO": 64433,
        "共通ID": "E3520400052111",
        "都道府県名及び市町村名": "山口県萩市",
        "施設・場所名": "旭活性化センター（佐々並公民館）",
        "住所": "山口県萩市大字佐々並2662-6",
        "指定緊急避難場所との住所同一": "1",
        "その他市町村長が必要と認める事項": null,
        "受入対象者": null,
        "備考": ""
      }
    },
    {
      "type": "Feature",
      "geometry": {
        "type": "Point",
        "coordinates": [
          131.352929,
          34.397392
        ]
      },
      "properties": {
        "NO": 64434,
        "共通ID": "E3520400053111",
        "都道府県名及び市町村名": "山口県萩市",
        "施設・場所名": "萩長門清掃工場",
        "住所": "山口県萩市大字山田2406",
        "指定緊急避難場所との住所同一": "1",
        "その他市町村長が必要と認める事項": null,
        "受入対象者": null,
        "備考": ""
      }
    },
    {
      "type": "Feature",
      "geometry": {
        "type": "Point",
        "coordinates": [
          131.385655,
          34.402242
        ]
      },
      "properties": {
        "NO": 64435,
        "共通ID": "E3520400054111",
        "都道府県名及び市町村名": "山口県萩市",
        "施設・場所名": "玉江ふれあいセンター",
        "住所": "山口県萩市大字山田4270-6",
        "指定緊急避難場所との住所同一": "1",
        "その他市町村長が必要と認める事項": null,
        "受入対象者": null,
        "備考": ""
      }
    },
    {
      "type": "Feature",
      "geometry": {
        "type": "Point",
        "coordinates": [
          131.375512,
          34.396752
        ]
      },
      "properties": {
        "NO": 64436,
        "共通ID": "E3520400055111",
        "都道府県名及び市町村名": "山口県萩市",
        "施設・場所名": "白水小学校体育館",
        "住所": "山口県萩市大字山田4522",
        "指定緊急避難場所との住所同一": "1",
        "その他市町村長が必要と認める事項": null,
        "受入対象者": null,
        "備考": ""
      }
    },
    {
      "type": "Feature",
      "geometry": {
        "type": "Point",
        "coordinates": [
          131.378084,
          34.399232
        ]
      },
      "properties": {
        "NO": 64437,
        "共通ID": "E3520400056111",
        "都道府県名及び市町村名": "山口県萩市",
        "施設・場所名": "白水会館",
        "住所": "山口県萩市大字山田4663-12",
        "指定緊急避難場所との住所同一": "1",
        "その他市町村長が必要と認める事項": null,
        "受入対象者": null,
        "備考": ""
      }
    },
    {
      "type": "Feature",
      "geometry": {
        "type": "Point",
        "coordinates": [
          131.377572,
          34.409766
        ]
      },
      "properties": {
        "NO": 64438,
        "共通ID": "E3520400057111",
        "都道府県名及び市町村名": "山口県萩市",
        "施設・場所名": "観音院",
        "住所": "山口県萩市大字山田5148",
        "指定緊急避難場所との住所同一": "1",
        "その他市町村長が必要と認める事項": null,
        "受入対象者": null,
        "備考": ""
      }
    },
    {
      "type": "Feature",
      "geometry": {
        "type": "Point",
        "coordinates": [
          131.379158,
          34.408709
        ]
      },
      "properties": {
        "NO": 64439,
        "共通ID": "E3520400058111",
        "都道府県名及び市町村名": "山口県萩市",
        "施設・場所名": "山口県漁協玉江浦支店",
        "住所": "山口県萩市大字山田5153",
        "指定緊急避難場所との住所同一": "1",
        "その他市町村長が必要と認める事項": null,
        "受入対象者": null,
        "備考": ""
      }
    },
    {
      "type": "Feature",
      "geometry": {
        "type": "Point",
        "coordinates": [
          131.361369,
          34.326177
        ]
      },
      "properties": {
        "NO": 64440,
        "共通ID": "E3520400059111",
        "都道府県名及び市町村名": "山口県萩市",
        "施設・場所名": "木間地域活性化センター",
        "住所": "山口県萩市大字山田636-1",
        "指定緊急避難場所との住所同一": "1",
        "その他市町村長が必要と認める事項": null,
        "受入対象者": null,
        "備考": ""
      }
    },
    {
      "type": "Feature",
      "geometry": {
        "type": "Point",
        "coordinates": [
          131.35872,
          34.328977
        ]
      },
      "properties": {
        "NO": 64441,
        "共通ID": "E3520400060111",
        "都道府県名及び市町村名": "山口県萩市",
        "施設・場所名": "木間体育館",
        "住所": "山口県萩市大字山田680-2",
        "指定緊急避難場所との住所同一": "1",
        "その他市町村長が必要と認める事項": null,
        "受入対象者": null,
        "備考": ""
      }
    },
    {
      "type": "Feature",
      "geometry": {
        "type": "Point",
        "coordinates": [
          131.527367,
          34.45953
        ]
      },
      "properties": {
        "NO": 64442,
        "共通ID": "E3520400061111",
        "都道府県名及び市町村名": "山口県萩市",
        "施設・場所名": "紫福体育館",
        "住所": "山口県萩市大字紫福3327",
        "指定緊急避難場所との住所同一": "1",
        "その他市町村長が必要と認める事項": null,
        "受入対象者": null,
        "備考": ""
      }
    },
    {
      "type": "Feature",
      "geometry": {
        "type": "Point",
        "coordinates": [
          131.534465,
          34.461366
        ]
      },
      "properties": {
        "NO": 64443,
        "共通ID": "E3520400062111",
        "都道府県名及び市町村名": "山口県萩市",
        "施設・場所名": "福栄老人福祉センター（紫福支所）",
        "住所": "山口県萩市大字紫福3446-1",
        "指定緊急避難場所との住所同一": "1",
        "その他市町村長が必要と認める事項": null,
        "受入対象者": null,
        "備考": ""
      }
    },
    {
      "type": "Feature",
      "geometry": {
        "type": "Point",
        "coordinates": [
          131.534182,
          34.461057
        ]
      },
      "properties": {
        "NO": 64444,
        "共通ID": "E3520400062112",
        "都道府県名及び市町村名": "山口県萩市",
        "施設・場所名": "福栄農業担い手育成センター（紫福公民館）",
        "住所": "山口県萩市大字紫福3446-1",
        "指定緊急避難場所との住所同一": "1",
        "その他市町村長が必要と認める事項": null,
        "受入対象者": null,
        "備考": ""
      }
    },
    {
      "type": "Feature",
      "geometry": {
        "type": "Point",
        "coordinates": [
          131.675774,
          34.580242
        ]
      },
      "properties": {
        "NO": 64445,
        "共通ID": "E3520400149111",
        "都道府県名及び市町村名": "山口県萩市",
        "施設・場所名": "小川４区公会堂",
        "住所": "山口県萩市大字上小川東分",
        "指定緊急避難場所との住所同一": "1",
        "その他市町村長が必要と認める事項": "",
        "受入対象者": "",
        "備考": ""
      }
    },
    {
      "type": "Feature",
      "geometry": {
        "type": "Point",
        "coordinates": [
          131.667374,
          34.576
        ]
      },
      "properties": {
        "NO": 64446,
        "共通ID": "E3520400063111",
        "都道府県名及び市町村名": "山口県萩市",
        "施設・場所名": "田万川農村婦人の家",
        "住所": "山口県萩市大字上小川東分155",
        "指定緊急避難場所との住所同一": "1",
        "その他市町村長が必要と認める事項": null,
        "受入対象者": null,
        "備考": ""
      }
    },
    {
      "type": "Feature",
      "geometry": {
        "type": "Point",
        "coordinates": [
          131.66824,
          34.625543
        ]
      },
      "properties": {
        "NO": 64447,
        "共通ID": "E3520400064111",
        "都道府県名及び市町村名": "山口県萩市",
        "施設・場所名": "上田万生活改善センター",
        "住所": "山口県萩市大字上田万2210-5",
        "指定緊急避難場所との住所同一": "1",
        "その他市町村長が必要と認める事項": null,
        "受入対象者": null,
        "備考": ""
      }
    },
    {
      "type": "Feature",
      "geometry": {
        "type": "Point",
        "coordinates": [
          131.62526,
          34.621462
        ]
      },
      "properties": {
        "NO": 64448,
        "共通ID": "E3520400066111",
        "都道府県名及び市町村名": "山口県萩市",
        "施設・場所名": "須佐三原農事集会所",
        "住所": "山口県萩市大字須佐2727-23",
        "指定緊急避難場所との住所同一": "1",
        "その他市町村長が必要と認める事項": null,
        "受入対象者": null,
        "備考": ""
      }
    },
    {
      "type": "Feature",
      "geometry": {
        "type": "Point",
        "coordinates": [
          131.601113,
          34.617024
        ]
      },
      "properties": {
        "NO": 64449,
        "共通ID": "E3520400068111",
        "都道府県名及び市町村名": "山口県萩市",
        "施設・場所名": "育英小学校体育館",
        "住所": "山口県萩市大字須佐4371",
        "指定緊急避難場所との住所同一": "1",
        "その他市町村長が必要と認める事項": null,
        "受入対象者": null,
        "備考": ""
      }
    },
    {
      "type": "Feature",
      "geometry": {
        "type": "Point",
        "coordinates": [
          131.602172,
          34.61842
        ]
      },
      "properties": {
        "NO": 64450,
        "共通ID": "E3520400069112",
        "都道府県名及び市町村名": "山口県萩市",
        "施設・場所名": "須佐総合事務所",
        "住所": "山口県萩市大字須佐4570-5",
        "指定緊急避難場所との住所同一": "1",
        "その他市町村長が必要と認める事項": null,
        "受入対象者": null,
        "備考": ""
      }
    },
    {
      "type": "Feature",
      "geometry": {
        "type": "Point",
        "coordinates": [
          131.602242,
          34.617906
        ]
      },
      "properties": {
        "NO": 64451,
        "共通ID": "E3520400069111",
        "都道府県名及び市町村名": "山口県萩市",
        "施設・場所名": "須佐公民館・須佐文化センター",
        "住所": "山口県萩市大字須佐4570-5",
        "指定緊急避難場所との住所同一": "1",
        "その他市町村長が必要と認める事項": null,
        "受入対象者": null,
        "備考": ""
      }
    },
    {
      "type": "Feature",
      "geometry": {
        "type": "Point",
        "coordinates": [
          131.600791,
          34.622315
        ]
      },
      "properties": {
        "NO": 64452,
        "共通ID": "E3520400070111",
        "都道府県名及び市町村名": "山口県萩市",
        "施設・場所名": "須佐漁村センター（山口県漁協須佐支店）",
        "住所": "山口県萩市大字須佐4740-10",
        "指定緊急避難場所との住所同一": "1",
        "その他市町村長が必要と認める事項": null,
        "受入対象者": null,
        "備考": ""
      }
    },
    {
      "type": "Feature",
      "geometry": {
        "type": "Point",
        "coordinates": [
          131.604556,
          34.621527
        ]
      },
      "properties": {
        "NO": 64453,
        "共通ID": "E3520400072111",
        "都道府県名及び市町村名": "山口県萩市",
        "施設・場所名": "須佐緑地等管理中央センター",
        "住所": "山口県萩市大字須佐4981-15",
        "指定緊急避難場所との住所同一": "1",
        "その他市町村長が必要と認める事項": null,
        "受入対象者": null,
        "備考": ""
      }
    },
    {
      "type": "Feature",
      "geometry": {
        "type": "Point",
        "coordinates": [
          131.610253,
          34.61742
        ]
      },
      "properties": {
        "NO": 64454,
        "共通ID": "E3520400073111",
        "都道府県名及び市町村名": "山口県萩市",
        "施設・場所名": "須佐中学校体育館",
        "住所": "山口県萩市大字須佐5200-1",
        "指定緊急避難場所との住所同一": "1",
        "その他市町村長が必要と認める事項": null,
        "受入対象者": null,
        "備考": ""
      }
    },
    {
      "type": "Feature",
      "geometry": {
        "type": "Point",
        "coordinates": [
          131.678117,
          34.590037
        ]
      },
      "properties": {
        "NO": 64455,
        "共通ID": "E3520400079111",
        "都道府県名及び市町村名": "山口県萩市",
        "施設・場所名": "萩市小川交流センター",
        "住所": "山口県萩市大字中小川595-1",
        "指定緊急避難場所との住所同一": "1",
        "その他市町村長が必要と認める事項": null,
        "受入対象者": null,
        "備考": ""
      }
    },
    {
      "type": "Feature",
      "geometry": {
        "type": "Point",
        "coordinates": [
          131.398783,
          34.397603
        ]
      },
      "properties": {
        "NO": 64456,
        "共通ID": "E3520400081112",
        "都道府県名及び市町村名": "山口県萩市",
        "施設・場所名": "椿西小学校校舎",
        "住所": "山口県萩市大字椿3332-1",
        "指定緊急避難場所との住所同一": "1",
        "その他市町村長が必要と認める事項": null,
        "受入対象者": null,
        "備考": ""
      }
    },
    {
      "type": "Feature",
      "geometry": {
        "type": "Point",
        "coordinates": [
          131.398783,
          34.397603
        ]
      },
      "properties": {
        "NO": 64457,
        "共通ID": "E3520400081111",
        "都道府県名及び市町村名": "山口県萩市",
        "施設・場所名": "椿西小学校体育館",
        "住所": "山口県萩市大字椿3332-1",
        "指定緊急避難場所との住所同一": "1",
        "その他市町村長が必要と認める事項": null,
        "受入対象者": null,
        "備考": ""
      }
    },
    {
      "type": "Feature",
      "geometry": {
        "type": "Point",
        "coordinates": [
          131.399723,
          34.396934
        ]
      },
      "properties": {
        "NO": 64458,
        "共通ID": "E3520400082111",
        "都道府県名及び市町村名": "山口県萩市",
        "施設・場所名": "萩市民体育館",
        "住所": "山口県萩市大字椿3395-1",
        "指定緊急避難場所との住所同一": "1",
        "その他市町村長が必要と認める事項": null,
        "受入対象者": null,
        "備考": ""
      }
    },
    {
      "type": "Feature",
      "geometry": {
        "type": "Point",
        "coordinates": [
          131.416384,
          34.412287
        ]
      },
      "properties": {
        "NO": 64459,
        "共通ID": "E3520400085111",
        "都道府県名及び市町村名": "山口県萩市",
        "施設・場所名": "松陰神社立志殿",
        "住所": "山口県萩市大字椿東1537",
        "指定緊急避難場所との住所同一": "1",
        "その他市町村長が必要と認める事項": null,
        "受入対象者": null,
        "備考": ""
      }
    },
    {
      "type": "Feature",
      "geometry": {
        "type": "Point",
        "coordinates": [
          131.417686,
          34.413677
        ]
      },
      "properties": {
        "NO": 64460,
        "共通ID": "E3520400086112",
        "都道府県名及び市町村名": "山口県萩市",
        "施設・場所名": "椿東小学校校舎",
        "住所": "山口県萩市大字椿東2710-1",
        "指定緊急避難場所との住所同一": "1",
        "その他市町村長が必要と認める事項": null,
        "受入対象者": null,
        "備考": ""
      }
    },
    {
      "type": "Feature",
      "geometry": {
        "type": "Point",
        "coordinates": [
          131.417686,
          34.413677
        ]
      },
      "properties": {
        "NO": 64461,
        "共通ID": "E3520400086111",
        "都道府県名及び市町村名": "山口県萩市",
        "施設・場所名": "椿東小学校体育館",
        "住所": "山口県萩市大字椿東2710-1",
        "指定緊急避難場所との住所同一": "1",
        "その他市町村長が必要と認める事項": null,
        "受入対象者": null,
        "備考": ""
      }
    },
    {
      "type": "Feature",
      "geometry": {
        "type": "Point",
        "coordinates": [
          131.421572,
          34.431738
        ]
      },
      "properties": {
        "NO": 64462,
        "共通ID": "E3520400089112",
        "都道府県名及び市町村名": "山口県萩市",
        "施設・場所名": "至誠館大学校舎（３号館）",
        "住所": "山口県萩市大字椿東5000",
        "指定緊急避難場所との住所同一": "1",
        "その他市町村長が必要と認める事項": null,
        "受入対象者": null,
        "備考": ""
      }
    },
    {
      "type": "Feature",
      "geometry": {
        "type": "Point",
        "coordinates": [
          131.421572,
          34.431738
        ]
      },
      "properties": {
        "NO": 64463,
        "共通ID": "E3520400089111",
        "都道府県名及び市町村名": "山口県萩市",
        "施設・場所名": "至誠館大学体育館",
        "住所": "山口県萩市大字椿東5000",
        "指定緊急避難場所との住所同一": "1",
        "その他市町村長が必要と認める事項": null,
        "受入対象者": null,
        "備考": ""
      }
    },
    {
      "type": "Feature",
      "geometry": {
        "type": "Point",
        "coordinates": [
          131.421136,
          34.434811
        ]
      },
      "properties": {
        "NO": 64464,
        "共通ID": "E3520400090121",
        "都道府県名及び市町村名": "山口県萩市",
        "施設・場所名": "萩総合支援学校",
        "住所": "山口県萩市大字椿東5816-1",
        "指定緊急避難場所との住所同一": "1",
        "その他市町村長が必要と認める事項": null,
        "受入対象者": "未特定",
        "備考": ""
      }
    },
    {
      "type": "Feature",
      "geometry": {
        "type": "Point",
        "coordinates": [
          131.421043,
          34.443624
        ]
      },
      "properties": {
        "NO": 64465,
        "共通ID": "E3520400092111",
        "都道府県名及び市町村名": "山口県萩市",
        "施設・場所名": "越ヶ浜小学校体育館",
        "住所": "山口県萩市大字椿東6088",
        "指定緊急避難場所との住所同一": "1",
        "その他市町村長が必要と認める事項": null,
        "受入対象者": null,
        "備考": ""
      }
    },
    {
      "type": "Feature",
      "geometry": {
        "type": "Point",
        "coordinates": [
          131.421705,
          34.442795
        ]
      },
      "properties": {
        "NO": 64466,
        "共通ID": "E3520400093111",
        "都道府県名及び市町村名": "山口県萩市",
        "施設・場所名": "越ヶ浜中学校体育館",
        "住所": "山口県萩市大字椿東6089-4",
        "指定緊急避難場所との住所同一": "1",
        "その他市町村長が必要と認める事項": null,
        "受入対象者": null,
        "備考": ""
      }
    },
    {
      "type": "Feature",
      "geometry": {
        "type": "Point",
        "coordinates": [
          131.410633,
          34.447829
        ]
      },
      "properties": {
        "NO": 64467,
        "共通ID": "E3520400094111",
        "都道府県名及び市町村名": "山口県萩市",
        "施設・場所名": "山口県漁協山口はぎ統括支店（越ヶ浜支店）",
        "住所": "山口県萩市大字椿東6446-5",
        "指定緊急避難場所との住所同一": "1",
        "その他市町村長が必要と認める事項": null,
        "受入対象者": null,
        "備考": ""
      }
    },
    {
      "type": "Feature",
      "geometry": {
        "type": "Point",
        "coordinates": [
          131.4099,
          34.449027
        ]
      },
      "properties": {
        "NO": 64468,
        "共通ID": "E3520400095111",
        "都道府県名及び市町村名": "山口県萩市",
        "施設・場所名": "越ヶ浜介護予防センター",
        "住所": "山口県萩市大字椿東6478-1",
        "指定緊急避難場所との住所同一": "1",
        "その他市町村長が必要と認める事項": null,
        "受入対象者": null,
        "備考": ""
      }
    },
    {
      "type": "Feature",
      "geometry": {
        "type": "Point",
        "coordinates": [
          131.412203,
          34.447838
        ]
      },
      "properties": {
        "NO": 64469,
        "共通ID": "E3520400096111",
        "都道府県名及び市町村名": "山口県萩市",
        "施設・場所名": "コミュニティセンターゆうなぎ",
        "住所": "山口県萩市大字椿東6504-26",
        "指定緊急避難場所との住所同一": "1",
        "その他市町村長が必要と認める事項": null,
        "受入対象者": null,
        "備考": ""
      }
    },
    {
      "type": "Feature",
      "geometry": {
        "type": "Point",
        "coordinates": [
          131.405717,
          34.41295
        ]
      },
      "properties": {
        "NO": 64470,
        "共通ID": "E3520400108112",
        "都道府県名及び市町村名": "山口県萩市",
        "施設・場所名": "萩東中学校校舎",
        "住所": "山口県萩市大字土原556-1",
        "指定緊急避難場所との住所同一": "1",
        "その他市町村長が必要と認める事項": null,
        "受入対象者": null,
        "備考": ""
      }
    },
    {
      "type": "Feature",
      "geometry": {
        "type": "Point",
        "coordinates": [
          131.405717,
          34.41295
        ]
      },
      "properties": {
        "NO": 64471,
        "共通ID": "E3520400108111",
        "都道府県名及び市町村名": "山口県萩市",
        "施設・場所名": "萩東中学校体育館",
        "住所": "山口県萩市大字土原556-1",
        "指定緊急避難場所との住所同一": "1",
        "その他市町村長が必要と認める事項": null,
        "受入対象者": null,
        "備考": ""
      }
    },
    {
      "type": "Feature",
      "geometry": {
        "type": "Point",
        "coordinates": [
          131.404098,
          34.411817
        ]
      },
      "properties": {
        "NO": 64472,
        "共通ID": "E3520400109111",
        "都道府県名及び市町村名": "山口県萩市",
        "施設・場所名": "萩光塩学院",
        "住所": "山口県萩市大字東田町15",
        "指定緊急避難場所との住所同一": "1",
        "その他市町村長が必要と認める事項": null,
        "受入対象者": null,
        "備考": ""
      }
    },
    {
      "type": "Feature",
      "geometry": {
        "type": "Point",
        "coordinates": [
          131.484075,
          34.432825
        ]
      },
      "properties": {
        "NO": 64473,
        "共通ID": "E3520400111111",
        "都道府県名及び市町村名": "山口県萩市",
        "施設・場所名": "ふくえ～る",
        "住所": "山口県萩市大字福井下3999-6",
        "指定緊急避難場所との住所同一": "1",
        "その他市町村長が必要と認める事項": null,
        "受入対象者": null,
        "備考": ""
      }
    },
    {
      "type": "Feature",
      "geometry": {
        "type": "Point",
        "coordinates": [
          131.487346,
          34.435983
        ]
      },
      "properties": {
        "NO": 64474,
        "共通ID": "E3520400113112",
        "都道府県名及び市町村名": "山口県萩市",
        "施設・場所名": "福栄小中学校体育館",
        "住所": "山口県萩市大字福井下4360-1",
        "指定緊急避難場所との住所同一": "1",
        "その他市町村長が必要と認める事項": null,
        "受入対象者": null,
        "備考": ""
      }
    },
    {
      "type": "Feature",
      "geometry": {
        "type": "Point",
        "coordinates": [
          131.486822,
          34.436509
        ]
      },
      "properties": {
        "NO": 64475,
        "共通ID": "E3520400113111",
        "都道府県名及び市町村名": "山口県萩市",
        "施設・場所名": "福栄小中学校校舎",
        "住所": "山口県萩市大字福井下4360-1",
        "指定緊急避難場所との住所同一": "1",
        "その他市町村長が必要と認める事項": null,
        "受入対象者": null,
        "備考": ""
      }
    },
    {
      "type": "Feature",
      "geometry": {
        "type": "Point",
        "coordinates": [
          131.517922,
          34.382059
        ]
      },
      "properties": {
        "NO": 64476,
        "共通ID": "E3520400114111",
        "都道府県名及び市町村名": "山口県萩市",
        "施設・場所名": "半田集会所（旧・半田公民館）",
        "住所": "山口県萩市大字福井上1936-2",
        "指定緊急避難場所との住所同一": "1",
        "その他市町村長が必要と認める事項": null,
        "受入対象者": null,
        "備考": ""
      }
    },
    {
      "type": "Feature",
      "geometry": {
        "type": "Point",
        "coordinates": [
          131.52657,
          34.398238
        ]
      },
      "properties": {
        "NO": 64477,
        "共通ID": "E3520400115111",
        "都道府県名及び市町村名": "山口県萩市",
        "施設・場所名": "平蕨台活性化交流施設（福栄るーらる雲海）",
        "住所": "山口県萩市大字福井上3439-9",
        "指定緊急避難場所との住所同一": "1",
        "その他市町村長が必要と認める事項": null,
        "受入対象者": null,
        "備考": ""
      }
    },
    {
      "type": "Feature",
      "geometry": {
        "type": "Point",
        "coordinates": [
          131.512748,
          34.422337
        ]
      },
      "properties": {
        "NO": 64478,
        "共通ID": "E3520400116111",
        "都道府県名及び市町村名": "山口県萩市",
        "施設・場所名": "山﨑集会所",
        "住所": "山口県萩市大字福井上山崎",
        "指定緊急避難場所との住所同一": "1",
        "その他市町村長が必要と認める事項": null,
        "受入対象者": null,
        "備考": ""
      }
    },
    {
      "type": "Feature",
      "geometry": {
        "type": "Point",
        "coordinates": [
          131.394317,
          34.407248
        ]
      },
      "properties": {
        "NO": 64479,
        "共通ID": "E3520400117111",
        "都道府県名及び市町村名": "山口県萩市",
        "施設・場所名": "萩商工高等学校体育館",
        "住所": "山口県萩市大字平安古町544",
        "指定緊急避難場所との住所同一": "1",
        "その他市町村長が必要と認める事項": null,
        "受入対象者": null,
        "備考": ""
      }
    },
    {
      "type": "Feature",
      "geometry": {
        "type": "Point",
        "coordinates": [
          131.394317,
          34.407248
        ]
      },
      "properties": {
        "NO": 64480,
        "共通ID": "E3520400117112",
        "都道府県名及び市町村名": "山口県萩市",
        "施設・場所名": "萩商工高等学校校舎",
        "住所": "山口県萩市大字平安古町544",
        "指定緊急避難場所との住所同一": "1",
        "その他市町村長が必要と認める事項": null,
        "受入対象者": null,
        "備考": ""
      }
    },
    {
      "type": "Feature",
      "geometry": {
        "type": "Point",
        "coordinates": [
          131.633169,
          34.486294
        ]
      },
      "properties": {
        "NO": 64481,
        "共通ID": "E3520400119111",
        "都道府県名及び市町村名": "山口県萩市",
        "施設・場所名": "片俣集会所",
        "住所": "山口県萩市大字片俣1265-1",
        "指定緊急避難場所との住所同一": "1",
        "その他市町村長が必要と認める事項": null,
        "受入対象者": null,
        "備考": ""
      }
    },
    {
      "type": "Feature",
      "geometry": {
        "type": "Point",
        "coordinates": [
          131.399323,
          34.416388
        ]
      },
      "properties": {
        "NO": 64482,
        "共通ID": "E3520400120111",
        "都道府県名及び市町村名": "山口県萩市",
        "施設・場所名": "海潮寺",
        "住所": "山口県萩市大字北古萩町50",
        "指定緊急避難場所との住所同一": "1",
        "その他市町村長が必要と認める事項": null,
        "受入対象者": null,
        "備考": ""
      }
    },
    {
      "type": "Feature",
      "geometry": {
        "type": "Point",
        "coordinates": [
          131.39939,
          34.41695
        ]
      },
      "properties": {
        "NO": 64483,
        "共通ID": "E3520400121111",
        "都道府県名及び市町村名": "山口県萩市",
        "施設・場所名": "亨徳寺",
        "住所": "山口県萩市大字北古萩町66",
        "指定緊急避難場所との住所同一": "1",
        "その他市町村長が必要と認める事項": null,
        "受入対象者": null,
        "備考": ""
      }
    },
    {
      "type": "Feature",
      "geometry": {
        "type": "Point",
        "coordinates": [
          131.398951,
          34.416801
        ]
      },
      "properties": {
        "NO": 64484,
        "共通ID": "E3520400122111",
        "都道府県名及び市町村名": "山口県萩市",
        "施設・場所名": "本行寺",
        "住所": "山口県萩市大字北古萩町67",
        "指定緊急避難場所との住所同一": "1",
        "その他市町村長が必要と認める事項": null,
        "受入対象者": null,
        "備考": ""
      }
    },
    {
      "type": "Feature",
      "geometry": {
        "type": "Point",
        "coordinates": [
          131.385558,
          34.41324
        ]
      },
      "properties": {
        "NO": 64485,
        "共通ID": "E3520400125111",
        "都道府県名及び市町村名": "山口県萩市",
        "施設・場所名": "萩高等学校体育館",
        "住所": "山口県萩市大字堀内132",
        "指定緊急避難場所との住所同一": "1",
        "その他市町村長が必要と認める事項": null,
        "受入対象者": null,
        "備考": ""
      }
    },
    {
      "type": "Feature",
      "geometry": {
        "type": "Point",
        "coordinates": [
          131.387114,
          34.412927
        ]
      },
      "properties": {
        "NO": 64486,
        "共通ID": "E3520400127112",
        "都道府県名及び市町村名": "山口県萩市",
        "施設・場所名": "萩西中学校体育館",
        "住所": "山口県萩市大字堀内261",
        "指定緊急避難場所との住所同一": "1",
        "その他市町村長が必要と認める事項": null,
        "受入対象者": null,
        "備考": ""
      }
    },
    {
      "type": "Feature",
      "geometry": {
        "type": "Point",
        "coordinates": [
          131.387114,
          34.412927
        ]
      },
      "properties": {
        "NO": 64487,
        "共通ID": "E3520400127111",
        "都道府県名及び市町村名": "山口県萩市",
        "施設・場所名": "萩西中学校校舎",
        "住所": "山口県萩市大字堀内261",
        "指定緊急避難場所との住所同一": "1",
        "その他市町村長が必要と認める事項": null,
        "受入対象者": null,
        "備考": ""
      }
    },
    {
      "type": "Feature",
      "geometry": {
        "type": "Point",
        "coordinates": [
          131.410267,
          34.339796
        ]
      },
      "properties": {
        "NO": 64488,
        "共通ID": "E3520400128111",
        "都道府県名及び市町村名": "山口県萩市",
        "施設・場所名": "旭農林漁業者等健康増進センター",
        "住所": "山口県萩市大字明木2904",
        "指定緊急避難場所との住所同一": "1",
        "その他市町村長が必要と認める事項": null,
        "受入対象者": null,
        "備考": ""
      }
    },
    {
      "type": "Feature",
      "geometry": {
        "type": "Point",
        "coordinates": [
          131.411415,
          34.339287
        ]
      },
      "properties": {
        "NO": 64489,
        "共通ID": "E3520400129111",
        "都道府県名及び市町村名": "山口県萩市",
        "施設・場所名": "旭マルチメディアセンター（明木公民館）",
        "住所": "山口県萩市大字明木2959-1",
        "指定緊急避難場所との住所同一": "1",
        "その他市町村長が必要と認める事項": null,
        "受入対象者": null,
        "備考": ""
      }
    },
    {
      "type": "Feature",
      "geometry": {
        "type": "Point",
        "coordinates": [
          131.414125,
          34.341256
        ]
      },
      "properties": {
        "NO": 64490,
        "共通ID": "E3520400130111",
        "都道府県名及び市町村名": "山口県萩市",
        "施設・場所名": "明木小学校・旭中学校体育館",
        "住所": "山口県萩市大字明木3039",
        "指定緊急避難場所との住所同一": "1",
        "その他市町村長が必要と認める事項": null,
        "受入対象者": null,
        "備考": ""
      }
    },
    {
      "type": "Feature",
      "geometry": {
        "type": "Point",
        "coordinates": [
          131.415469,
          34.345573
        ]
      },
      "properties": {
        "NO": 64491,
        "共通ID": "E3520400131111",
        "都道府県名及び市町村名": "山口県萩市",
        "施設・場所名": "乳母の茶屋（萩往還交流施設）",
        "住所": "山口県萩市大字明木3198-3",
        "指定緊急避難場所との住所同一": "1",
        "その他市町村長が必要と認める事項": null,
        "受入対象者": null,
        "備考": ""
      }
    },
    {
      "type": "Feature",
      "geometry": {
        "type": "Point",
        "coordinates": [
          131.640965,
          34.549266
        ]
      },
      "properties": {
        "NO": 64492,
        "共通ID": "E3520400132111",
        "都道府県名及び市町村名": "山口県萩市",
        "施設・場所名": "弥富交流促進センター（弥富支所・弥富公民館）",
        "住所": "山口県萩市大字弥富下4043",
        "指定緊急避難場所との住所同一": "1",
        "その他市町村長が必要と認める事項": null,
        "受入対象者": null,
        "備考": ""
      }
    },
    {
      "type": "Feature",
      "geometry": {
        "type": "Point",
        "coordinates": [
          131.641826,
          34.547535
        ]
      },
      "properties": {
        "NO": 64493,
        "共通ID": "E3520400133111",
        "都道府県名及び市町村名": "山口県萩市",
        "施設・場所名": "萩市須佐・福祉複合施設やまびこ　※一部のみ使用可",
        "住所": "山口県萩市大字弥富下4083-1",
        "指定緊急避難場所との住所同一": "1",
        "その他市町村長が必要と認める事項": null,
        "受入対象者": null,
        "備考": ""
      }
    },
    {
      "type": "Feature",
      "geometry": {
        "type": "Point",
        "coordinates": [
          131.684516,
          34.547928
        ]
      },
      "properties": {
        "NO": 64494,
        "共通ID": "E3520400135111",
        "都道府県名及び市町村名": "山口県萩市",
        "施設・場所名": "鈴野川農林漁業者等健康増進施設",
        "住所": "山口県萩市大字鈴野川1960-5",
        "指定緊急避難場所との住所同一": "1",
        "その他市町村長が必要と認める事項": null,
        "受入対象者": null,
        "備考": ""
      }
    },
    {
      "type": "Feature",
      "geometry": {
        "type": "Point",
        "coordinates": [
          131.408531,
          34.491201
        ]
      },
      "properties": {
        "NO": 64495,
        "共通ID": "E3520400147111",
        "都道府県名及び市町村名": "山口県萩市",
        "施設・場所名": "大島老人憩いの家",
        "住所": "山口県萩市大島",
        "指定緊急避難場所との住所同一": "1",
        "その他市町村長が必要と認める事項": "",
        "受入対象者": "",
        "備考": ""
      }
    },
    {
      "type": "Feature",
      "geometry": {
        "type": "Point",
        "coordinates": [
          131.405426,
          34.493134
        ]
      },
      "properties": {
        "NO": 64496,
        "共通ID": "E3520400137111",
        "都道府県名及び市町村名": "山口県萩市",
        "施設・場所名": "大島小中学校体育館",
        "住所": "山口県萩市大島211",
        "指定緊急避難場所との住所同一": "1",
        "その他市町村長が必要と認める事項": null,
        "受入対象者": null,
        "備考": ""
      }
    },
    {
      "type": "Feature",
      "geometry": {
        "type": "Point",
        "coordinates": [
          131.408559,
          34.490813
        ]
      },
      "properties": {
        "NO": 64497,
        "共通ID": "E3520400141111",
        "都道府県名及び市町村名": "山口県萩市",
        "施設・場所名": "大島出張所（大島公民館）",
        "住所": "山口県萩市大島5-9",
        "指定緊急避難場所との住所同一": "1",
        "その他市町村長が必要と認める事項": null,
        "受入対象者": null,
        "備考": ""
      }
    },
    {
      "type": "Feature",
      "geometry": {
        "type": "Point",
        "coordinates": [
          131.415126,
          34.492798
        ]
      },
      "properties": {
        "NO": 64498,
        "共通ID": "E3520400140111",
        "都道府県名及び市町村名": "山口県萩市",
        "施設・場所名": "長浜ふれあいセンター",
        "住所": "山口県萩市大島511-2",
        "指定緊急避難場所との住所同一": "1",
        "その他市町村長が必要と認める事項": null,
        "受入対象者": null,
        "備考": ""
      }
    }
  ]
}