{
  "type": "FeatureCollection",
  "name": "352021",
  "features": [
    {
      "type": "Feature",
      "geometry": {
        "type": "Point",
        "coordinates": [
          131.238018,
          33.962073
        ]
      },
      "properties": {
        "NO": 64131,
        "共通ID": "E3520200001111",
        "都道府県名及び市町村名": "山口県宇部市",
        "施設・場所名": "鵜の島ふれあいセンター",
        "住所": "山口県宇部市鵜の島町7-6",
        "指定緊急避難場所との住所同一": "1",
        "その他市町村長が必要と認める事項": null,
        "受入対象者": null,
        "備考": ""
      }
    },
    {
      "type": "Feature",
      "geometry": {
        "type": "Point",
        "coordinates": [
          131.272249,
          33.946801
        ]
      },
      "properties": {
        "NO": 64132,
        "共通ID": "E3520200003111",
        "都道府県名及び市町村名": "山口県宇部市",
        "施設・場所名": "俵田翁記念体育館",
        "住所": "山口県宇部市恩田町4-1-1",
        "指定緊急避難場所との住所同一": "1",
        "その他市町村長が必要と認める事項": null,
        "受入対象者": null,
        "備考": ""
      }
    },
    {
      "type": "Feature",
      "geometry": {
        "type": "Point",
        "coordinates": [
          131.288418,
          33.944533
        ]
      },
      "properties": {
        "NO": 64133,
        "共通ID": "E3520200004111",
        "都道府県名及び市町村名": "山口県宇部市",
        "施設・場所名": "常盤ふれあいセンター",
        "住所": "山口県宇部市亀浦1-1-50",
        "指定緊急避難場所との住所同一": "1",
        "その他市町村長が必要と認める事項": null,
        "受入対象者": null,
        "備考": ""
      }
    },
    {
      "type": "Feature",
      "geometry": {
        "type": "Point",
        "coordinates": [
          131.217846,
          33.994143
        ]
      },
      "properties": {
        "NO": 64134,
        "共通ID": "E3520200007111",
        "都道府県名及び市町村名": "山口県宇部市",
        "施設・場所名": "厚南市民センター",
        "住所": "山口県宇部市厚南中央3-1-2",
        "指定緊急避難場所との住所同一": "1",
        "その他市町村長が必要と認める事項": null,
        "受入対象者": null,
        "備考": ""
      }
    },
    {
      "type": "Feature",
      "geometry": {
        "type": "Point",
        "coordinates": [
          131.21885,
          34.000795
        ]
      },
      "properties": {
        "NO": 64135,
        "共通ID": "E3520200008111",
        "都道府県名及び市町村名": "山口県宇部市",
        "施設・場所名": "隣保館厚南会館（厚南ふれあいセンター）",
        "住所": "山口県宇部市厚南北1-2-24",
        "指定緊急避難場所との住所同一": "1",
        "その他市町村長が必要と認める事項": null,
        "受入対象者": null,
        "備考": ""
      }
    },
    {
      "type": "Feature",
      "geometry": {
        "type": "Point",
        "coordinates": [
          131.209546,
          33.984578
        ]
      },
      "properties": {
        "NO": 64136,
        "共通ID": "E3520200011111",
        "都道府県名及び市町村名": "山口県宇部市",
        "施設・場所名": "黒石小学校",
        "住所": "山口県宇部市黒石北3-2-35",
        "指定緊急避難場所との住所同一": "1",
        "その他市町村長が必要と認める事項": null,
        "受入対象者": null,
        "備考": ""
      }
    },
    {
      "type": "Feature",
      "geometry": {
        "type": "Point",
        "coordinates": [
          131.207733,
          33.984138
        ]
      },
      "properties": {
        "NO": 64137,
        "共通ID": "E3520200012111",
        "都道府県名及び市町村名": "山口県宇部市",
        "施設・場所名": "黒石ふれあいセンター",
        "住所": "山口県宇部市黒石北3-2-37-12",
        "指定緊急避難場所との住所同一": "1",
        "その他市町村長が必要と認める事項": null,
        "受入対象者": null,
        "備考": ""
      }
    },
    {
      "type": "Feature",
      "geometry": {
        "type": "Point",
        "coordinates": [
          131.262671,
          33.942202
        ]
      },
      "properties": {
        "NO": 64138,
        "共通ID": "E3520200013111",
        "都道府県名及び市町村名": "山口県宇部市",
        "施設・場所名": "恩田小学校",
        "住所": "山口県宇部市笹山町1-4-1",
        "指定緊急避難場所との住所同一": "1",
        "その他市町村長が必要と認める事項": null,
        "受入対象者": null,
        "備考": ""
      }
    },
    {
      "type": "Feature",
      "geometry": {
        "type": "Point",
        "coordinates": [
          131.239781,
          33.963619
        ]
      },
      "properties": {
        "NO": 64139,
        "共通ID": "E3520200015111",
        "都道府県名及び市町村名": "山口県宇部市",
        "施設・場所名": "鵜ノ島小学校",
        "住所": "山口県宇部市小松原町2-10-25",
        "指定緊急避難場所との住所同一": "1",
        "その他市町村長が必要と認める事項": null,
        "受入対象者": null,
        "備考": ""
      }
    },
    {
      "type": "Feature",
      "geometry": {
        "type": "Point",
        "coordinates": [
          131.311746,
          33.956699
        ]
      },
      "properties": {
        "NO": 64140,
        "共通ID": "E3520200016111",
        "都道府県名及び市町村名": "山口県宇部市",
        "施設・場所名": "西岐波小学校",
        "住所": "山口県宇部市床波3-4-10",
        "指定緊急避難場所との住所同一": "1",
        "その他市町村長が必要と認める事項": null,
        "受入対象者": null,
        "備考": ""
      }
    },
    {
      "type": "Feature",
      "geometry": {
        "type": "Point",
        "coordinates": [
          131.314246,
          33.958445
        ]
      },
      "properties": {
        "NO": 64141,
        "共通ID": "E3520200017111",
        "都道府県名及び市町村名": "山口県宇部市",
        "施設・場所名": "西岐波中学校",
        "住所": "山口県宇部市床波4-1-40",
        "指定緊急避難場所との住所同一": "",
        "その他市町村長が必要と認める事項": null,
        "受入対象者": null,
        "備考": ""
      }
    },
    {
      "type": "Feature",
      "geometry": {
        "type": "Point",
        "coordinates": [
          131.312293,
          33.954838
        ]
      },
      "properties": {
        "NO": 64142,
        "共通ID": "E3520200019111",
        "都道府県名及び市町村名": "山口県宇部市",
        "施設・場所名": "西岐波ふれあいセンター",
        "住所": "山口県宇部市床波6-5-23",
        "指定緊急避難場所との住所同一": "1",
        "その他市町村長が必要と認める事項": null,
        "受入対象者": null,
        "備考": ""
      }
    },
    {
      "type": "Feature",
      "geometry": {
        "type": "Point",
        "coordinates": [
          131.254512,
          33.942682
        ]
      },
      "properties": {
        "NO": 64143,
        "共通ID": "E3520200020111",
        "都道府県名及び市町村名": "山口県宇部市",
        "施設・場所名": "見初ふれあいセンター",
        "住所": "山口県宇部市昭和町1-3-6",
        "指定緊急避難場所との住所同一": "1",
        "その他市町村長が必要と認める事項": null,
        "受入対象者": null,
        "備考": ""
      }
    },
    {
      "type": "Feature",
      "geometry": {
        "type": "Point",
        "coordinates": [
          131.253893,
          33.94716
        ]
      },
      "properties": {
        "NO": 64144,
        "共通ID": "E3520200024111",
        "都道府県名及び市町村名": "山口県宇部市",
        "施設・場所名": "神原ふれあいセンター",
        "住所": "山口県宇部市松山町1-5-16",
        "指定緊急避難場所との住所同一": "1",
        "その他市町村長が必要と認める事項": null,
        "受入対象者": null,
        "備考": ""
      }
    },
    {
      "type": "Feature",
      "geometry": {
        "type": "Point",
        "coordinates": [
          131.25574,
          33.94294
        ]
      },
      "properties": {
        "NO": 64145,
        "共通ID": "E3520200025111",
        "都道府県名及び市町村名": "山口県宇部市",
        "施設・場所名": "見初小学校",
        "住所": "山口県宇部市松山町2-4-42",
        "指定緊急避難場所との住所同一": "1",
        "その他市町村長が必要と認める事項": "",
        "受入対象者": "",
        "備考": ""
      }
    },
    {
      "type": "Feature",
      "geometry": {
        "type": "Point",
        "coordinates": [
          131.259511,
          33.935447
        ]
      },
      "properties": {
        "NO": 64146,
        "共通ID": "E3520200026111",
        "都道府県名及び市町村名": "山口県宇部市",
        "施設・場所名": "岬ふれあいセンター・岬小学校",
        "住所": "山口県宇部市松山町5-8-10",
        "指定緊急避難場所との住所同一": "1",
        "その他市町村長が必要と認める事項": null,
        "受入対象者": null,
        "備考": ""
      }
    },
    {
      "type": "Feature",
      "geometry": {
        "type": "Point",
        "coordinates": [
          131.265503,
          33.960749
        ]
      },
      "properties": {
        "NO": 64147,
        "共通ID": "E3520200027111",
        "都道府県名及び市町村名": "山口県宇部市",
        "施設・場所名": "上宇部中学校",
        "住所": "山口県宇部市沼2-4-8",
        "指定緊急避難場所との住所同一": "1",
        "その他市町村長が必要と認める事項": null,
        "受入対象者": null,
        "備考": ""
      }
    },
    {
      "type": "Feature",
      "geometry": {
        "type": "Point",
        "coordinates": [
          131.232063,
          33.974582
        ]
      },
      "properties": {
        "NO": 64148,
        "共通ID": "E3520200029111",
        "都道府県名及び市町村名": "山口県宇部市",
        "施設・場所名": "藤山小学校",
        "住所": "山口県宇部市上条4-4-1",
        "指定緊急避難場所との住所同一": "1",
        "その他市町村長が必要と認める事項": null,
        "受入対象者": null,
        "備考": ""
      }
    },
    {
      "type": "Feature",
      "geometry": {
        "type": "Point",
        "coordinates": [
          131.27395,
          33.951967
        ]
      },
      "properties": {
        "NO": 64149,
        "共通ID": "E3520200031111",
        "都道府県名及び市町村名": "山口県宇部市",
        "施設・場所名": "常盤中学校",
        "住所": "山口県宇部市上野中町3-40",
        "指定緊急避難場所との住所同一": "1",
        "その他市町村長が必要と認める事項": null,
        "受入対象者": null,
        "備考": ""
      }
    },
    {
      "type": "Feature",
      "geometry": {
        "type": "Point",
        "coordinates": [
          131.256046,
          33.951679
        ]
      },
      "properties": {
        "NO": 64150,
        "共通ID": "E3520200034111",
        "都道府県名及び市町村名": "山口県宇部市",
        "施設・場所名": "神原小学校",
        "住所": "山口県宇部市神原町1-1-1",
        "指定緊急避難場所との住所同一": "1",
        "その他市町村長が必要と認める事項": "",
        "受入対象者": "",
        "備考": ""
      }
    },
    {
      "type": "Feature",
      "geometry": {
        "type": "Point",
        "coordinates": [
          131.220329,
          34.005221
        ]
      },
      "properties": {
        "NO": 64151,
        "共通ID": "E3520200036111",
        "都道府県名及び市町村名": "山口県宇部市",
        "施設・場所名": "西宇部ふれあいセンター",
        "住所": "山口県宇部市西宇部北3-9-15",
        "指定緊急避難場所との住所同一": "1",
        "その他市町村長が必要と認める事項": null,
        "受入対象者": null,
        "備考": ""
      }
    },
    {
      "type": "Feature",
      "geometry": {
        "type": "Point",
        "coordinates": [
          131.263266,
          33.952867
        ]
      },
      "properties": {
        "NO": 64152,
        "共通ID": "E3520200038111",
        "都道府県名及び市町村名": "山口県宇部市",
        "施設・場所名": "琴芝ふれあいセンター",
        "住所": "山口県宇部市西梶返2-10-1",
        "指定緊急避難場所との住所同一": "1",
        "その他市町村長が必要と認める事項": null,
        "受入対象者": null,
        "備考": ""
      }
    },
    {
      "type": "Feature",
      "geometry": {
        "type": "Point",
        "coordinates": [
          131.248251,
          33.963116
        ]
      },
      "properties": {
        "NO": 64153,
        "共通ID": "E3520200039111",
        "都道府県名及び市町村名": "山口県宇部市",
        "施設・場所名": "新川小学校",
        "住所": "山口県宇部市西小串1-4-25",
        "指定緊急避難場所との住所同一": "1",
        "その他市町村長が必要と認める事項": null,
        "受入対象者": null,
        "備考": ""
      }
    },
    {
      "type": "Feature",
      "geometry": {
        "type": "Point",
        "coordinates": [
          131.226843,
          34.045841
        ]
      },
      "properties": {
        "NO": 64154,
        "共通ID": "E3520200122111",
        "都道府県名及び市町村名": "山口県宇部市",
        "施設・場所名": "楠総合センター",
        "住所": "山口県宇部市船木442-11",
        "指定緊急避難場所との住所同一": "1",
        "その他市町村長が必要と認める事項": "",
        "受入対象者": "",
        "備考": ""
      }
    },
    {
      "type": "Feature",
      "geometry": {
        "type": "Point",
        "coordinates": [
          131.271758,
          33.93949
        ]
      },
      "properties": {
        "NO": 64155,
        "共通ID": "E3520200041111",
        "都道府県名及び市町村名": "山口県宇部市",
        "施設・場所名": "恩田ふれあいセンター",
        "住所": "山口県宇部市草江1-6-7",
        "指定緊急避難場所との住所同一": "1",
        "その他市町村長が必要と認める事項": null,
        "受入対象者": null,
        "備考": ""
      }
    },
    {
      "type": "Feature",
      "geometry": {
        "type": "Point",
        "coordinates": [
          131.264771,
          34.041668
        ]
      },
      "properties": {
        "NO": 64156,
        "共通ID": "E3520200046111",
        "都道府県名及び市町村名": "山口県宇部市",
        "施設・場所名": "厚東川中学校",
        "住所": "山口県宇部市大字吉見1184",
        "指定緊急避難場所との住所同一": "1",
        "その他市町村長が必要と認める事項": null,
        "受入対象者": null,
        "備考": ""
      }
    },
    {
      "type": "Feature",
      "geometry": {
        "type": "Point",
        "coordinates": [
          131.202306,
          33.971423
        ]
      },
      "properties": {
        "NO": 64157,
        "共通ID": "E3520200052111",
        "都道府県名及び市町村名": "山口県宇部市",
        "施設・場所名": "原ふれあいセンター",
        "住所": "山口県宇部市大字妻崎開作1990",
        "指定緊急避難場所との住所同一": "1",
        "その他市町村長が必要と認める事項": null,
        "受入対象者": null,
        "備考": ""
      }
    },
    {
      "type": "Feature",
      "geometry": {
        "type": "Point",
        "coordinates": [
          131.231751,
          34.009565
        ]
      },
      "properties": {
        "NO": 64158,
        "共通ID": "E3520200054111",
        "都道府県名及び市町村名": "山口県宇部市",
        "施設・場所名": "西宇部小学校",
        "住所": "山口県宇部市大字際波527-1",
        "指定緊急避難場所との住所同一": "1",
        "その他市町村長が必要と認める事項": null,
        "受入対象者": null,
        "備考": ""
      }
    },
    {
      "type": "Feature",
      "geometry": {
        "type": "Point",
        "coordinates": [
          131.291704,
          34.056605
        ]
      },
      "properties": {
        "NO": 64159,
        "共通ID": "E3520200056111",
        "都道府県名及び市町村名": "山口県宇部市",
        "施設・場所名": "二俣瀬ふれあいセンター",
        "住所": "山口県宇部市大字車地173",
        "指定緊急避難場所との住所同一": "1",
        "その他市町村長が必要と認める事項": null,
        "受入対象者": null,
        "備考": ""
      }
    },
    {
      "type": "Feature",
      "geometry": {
        "type": "Point",
        "coordinates": [
          131.292424,
          34.058149
        ]
      },
      "properties": {
        "NO": 64160,
        "共通ID": "E3520200057111",
        "都道府県名及び市町村名": "山口県宇部市",
        "施設・場所名": "二俣瀬小学校",
        "住所": "山口県宇部市大字車地36",
        "指定緊急避難場所との住所同一": "1",
        "その他市町村長が必要と認める事項": null,
        "受入対象者": null,
        "備考": ""
      }
    },
    {
      "type": "Feature",
      "geometry": {
        "type": "Point",
        "coordinates": [
          131.25047,
          33.971701
        ]
      },
      "properties": {
        "NO": 64161,
        "共通ID": "E3520200059111",
        "都道府県名及び市町村名": "山口県宇部市",
        "施設・場所名": "桃山中学校",
        "住所": "山口県宇部市大字小串671",
        "指定緊急避難場所との住所同一": "1",
        "その他市町村長が必要と認める事項": null,
        "受入対象者": null,
        "備考": ""
      }
    },
    {
      "type": "Feature",
      "geometry": {
        "type": "Point",
        "coordinates": [
          131.32034,
          34.116588
        ]
      },
      "properties": {
        "NO": 64162,
        "共通ID": "E3520200062111",
        "都道府県名及び市町村名": "山口県宇部市",
        "施設・場所名": "小野ふれあいセンター",
        "住所": "山口県宇部市大字小野8294-4",
        "指定緊急避難場所との住所同一": "1",
        "その他市町村長が必要と認める事項": null,
        "受入対象者": null,
        "備考": ""
      }
    },
    {
      "type": "Feature",
      "geometry": {
        "type": "Point",
        "coordinates": [
          131.32041,
          34.115544
        ]
      },
      "properties": {
        "NO": 64163,
        "共通ID": "E3520200063111",
        "都道府県名及び市町村名": "山口県宇部市",
        "施設・場所名": "小野小学校",
        "住所": "山口県宇部市大字小野8317-2",
        "指定緊急避難場所との住所同一": "1",
        "その他市町村長が必要と認める事項": null,
        "受入対象者": null,
        "備考": ""
      }
    },
    {
      "type": "Feature",
      "geometry": {
        "type": "Point",
        "coordinates": [
          131.293616,
          33.947604
        ]
      },
      "properties": {
        "NO": 64164,
        "共通ID": "E3520200067111",
        "都道府県名及び市町村名": "山口県宇部市",
        "施設・場所名": "常盤小学校",
        "住所": "山口県宇部市大字西岐波1337-12",
        "指定緊急避難場所との住所同一": "1",
        "その他市町村長が必要と認める事項": null,
        "受入対象者": null,
        "備考": ""
      }
    },
    {
      "type": "Feature",
      "geometry": {
        "type": "Point",
        "coordinates": [
          131.285149,
          33.977106
        ]
      },
      "properties": {
        "NO": 64165,
        "共通ID": "E3520200074111",
        "都道府県名及び市町村名": "山口県宇部市",
        "施設・場所名": "川上中学校",
        "住所": "山口県宇部市大字西岐波6531",
        "指定緊急避難場所との住所同一": "1",
        "その他市町村長が必要と認める事項": null,
        "受入対象者": null,
        "備考": ""
      }
    },
    {
      "type": "Feature",
      "geometry": {
        "type": "Point",
        "coordinates": [
          131.239328,
          34.073521
        ]
      },
      "properties": {
        "NO": 64166,
        "共通ID": "E3520200076111",
        "都道府県名及び市町村名": "山口県宇部市",
        "施設・場所名": "楠若者センター",
        "住所": "山口県宇部市大字西万倉1518-5",
        "指定緊急避難場所との住所同一": "",
        "その他市町村長が必要と認める事項": null,
        "受入対象者": null,
        "備考": ""
      }
    },
    {
      "type": "Feature",
      "geometry": {
        "type": "Point",
        "coordinates": [
          131.24278,
          34.071185
        ]
      },
      "properties": {
        "NO": 64167,
        "共通ID": "E3520200077111",
        "都道府県名及び市町村名": "山口県宇部市",
        "施設・場所名": "万倉ふれあいセンター",
        "住所": "山口県宇部市大字西万倉1672",
        "指定緊急避難場所との住所同一": "1",
        "その他市町村長が必要と認める事項": null,
        "受入対象者": null,
        "備考": ""
      }
    },
    {
      "type": "Feature",
      "geometry": {
        "type": "Point",
        "coordinates": [
          131.239796,
          34.072485
        ]
      },
      "properties": {
        "NO": 64168,
        "共通ID": "E3520200078111",
        "都道府県名及び市町村名": "山口県宇部市",
        "施設・場所名": "万倉小学校",
        "住所": "山口県宇部市大字西万倉1761-1",
        "指定緊急避難場所との住所同一": "1",
        "その他市町村長が必要と認める事項": null,
        "受入対象者": null,
        "備考": ""
      }
    },
    {
      "type": "Feature",
      "geometry": {
        "type": "Point",
        "coordinates": [
          131.279328,
          33.97647
        ]
      },
      "properties": {
        "NO": 64169,
        "共通ID": "E3520200079111",
        "都道府県名及び市町村名": "山口県宇部市",
        "施設・場所名": "川上ふれあいセンター",
        "住所": "山口県宇部市大字川上81-1",
        "指定緊急避難場所との住所同一": "1",
        "その他市町村長が必要と認める事項": null,
        "受入対象者": null,
        "備考": ""
      }
    },
    {
      "type": "Feature",
      "geometry": {
        "type": "Point",
        "coordinates": [
          131.224867,
          34.045201
        ]
      },
      "properties": {
        "NO": 64170,
        "共通ID": "E3520200080111",
        "都道府県名及び市町村名": "山口県宇部市",
        "施設・場所名": "船木ふれあいセンター",
        "住所": "山口県宇部市大字船木179-1",
        "指定緊急避難場所との住所同一": "1",
        "その他市町村長が必要と認める事項": null,
        "受入対象者": null,
        "備考": ""
      }
    },
    {
      "type": "Feature",
      "geometry": {
        "type": "Point",
        "coordinates": [
          131.216437,
          34.046302
        ]
      },
      "properties": {
        "NO": 64171,
        "共通ID": "E3520200082111",
        "都道府県名及び市町村名": "山口県宇部市",
        "施設・場所名": "船木小学校",
        "住所": "山口県宇部市大字船木4483",
        "指定緊急避難場所との住所同一": "1",
        "その他市町村長が必要と認める事項": null,
        "受入対象者": null,
        "備考": ""
      }
    },
    {
      "type": "Feature",
      "geometry": {
        "type": "Point",
        "coordinates": [
          131.248948,
          34.024247
        ]
      },
      "properties": {
        "NO": 64172,
        "共通ID": "E3520200085111",
        "都道府県名及び市町村名": "山口県宇部市",
        "施設・場所名": "厚東ふれあいセンター",
        "住所": "山口県宇部市大字棚井68-2",
        "指定緊急避難場所との住所同一": "1",
        "その他市町村長が必要と認める事項": null,
        "受入対象者": null,
        "備考": ""
      }
    },
    {
      "type": "Feature",
      "geometry": {
        "type": "Point",
        "coordinates": [
          131.248746,
          34.027078
        ]
      },
      "properties": {
        "NO": 64173,
        "共通ID": "E3520200086111",
        "都道府県名及び市町村名": "山口県宇部市",
        "施設・場所名": "厚東小学校",
        "住所": "山口県宇部市大字棚井7-1",
        "指定緊急避難場所との住所同一": "1",
        "その他市町村長が必要と認める事項": null,
        "受入対象者": null,
        "備考": ""
      }
    },
    {
      "type": "Feature",
      "geometry": {
        "type": "Point",
        "coordinates": [
          131.337435,
          33.978175
        ]
      },
      "properties": {
        "NO": 64174,
        "共通ID": "E3520200091111",
        "都道府県名及び市町村名": "山口県宇部市",
        "施設・場所名": "東岐波中学校",
        "住所": "山口県宇部市大字東岐波3828",
        "指定緊急避難場所との住所同一": "1",
        "その他市町村長が必要と認める事項": null,
        "受入対象者": null,
        "備考": ""
      }
    },
    {
      "type": "Feature",
      "geometry": {
        "type": "Point",
        "coordinates": [
          131.339549,
          33.980964
        ]
      },
      "properties": {
        "NO": 64175,
        "共通ID": "E3520200092111",
        "都道府県名及び市町村名": "山口県宇部市",
        "施設・場所名": "東岐波ふれあいセンター",
        "住所": "山口県宇部市大字東岐波3829",
        "指定緊急避難場所との住所同一": "1",
        "その他市町村長が必要と認める事項": null,
        "受入対象者": null,
        "備考": ""
      }
    },
    {
      "type": "Feature",
      "geometry": {
        "type": "Point",
        "coordinates": [
          131.338964,
          33.980885
        ]
      },
      "properties": {
        "NO": 64176,
        "共通ID": "E3520200093111",
        "都道府県名及び市町村名": "山口県宇部市",
        "施設・場所名": "東岐波小学校",
        "住所": "山口県宇部市大字東岐波3853",
        "指定緊急避難場所との住所同一": "1",
        "その他市町村長が必要と認める事項": null,
        "受入対象者": null,
        "備考": ""
      }
    },
    {
      "type": "Feature",
      "geometry": {
        "type": "Point",
        "coordinates": [
          131.282607,
          34.125063
        ]
      },
      "properties": {
        "NO": 64177,
        "共通ID": "E3520200096111",
        "都道府県名及び市町村名": "山口県宇部市",
        "施設・場所名": "吉部ふれあいセンター",
        "住所": "山口県宇部市大字東吉部3330-7",
        "指定緊急避難場所との住所同一": "1",
        "その他市町村長が必要と認める事項": null,
        "受入対象者": null,
        "備考": ""
      }
    },
    {
      "type": "Feature",
      "geometry": {
        "type": "Point",
        "coordinates": [
          131.281882,
          34.124813
        ]
      },
      "properties": {
        "NO": 64178,
        "共通ID": "E3520200097111",
        "都道府県名及び市町村名": "山口県宇部市",
        "施設・場所名": "吉部小学校",
        "住所": "山口県宇部市大字東吉部3425-1",
        "指定緊急避難場所との住所同一": "1",
        "その他市町村長が必要と認める事項": null,
        "受入対象者": null,
        "備考": ""
      }
    },
    {
      "type": "Feature",
      "geometry": {
        "type": "Point",
        "coordinates": [
          131.20943,
          33.995421
        ]
      },
      "properties": {
        "NO": 64179,
        "共通ID": "E3520200100111",
        "都道府県名及び市町村名": "山口県宇部市",
        "施設・場所名": "厚南中学校",
        "住所": "山口県宇部市大字東須恵222",
        "指定緊急避難場所との住所同一": "",
        "その他市町村長が必要と認める事項": null,
        "受入対象者": null,
        "備考": ""
      }
    },
    {
      "type": "Feature",
      "geometry": {
        "type": "Point",
        "coordinates": [
          131.208027,
          33.994499
        ]
      },
      "properties": {
        "NO": 64180,
        "共通ID": "E3520200101111",
        "都道府県名及び市町村名": "山口県宇部市",
        "施設・場所名": "厚南小学校",
        "住所": "山口県宇部市大字東須恵234",
        "指定緊急避難場所との住所同一": "1",
        "その他市町村長が必要と認める事項": null,
        "受入対象者": null,
        "備考": ""
      }
    },
    {
      "type": "Feature",
      "geometry": {
        "type": "Point",
        "coordinates": [
          131.203168,
          33.965883
        ]
      },
      "properties": {
        "NO": 64181,
        "共通ID": "E3520200103111",
        "都道府県名及び市町村名": "山口県宇部市",
        "施設・場所名": "原小学校",
        "住所": "山口県宇部市大字東須恵4267",
        "指定緊急避難場所との住所同一": "1",
        "その他市町村長が必要と認める事項": null,
        "受入対象者": null,
        "備考": ""
      }
    },
    {
      "type": "Feature",
      "geometry": {
        "type": "Point",
        "coordinates": [
          131.197549,
          33.985123
        ]
      },
      "properties": {
        "NO": 64182,
        "共通ID": "E3520200104111",
        "都道府県名及び市町村名": "山口県宇部市",
        "施設・場所名": "黒石中学校",
        "住所": "山口県宇部市大字東須恵476-2",
        "指定緊急避難場所との住所同一": "1",
        "その他市町村長が必要と認める事項": null,
        "受入対象者": null,
        "備考": ""
      }
    },
    {
      "type": "Feature",
      "geometry": {
        "type": "Point",
        "coordinates": [
          131.269257,
          33.966816
        ]
      },
      "properties": {
        "NO": 64183,
        "共通ID": "E3520200109111",
        "都道府県名及び市町村名": "山口県宇部市",
        "施設・場所名": "上宇部小学校",
        "住所": "山口県宇部市大小路3-2-17",
        "指定緊急避難場所との住所同一": "1",
        "その他市町村長が必要と認める事項": null,
        "受入対象者": null,
        "備考": ""
      }
    },
    {
      "type": "Feature",
      "geometry": {
        "type": "Point",
        "coordinates": [
          131.26268,
          33.96292
        ]
      },
      "properties": {
        "NO": 64184,
        "共通ID": "E3520200110111",
        "都道府県名及び市町村名": "山口県宇部市",
        "施設・場所名": "隣保館上宇部会館（上宇部ふれあいセンター）",
        "住所": "山口県宇部市中村2-6-15",
        "指定緊急避難場所との住所同一": "1",
        "その他市町村長が必要と認める事項": null,
        "受入対象者": null,
        "備考": ""
      }
    },
    {
      "type": "Feature",
      "geometry": {
        "type": "Point",
        "coordinates": [
          131.244669,
          33.958649
        ]
      },
      "properties": {
        "NO": 64185,
        "共通ID": "E3520200112111",
        "都道府県名及び市町村名": "山口県宇部市",
        "施設・場所名": "新川ふれあいセンター",
        "住所": "山口県宇部市朝日町8-20",
        "指定緊急避難場所との住所同一": "1",
        "その他市町村長が必要と認める事項": null,
        "受入対象者": null,
        "備考": ""
      }
    },
    {
      "type": "Feature",
      "geometry": {
        "type": "Point",
        "coordinates": [
          131.242938,
          33.962558
        ]
      },
      "properties": {
        "NO": 64186,
        "共通ID": "E3520200113111",
        "都道府県名及び市町村名": "山口県宇部市",
        "施設・場所名": "武道館",
        "住所": "山口県宇部市島3-9-30",
        "指定緊急避難場所との住所同一": "",
        "その他市町村長が必要と認める事項": null,
        "受入対象者": null,
        "備考": ""
      }
    },
    {
      "type": "Feature",
      "geometry": {
        "type": "Point",
        "coordinates": [
          131.263412,
          33.949815
        ]
      },
      "properties": {
        "NO": 64187,
        "共通ID": "E3520200114111",
        "都道府県名及び市町村名": "山口県宇部市",
        "施設・場所名": "神原中学校",
        "住所": "山口県宇部市東梶返4-8-1",
        "指定緊急避難場所との住所同一": "1",
        "その他市町村長が必要と認める事項": null,
        "受入対象者": null,
        "備考": ""
      }
    },
    {
      "type": "Feature",
      "geometry": {
        "type": "Point",
        "coordinates": [
          131.256435,
          33.954362
        ]
      },
      "properties": {
        "NO": 64188,
        "共通ID": "E3520200115111",
        "都道府県名及び市町村名": "山口県宇部市",
        "施設・場所名": "琴芝小学校",
        "住所": "山口県宇部市東琴芝2-3-48",
        "指定緊急避難場所との住所同一": "1",
        "その他市町村長が必要と認める事項": null,
        "受入対象者": null,
        "備考": ""
      }
    },
    {
      "type": "Feature",
      "geometry": {
        "type": "Point",
        "coordinates": [
          131.263366,
          33.978753
        ]
      },
      "properties": {
        "NO": 64189,
        "共通ID": "E3520200116111",
        "都道府県名及び市町村名": "山口県宇部市",
        "施設・場所名": "小羽山小学校",
        "住所": "山口県宇部市東小羽山町1-4-13",
        "指定緊急避難場所との住所同一": "1",
        "その他市町村長が必要と認める事項": null,
        "受入対象者": null,
        "備考": ""
      }
    },
    {
      "type": "Feature",
      "geometry": {
        "type": "Point",
        "coordinates": [
          131.229334,
          33.974037
        ]
      },
      "properties": {
        "NO": 64190,
        "共通ID": "E3520200119111",
        "都道府県名及び市町村名": "山口県宇部市",
        "施設・場所名": "藤山中学校",
        "住所": "山口県宇部市文京町10-50",
        "指定緊急避難場所との住所同一": "",
        "その他市町村長が必要と認める事項": null,
        "受入対象者": null,
        "備考": ""
      }
    },
    {
      "type": "Feature",
      "geometry": {
        "type": "Point",
        "coordinates": [
          131.227607,
          33.974716
        ]
      },
      "properties": {
        "NO": 64191,
        "共通ID": "E3520200120111",
        "都道府県名及び市町村名": "山口県宇部市",
        "施設・場所名": "藤山ふれあいセンター",
        "住所": "山口県宇部市文京町11-13",
        "指定緊急避難場所との住所同一": "1",
        "その他市町村長が必要と認める事項": null,
        "受入対象者": null,
        "備考": ""
      }
    },
    {
      "type": "Feature",
      "geometry": {
        "type": "Point",
        "coordinates": [
          131.259519,
          33.978493
        ]
      },
      "properties": {
        "NO": 64192,
        "共通ID": "E3520200121111",
        "都道府県名及び市町村名": "山口県宇部市",
        "施設・場所名": "小羽山ふれあいセンター",
        "住所": "山口県宇部市北小羽山町2-6-50",
        "指定緊急避難場所との住所同一": "1",
        "その他市町村長が必要と認める事項": null,
        "受入対象者": null,
        "備考": ""
      }
    }
  ]
}