{
  "type": "FeatureCollection",
  "name": "352110",
  "features": [
    {
      "type": "Feature",
      "geometry": {
        "type": "Point",
        "coordinates": [
          131.223003,
          34.370141
        ]
      },
      "properties": {
        "NO": 64664,
        "共通ID": "E3521100001111",
        "都道府県名及び市町村名": "山口県長門市",
        "施設・場所名": "浅田小学校（屋内運動場）",
        "住所": "山口県長門市三隅下2002-2",
        "指定緊急避難場所との住所同一": "1",
        "その他市町村長が必要と認める事項": null,
        "受入対象者": null,
        "備考": ""
      }
    },
    {
      "type": "Feature",
      "geometry": {
        "type": "Point",
        "coordinates": [
          131.248012,
          34.365313
        ]
      },
      "properties": {
        "NO": 64665,
        "共通ID": "E3521100007111",
        "都道府県名及び市町村名": "山口県長門市",
        "施設・場所名": "三隅中学校（屋内運動場）",
        "住所": "山口県長門市三隅中1504",
        "指定緊急避難場所との住所同一": "1",
        "その他市町村長が必要と認める事項": null,
        "受入対象者": null,
        "備考": ""
      }
    },
    {
      "type": "Feature",
      "geometry": {
        "type": "Point",
        "coordinates": [
          131.262147,
          34.359943
        ]
      },
      "properties": {
        "NO": 64666,
        "共通ID": "E3521100009111",
        "都道府県名及び市町村名": "山口県長門市",
        "施設・場所名": "湯免ふれあいセンター",
        "住所": "山口県長門市三隅中251-6",
        "指定緊急避難場所との住所同一": "1",
        "その他市町村長が必要と認める事項": null,
        "受入対象者": null,
        "備考": ""
      }
    },
    {
      "type": "Feature",
      "geometry": {
        "type": "Point",
        "coordinates": [
          131.196808,
          34.377996
        ]
      },
      "properties": {
        "NO": 64667,
        "共通ID": "E3521100017111",
        "都道府県名及び市町村名": "山口県長門市",
        "施設・場所名": "ながと総合体育館",
        "住所": "山口県長門市仙崎10818-1",
        "指定緊急避難場所との住所同一": "1",
        "その他市町村長が必要と認める事項": null,
        "受入対象者": null,
        "備考": ""
      }
    },
    {
      "type": "Feature",
      "geometry": {
        "type": "Point",
        "coordinates": [
          131.199991,
          34.383024
        ]
      },
      "properties": {
        "NO": 64668,
        "共通ID": "E3521100018111",
        "都道府県名及び市町村名": "山口県長門市",
        "施設・場所名": "仙崎中学校（屋内運動場）",
        "住所": "山口県長門市仙崎11181-1",
        "指定緊急避難場所との住所同一": "1",
        "その他市町村長が必要と認める事項": null,
        "受入対象者": null,
        "備考": ""
      }
    },
    {
      "type": "Feature",
      "geometry": {
        "type": "Point",
        "coordinates": [
          131.196866,
          34.390172
        ]
      },
      "properties": {
        "NO": 64669,
        "共通ID": "E3521100019111",
        "都道府県名及び市町村名": "山口県長門市",
        "施設・場所名": "仙崎小学校（屋内運動場）",
        "住所": "山口県長門市仙崎1230",
        "指定緊急避難場所との住所同一": "1",
        "その他市町村長が必要と認める事項": null,
        "受入対象者": null,
        "備考": ""
      }
    },
    {
      "type": "Feature",
      "geometry": {
        "type": "Point",
        "coordinates": [
          131.255725,
          34.419705
        ]
      },
      "properties": {
        "NO": 64670,
        "共通ID": "E3521100023111",
        "都道府県名及び市町村名": "山口県長門市",
        "施設・場所名": "通小学校（屋内運動場）",
        "住所": "山口県長門市通1211-1",
        "指定緊急避難場所との住所同一": "1",
        "その他市町村長が必要と認める事項": null,
        "受入対象者": null,
        "備考": ""
      }
    },
    {
      "type": "Feature",
      "geometry": {
        "type": "Point",
        "coordinates": [
          131.186745,
          34.363929
        ]
      },
      "properties": {
        "NO": 64671,
        "共通ID": "E3521100028111",
        "都道府県名及び市町村名": "山口県長門市",
        "施設・場所名": "深川中学校（屋内運動場）",
        "住所": "山口県長門市東深川2714-1",
        "指定緊急避難場所との住所同一": "1",
        "その他市町村長が必要と認める事項": null,
        "受入対象者": null,
        "備考": ""
      }
    },
    {
      "type": "Feature",
      "geometry": {
        "type": "Point",
        "coordinates": [
          131.098251,
          34.385401
        ]
      },
      "properties": {
        "NO": 64672,
        "共通ID": "E3521100036111",
        "都道府県名及び市町村名": "山口県長門市",
        "施設・場所名": "日置小学校（屋内運動場）",
        "住所": "山口県長門市日置上6150-1",
        "指定緊急避難場所との住所同一": "1",
        "その他市町村長が必要と認める事項": null,
        "受入対象者": null,
        "備考": ""
      }
    },
    {
      "type": "Feature",
      "geometry": {
        "type": "Point",
        "coordinates": [
          131.096686,
          34.386674
        ]
      },
      "properties": {
        "NO": 64673,
        "共通ID": "E3521100037111",
        "都道府県名及び市町村名": "山口県長門市",
        "施設・場所名": "日置中学校（屋内運動場）（日置地域づくりセンターを含む。）",
        "住所": "山口県長門市日置上6215",
        "指定緊急避難場所との住所同一": "1",
        "その他市町村長が必要と認める事項": null,
        "受入対象者": null,
        "備考": ""
      }
    },
    {
      "type": "Feature",
      "geometry": {
        "type": "Point",
        "coordinates": [
          131.101773,
          34.285479
        ]
      },
      "properties": {
        "NO": 64674,
        "共通ID": "E3521100038111",
        "都道府県名及び市町村名": "山口県長門市",
        "施設・場所名": "俵山多目的交流広場（クラブハウス）",
        "住所": "山口県長門市俵山11356",
        "指定緊急避難場所との住所同一": "1",
        "その他市町村長が必要と認める事項": null,
        "受入対象者": null,
        "備考": ""
      }
    },
    {
      "type": "Feature",
      "geometry": {
        "type": "Point",
        "coordinates": [
          130.977307,
          34.414179
        ]
      },
      "properties": {
        "NO": 64675,
        "共通ID": "E3521100051111",
        "都道府県名及び市町村名": "山口県長門市",
        "施設・場所名": "向津具小学校（屋内運動場）",
        "住所": "山口県長門市油谷向津具下4102-1",
        "指定緊急避難場所との住所同一": "1",
        "その他市町村長が必要と認める事項": null,
        "受入対象者": null,
        "備考": ""
      }
    },
    {
      "type": "Feature",
      "geometry": {
        "type": "Point",
        "coordinates": [
          131.056328,
          34.370407
        ]
      },
      "properties": {
        "NO": 64676,
        "共通ID": "E3521100052111",
        "都道府県名及び市町村名": "山口県長門市",
        "施設・場所名": "油谷小学校（屋内運動場）",
        "住所": "山口県長門市油谷新別名10666",
        "指定緊急避難場所との住所同一": "1",
        "その他市町村長が必要と認める事項": null,
        "受入対象者": null,
        "備考": ""
      }
    },
    {
      "type": "Feature",
      "geometry": {
        "type": "Point",
        "coordinates": [
          131.054676,
          34.369346
        ]
      },
      "properties": {
        "NO": 64677,
        "共通ID": "E3521100055111",
        "都道府県名及び市町村名": "山口県長門市",
        "施設・場所名": "ラポールゆや",
        "住所": "山口県長門市油谷新別名10833",
        "指定緊急避難場所との住所同一": "1",
        "その他市町村長が必要と認める事項": null,
        "受入対象者": null,
        "備考": ""
      }
    },
    {
      "type": "Feature",
      "geometry": {
        "type": "Point",
        "coordinates": [
          131.352883,
          34.397436
        ]
      },
      "properties": {
        "NO": 64678,
        "共通ID": "E3521100058111",
        "都道府県名及び市町村名": "山口県長門市",
        "施設・場所名": "萩・長門清掃工場「はなもゆ」",
        "住所": "山口県萩市大字山田2406",
        "指定緊急避難場所との住所同一": "1",
        "その他市町村長が必要と認める事項": null,
        "受入対象者": null,
        "備考": ""
      }
    }
  ]
}