{
  "type": "FeatureCollection",
  "name": "352161",
  "features": [
    {
      "type": "Feature",
      "geometry": {
        "type": "Point",
        "coordinates": [
          131.175255,
          33.990978
        ]
      },
      "properties": {
        "NO": 64893,
        "共通ID": "E3521600001111",
        "都道府県名及び市町村名": "山口県山陽小野田市",
        "施設・場所名": "市民館",
        "住所": "山口県山陽小野田市栄町9-25",
        "指定緊急避難場所との住所同一": "1",
        "その他市町村長が必要と認める事項": null,
        "受入対象者": null,
        "備考": ""
      }
    },
    {
      "type": "Feature",
      "geometry": {
        "type": "Point",
        "coordinates": [
          131.202747,
          34.017308
        ]
      },
      "properties": {
        "NO": 64894,
        "共通ID": "E3521600002111",
        "都道府県名及び市町村名": "山口県山陽小野田市",
        "施設・場所名": "有帆コミュニティ体育館",
        "住所": "山口県山陽小野田市新有帆町1-1",
        "指定緊急避難場所との住所同一": "1",
        "その他市町村長が必要と認める事項": null,
        "受入対象者": null,
        "備考": ""
      }
    },
    {
      "type": "Feature",
      "geometry": {
        "type": "Point",
        "coordinates": [
          131.202597,
          34.01697
        ]
      },
      "properties": {
        "NO": 64895,
        "共通ID": "E3521600002112",
        "都道府県名及び市町村名": "山口県山陽小野田市",
        "施設・場所名": "有帆地域交流センター",
        "住所": "山口県山陽小野田市新有帆町1-1",
        "指定緊急避難場所との住所同一": "1",
        "その他市町村長が必要と認める事項": null,
        "受入対象者": null,
        "備考": ""
      }
    },
    {
      "type": "Feature",
      "geometry": {
        "type": "Point",
        "coordinates": [
          131.201589,
          34.019043
        ]
      },
      "properties": {
        "NO": 64896,
        "共通ID": "E3521600004111",
        "都道府県名及び市町村名": "山口県山陽小野田市",
        "施設・場所名": "有帆小学校",
        "住所": "山口県山陽小野田市新有帆町4-1",
        "指定緊急避難場所との住所同一": "1",
        "その他市町村長が必要と認める事項": null,
        "受入対象者": null,
        "備考": ""
      }
    },
    {
      "type": "Feature",
      "geometry": {
        "type": "Point",
        "coordinates": [
          131.17931,
          33.975084
        ]
      },
      "properties": {
        "NO": 64897,
        "共通ID": "E3521600005111",
        "都道府県名及び市町村名": "山口県山陽小野田市",
        "施設・場所名": "須恵コミュニティ体育館",
        "住所": "山口県山陽小野田市須恵1-1-1",
        "指定緊急避難場所との住所同一": "1",
        "その他市町村長が必要と認める事項": null,
        "受入対象者": null,
        "備考": ""
      }
    },
    {
      "type": "Feature",
      "geometry": {
        "type": "Point",
        "coordinates": [
          131.173512,
          33.964333
        ]
      },
      "properties": {
        "NO": 64898,
        "共通ID": "E3521600006111",
        "都道府県名及び市町村名": "山口県山陽小野田市",
        "施設・場所名": "赤崎地域交流センター",
        "住所": "山口県山陽小野田市赤崎1-1-1",
        "指定緊急避難場所との住所同一": "1",
        "その他市町村長が必要と認める事項": null,
        "受入対象者": null,
        "備考": ""
      }
    },
    {
      "type": "Feature",
      "geometry": {
        "type": "Point",
        "coordinates": [
          131.160161,
          34.056352
        ]
      },
      "properties": {
        "NO": 64899,
        "共通ID": "E3521600010111",
        "都道府県名及び市町村名": "山口県山陽小野田市",
        "施設・場所名": "厚狭地区複合施設",
        "住所": "山口県山陽小野田市大字鴨庄94",
        "指定緊急避難場所との住所同一": "1",
        "その他市町村長が必要と認める事項": null,
        "受入対象者": null,
        "備考": ""
      }
    },
    {
      "type": "Feature",
      "geometry": {
        "type": "Point",
        "coordinates": [
          131.185228,
          33.981087
        ]
      },
      "properties": {
        "NO": 64900,
        "共通ID": "E3521600011111",
        "都道府県名及び市町村名": "山口県山陽小野田市",
        "施設・場所名": "小野田中学校",
        "住所": "山口県山陽小野田市大字丸河内1018",
        "指定緊急避難場所との住所同一": "1",
        "その他市町村長が必要と認める事項": null,
        "受入対象者": null,
        "備考": ""
      }
    },
    {
      "type": "Feature",
      "geometry": {
        "type": "Point",
        "coordinates": [
          131.14543,
          34.022283
        ]
      },
      "properties": {
        "NO": 64901,
        "共通ID": "E3521600014111",
        "都道府県名及び市町村名": "山口県山陽小野田市",
        "施設・場所名": "旧厚陽中学校体育館",
        "住所": "山口県山陽小野田市大字郡3250",
        "指定緊急避難場所との住所同一": "1",
        "その他市町村長が必要と認める事項": null,
        "受入対象者": null,
        "備考": ""
      }
    },
    {
      "type": "Feature",
      "geometry": {
        "type": "Point",
        "coordinates": [
          131.141535,
          34.019626
        ]
      },
      "properties": {
        "NO": 64902,
        "共通ID": "E3521600015111",
        "都道府県名及び市町村名": "山口県山陽小野田市",
        "施設・場所名": "厚陽小・中学校",
        "住所": "山口県山陽小野田市大字郡3492",
        "指定緊急避難場所との住所同一": "1",
        "その他市町村長が必要と認める事項": null,
        "受入対象者": null,
        "備考": ""
      }
    },
    {
      "type": "Feature",
      "geometry": {
        "type": "Point",
        "coordinates": [
          131.169318,
          34.056869
        ]
      },
      "properties": {
        "NO": 64903,
        "共通ID": "E3521600022111",
        "都道府県名及び市町村名": "山口県山陽小野田市",
        "施設・場所名": "厚狭小学校",
        "住所": "山口県山陽小野田市大字厚狭897",
        "指定緊急避難場所との住所同一": "1",
        "その他市町村長が必要と認める事項": null,
        "受入対象者": null,
        "備考": ""
      }
    },
    {
      "type": "Feature",
      "geometry": {
        "type": "Point",
        "coordinates": [
          131.150517,
          34.060464
        ]
      },
      "properties": {
        "NO": 64904,
        "共通ID": "E3521600066111",
        "都道府県名及び市町村名": "山口県山陽小野田市",
        "施設・場所名": "厚狭中学校",
        "住所": "山口県山陽小野田市大字山川841",
        "指定緊急避難場所との住所同一": "1",
        "その他市町村長が必要と認める事項": "",
        "受入対象者": "",
        "備考": ""
      }
    },
    {
      "type": "Feature",
      "geometry": {
        "type": "Point",
        "coordinates": [
          131.13748,
          34.058506
        ]
      },
      "properties": {
        "NO": 64905,
        "共通ID": "E3521600067111",
        "都道府県名及び市町村名": "山口県山陽小野田市",
        "施設・場所名": "出合地域交流センター",
        "住所": "山口県山陽小野田市大字山野井11601-20",
        "指定緊急避難場所との住所同一": "",
        "その他市町村長が必要と認める事項": "",
        "受入対象者": "",
        "備考": ""
      }
    },
    {
      "type": "Feature",
      "geometry": {
        "type": "Point",
        "coordinates": [
          131.173942,
          33.941908
        ]
      },
      "properties": {
        "NO": 64906,
        "共通ID": "E3521600031111",
        "都道府県名及び市町村名": "山口県山陽小野田市",
        "施設・場所名": "本山地域交流センター",
        "住所": "山口県山陽小野田市大字小野田275-2",
        "指定緊急避難場所との住所同一": "1",
        "その他市町村長が必要と認める事項": null,
        "受入対象者": null,
        "備考": ""
      }
    },
    {
      "type": "Feature",
      "geometry": {
        "type": "Point",
        "coordinates": [
          131.173196,
          33.942153
        ]
      },
      "properties": {
        "NO": 64907,
        "共通ID": "E3521600032111",
        "都道府県名及び市町村名": "山口県山陽小野田市",
        "施設・場所名": "本山コミュニティ体育館",
        "住所": "山口県山陽小野田市大字小野田275-3",
        "指定緊急避難場所との住所同一": "1",
        "その他市町村長が必要と認める事項": null,
        "受入対象者": null,
        "備考": ""
      }
    },
    {
      "type": "Feature",
      "geometry": {
        "type": "Point",
        "coordinates": [
          131.183045,
          33.959263
        ]
      },
      "properties": {
        "NO": 64908,
        "共通ID": "E3521600033111",
        "都道府県名及び市町村名": "山口県山陽小野田市",
        "施設・場所名": "竜王中学校",
        "住所": "山口県山陽小野田市大字小野田3923",
        "指定緊急避難場所との住所同一": "1",
        "その他市町村長が必要と認める事項": null,
        "受入対象者": null,
        "備考": ""
      }
    },
    {
      "type": "Feature",
      "geometry": {
        "type": "Point",
        "coordinates": [
          131.175564,
          33.95923
        ]
      },
      "properties": {
        "NO": 64909,
        "共通ID": "E3521600034111",
        "都道府県名及び市町村名": "山口県山陽小野田市",
        "施設・場所名": "赤崎小学校",
        "住所": "山口県山陽小野田市大字小野田4402",
        "指定緊急避難場所との住所同一": "1",
        "その他市町村長が必要と認める事項": null,
        "受入対象者": null,
        "備考": ""
      }
    },
    {
      "type": "Feature",
      "geometry": {
        "type": "Point",
        "coordinates": [
          131.172556,
          33.948219
        ]
      },
      "properties": {
        "NO": 64910,
        "共通ID": "E3521600035111",
        "都道府県名及び市町村名": "山口県山陽小野田市",
        "施設・場所名": "本山小学校",
        "住所": "山口県山陽小野田市大字小野田482",
        "指定緊急避難場所との住所同一": "1",
        "その他市町村長が必要と認める事項": null,
        "受入対象者": null,
        "備考": ""
      }
    },
    {
      "type": "Feature",
      "geometry": {
        "type": "Point",
        "coordinates": [
          131.181728,
          33.971985
        ]
      },
      "properties": {
        "NO": 64911,
        "共通ID": "E3521600036111",
        "都道府県名及び市町村名": "山口県山陽小野田市",
        "施設・場所名": "須恵小学校",
        "住所": "山口県山陽小野田市大字小野田5258",
        "指定緊急避難場所との住所同一": "1",
        "その他市町村長が必要と認める事項": null,
        "受入対象者": null,
        "備考": ""
      }
    },
    {
      "type": "Feature",
      "geometry": {
        "type": "Point",
        "coordinates": [
          131.093858,
          34.039311
        ]
      },
      "properties": {
        "NO": 64912,
        "共通ID": "E3521600039111",
        "都道府県名及び市町村名": "山口県山陽小野田市",
        "施設・場所名": "埴生地域交流センター",
        "住所": "山口県山陽小野田市大字埴生275",
        "指定緊急避難場所との住所同一": "1",
        "その他市町村長が必要と認める事項": "",
        "受入対象者": "",
        "備考": ""
      }
    },
    {
      "type": "Feature",
      "geometry": {
        "type": "Point",
        "coordinates": [
          131.093366,
          34.04035
        ]
      },
      "properties": {
        "NO": 64913,
        "共通ID": "E3521600040111",
        "都道府県名及び市町村名": "山口県山陽小野田市",
        "施設・場所名": "埴生小・中学校",
        "住所": "山口県山陽小野田市大字埴生283",
        "指定緊急避難場所との住所同一": "1",
        "その他市町村長が必要と認める事項": null,
        "受入対象者": null,
        "備考": ""
      }
    },
    {
      "type": "Feature",
      "geometry": {
        "type": "Point",
        "coordinates": [
          131.153319,
          34.006007
        ]
      },
      "properties": {
        "NO": 64914,
        "共通ID": "E3521600042111",
        "都道府県名及び市町村名": "山口県山陽小野田市",
        "施設・場所名": "高泊コミュニティ体育館",
        "住所": "山口県山陽小野田市大字西高泊2274-1",
        "指定緊急避難場所との住所同一": "1",
        "その他市町村長が必要と認める事項": null,
        "受入対象者": null,
        "備考": ""
      }
    },
    {
      "type": "Feature",
      "geometry": {
        "type": "Point",
        "coordinates": [
          131.153357,
          34.006347
        ]
      },
      "properties": {
        "NO": 64915,
        "共通ID": "E3521600042112",
        "都道府県名及び市町村名": "山口県山陽小野田市",
        "施設・場所名": "高泊地域交流センター",
        "住所": "山口県山陽小野田市大字西高泊2274-1",
        "指定緊急避難場所との住所同一": "1",
        "その他市町村長が必要と認める事項": null,
        "受入対象者": null,
        "備考": ""
      }
    },
    {
      "type": "Feature",
      "geometry": {
        "type": "Point",
        "coordinates": [
          131.164726,
          34.007143
        ]
      },
      "properties": {
        "NO": 64916,
        "共通ID": "E3521600044111",
        "都道府県名及び市町村名": "山口県山陽小野田市",
        "施設・場所名": "高泊小学校",
        "住所": "山口県山陽小野田市大字西高泊923",
        "指定緊急避難場所との住所同一": "1",
        "その他市町村長が必要と認める事項": null,
        "受入対象者": null,
        "備考": ""
      }
    },
    {
      "type": "Feature",
      "geometry": {
        "type": "Point",
        "coordinates": [
          131.112433,
          34.020777
        ]
      },
      "properties": {
        "NO": 64917,
        "共通ID": "E3521600045111",
        "都道府県名及び市町村名": "山口県山陽小野田市",
        "施設・場所名": "旧津布田小学校",
        "住所": "山口県山陽小野田市大字津布田1028-1",
        "指定緊急避難場所との住所同一": "1",
        "その他市町村長が必要と認める事項": null,
        "受入対象者": null,
        "備考": ""
      }
    },
    {
      "type": "Feature",
      "geometry": {
        "type": "Point",
        "coordinates": [
          131.179479,
          33.975838
        ]
      },
      "properties": {
        "NO": 64918,
        "共通ID": "E3521600052111",
        "都道府県名及び市町村名": "山口県山陽小野田市",
        "施設・場所名": "須恵地域交流センター",
        "住所": "山口県山陽小野田市中央4-4-1",
        "指定緊急避難場所との住所同一": "1",
        "その他市町村長が必要と認める事項": null,
        "受入対象者": null,
        "備考": ""
      }
    },
    {
      "type": "Feature",
      "geometry": {
        "type": "Point",
        "coordinates": [
          131.176117,
          33.98696
        ]
      },
      "properties": {
        "NO": 64919,
        "共通ID": "E3521600053111",
        "都道府県名及び市町村名": "山口県山陽小野田市",
        "施設・場所名": "小野田小学校",
        "住所": "山口県山陽小野田市中川3-2-1",
        "指定緊急避難場所との住所同一": "1",
        "その他市町村長が必要と認める事項": null,
        "受入対象者": null,
        "備考": ""
      }
    },
    {
      "type": "Feature",
      "geometry": {
        "type": "Point",
        "coordinates": [
          131.173931,
          33.990889
        ]
      },
      "properties": {
        "NO": 64920,
        "共通ID": "E3521600054111",
        "都道府県名及び市町村名": "山口県山陽小野田市",
        "施設・場所名": "市民体育館",
        "住所": "山口県山陽小野田市中川5-2-1",
        "指定緊急避難場所との住所同一": "1",
        "その他市町村長が必要と認める事項": null,
        "受入対象者": null,
        "備考": ""
      }
    },
    {
      "type": "Feature",
      "geometry": {
        "type": "Point",
        "coordinates": [
          131.173236,
          33.991087
        ]
      },
      "properties": {
        "NO": 64921,
        "共通ID": "E3521600054112",
        "都道府県名及び市町村名": "山口県山陽小野田市",
        "施設・場所名": "武道館（柔剣道場）",
        "住所": "山口県山陽小野田市中川5-2-1",
        "指定緊急避難場所との住所同一": "1",
        "その他市町村長が必要と認める事項": null,
        "受入対象者": null,
        "備考": ""
      }
    },
    {
      "type": "Feature",
      "geometry": {
        "type": "Point",
        "coordinates": [
          131.182146,
          34.007376
        ]
      },
      "properties": {
        "NO": 64922,
        "共通ID": "E3521600057111",
        "都道府県名及び市町村名": "山口県山陽小野田市",
        "施設・場所名": "高千帆地域交流センター分館",
        "住所": "山口県山陽小野田市日の出3-14-1",
        "指定緊急避難場所との住所同一": "1",
        "その他市町村長が必要と認める事項": null,
        "受入対象者": null,
        "備考": ""
      }
    },
    {
      "type": "Feature",
      "geometry": {
        "type": "Point",
        "coordinates": [
          131.184372,
          34.010111
        ]
      },
      "properties": {
        "NO": 64923,
        "共通ID": "E3521600058111",
        "都道府県名及び市町村名": "山口県山陽小野田市",
        "施設・場所名": "高千帆小学校",
        "住所": "山口県山陽小野田市揥山1-25-1",
        "指定緊急避難場所との住所同一": "1",
        "その他市町村長が必要と認める事項": null,
        "受入対象者": null,
        "備考": ""
      }
    },
    {
      "type": "Feature",
      "geometry": {
        "type": "Point",
        "coordinates": [
          131.186888,
          34.013486
        ]
      },
      "properties": {
        "NO": 64924,
        "共通ID": "E3521600060111",
        "都道府県名及び市町村名": "山口県山陽小野田市",
        "施設・場所名": "高千帆中学校",
        "住所": "山口県山陽小野田市揥山2-8-1",
        "指定緊急避難場所との住所同一": "1",
        "その他市町村長が必要と認める事項": null,
        "受入対象者": null,
        "備考": ""
      }
    }
  ]
}