{
  "type": "FeatureCollection",
  "name": "362077",
  "features": [
    {
      "type": "Feature",
      "geometry": {
        "type": "Point",
        "coordinates": [
          134.170309,
          34.053199
        ]
      },
      "properties": {
        "NO": 65743,
        "共通ID": "E3620700001111",
        "都道府県名及び市町村名": "徳島県美馬市",
        "施設・場所名": "穴吹農村環境改善センター",
        "住所": "徳島県美馬市穴吹町穴吹字安成73",
        "指定緊急避難場所との住所同一": "1",
        "その他市町村長が必要と認める事項": "",
        "受入対象者": "",
        "備考": ""
      }
    },
    {
      "type": "Feature",
      "geometry": {
        "type": "Point",
        "coordinates": [
          134.167688,
          34.043695
        ]
      },
      "properties": {
        "NO": 65744,
        "共通ID": "E3620700002111",
        "都道府県名及び市町村名": "徳島県美馬市",
        "施設・場所名": "穴吹中学校",
        "住所": "徳島県美馬市穴吹町穴吹字井口23",
        "指定緊急避難場所との住所同一": "1",
        "その他市町村長が必要と認める事項": "",
        "受入対象者": "",
        "備考": ""
      }
    },
    {
      "type": "Feature",
      "geometry": {
        "type": "Point",
        "coordinates": [
          134.168659,
          34.046645
        ]
      },
      "properties": {
        "NO": 65745,
        "共通ID": "E3620700003111",
        "都道府県名及び市町村名": "徳島県美馬市",
        "施設・場所名": "穴吹小学校",
        "住所": "徳島県美馬市穴吹町穴吹字柏40",
        "指定緊急避難場所との住所同一": "1",
        "その他市町村長が必要と認める事項": "",
        "受入対象者": "",
        "備考": ""
      }
    },
    {
      "type": "Feature",
      "geometry": {
        "type": "Point",
        "coordinates": [
          134.17226,
          34.052211
        ]
      },
      "properties": {
        "NO": 65746,
        "共通ID": "E3620700004121",
        "都道府県名及び市町村名": "徳島県美馬市",
        "施設・場所名": "穴吹認定こども園",
        "住所": "徳島県美馬市穴吹町穴吹字福戸原1",
        "指定緊急避難場所との住所同一": "",
        "その他市町村長が必要と認める事項": "",
        "受入対象者": "妊産婦・乳幼児",
        "備考": ""
      }
    },
    {
      "type": "Feature",
      "geometry": {
        "type": "Point",
        "coordinates": [
          134.169851,
          34.047144
        ]
      },
      "properties": {
        "NO": 65747,
        "共通ID": "E3620700005111",
        "都道府県名及び市町村名": "徳島県美馬市",
        "施設・場所名": "穴吹スポーツセンター",
        "住所": "徳島県美馬市穴吹町穴吹字藪ノ下5",
        "指定緊急避難場所との住所同一": "1",
        "その他市町村長が必要と認める事項": "",
        "受入対象者": "",
        "備考": ""
      }
    },
    {
      "type": "Feature",
      "geometry": {
        "type": "Point",
        "coordinates": [
          134.135082,
          33.96534
        ]
      },
      "properties": {
        "NO": 65748,
        "共通ID": "E3620700007111",
        "都道府県名及び市町村名": "徳島県美馬市",
        "施設・場所名": "古宮生活改善センター",
        "住所": "徳島県美馬市穴吹町古宮字長尾559-1",
        "指定緊急避難場所との住所同一": "",
        "その他市町村長が必要と認める事項": "",
        "受入対象者": "",
        "備考": ""
      }
    },
    {
      "type": "Feature",
      "geometry": {
        "type": "Point",
        "coordinates": [
          134.148527,
          34.008848
        ]
      },
      "properties": {
        "NO": 65749,
        "共通ID": "E3620700009111",
        "都道府県名及び市町村名": "徳島県美馬市",
        "施設・場所名": "宮内交流の里",
        "住所": "徳島県美馬市穴吹町口山字宮内52",
        "指定緊急避難場所との住所同一": "1",
        "その他市町村長が必要と認める事項": "",
        "受入対象者": "",
        "備考": ""
      }
    },
    {
      "type": "Feature",
      "geometry": {
        "type": "Point",
        "coordinates": [
          134.16109,
          34.037519
        ]
      },
      "properties": {
        "NO": 65750,
        "共通ID": "E3620700010111",
        "都道府県名及び市町村名": "徳島県美馬市",
        "施設・場所名": "初草ふれあい館",
        "住所": "徳島県美馬市穴吹町口山字初草144",
        "指定緊急避難場所との住所同一": "1",
        "その他市町村長が必要と認める事項": "",
        "受入対象者": "",
        "備考": ""
      }
    },
    {
      "type": "Feature",
      "geometry": {
        "type": "Point",
        "coordinates": [
          134.132691,
          34.024493
        ]
      },
      "properties": {
        "NO": 65751,
        "共通ID": "E3620700011111",
        "都道府県名及び市町村名": "徳島県美馬市",
        "施設・場所名": "西渕ふれあいの里",
        "住所": "徳島県美馬市穴吹町口山字渕名485",
        "指定緊急避難場所との住所同一": "1",
        "その他市町村長が必要と認める事項": "",
        "受入対象者": "",
        "備考": ""
      }
    },
    {
      "type": "Feature",
      "geometry": {
        "type": "Point",
        "coordinates": [
          134.128514,
          34.055439
        ]
      },
      "properties": {
        "NO": 65752,
        "共通ID": "E3620700013111",
        "都道府県名及び市町村名": "徳島県美馬市",
        "施設・場所名": "三島中学校",
        "住所": "徳島県美馬市穴吹町三島字三谷356",
        "指定緊急避難場所との住所同一": "1",
        "その他市町村長が必要と認める事項": "",
        "受入対象者": "",
        "備考": ""
      }
    },
    {
      "type": "Feature",
      "geometry": {
        "type": "Point",
        "coordinates": [
          134.130086,
          34.055212
        ]
      },
      "properties": {
        "NO": 65753,
        "共通ID": "E3620700014111",
        "都道府県名及び市町村名": "徳島県美馬市",
        "施設・場所名": "三島小学校",
        "住所": "徳島県美馬市穴吹町三島字三谷374",
        "指定緊急避難場所との住所同一": "1",
        "その他市町村長が必要と認める事項": "",
        "受入対象者": "",
        "備考": ""
      }
    },
    {
      "type": "Feature",
      "geometry": {
        "type": "Point",
        "coordinates": [
          134.139419,
          34.055991
        ]
      },
      "properties": {
        "NO": 65754,
        "共通ID": "E3620700016121",
        "都道府県名及び市町村名": "徳島県美馬市",
        "施設・場所名": "老人保健施設　健祥会ヘルス",
        "住所": "徳島県美馬市穴吹町三島字舞中島2021",
        "指定緊急避難場所との住所同一": "",
        "その他市町村長が必要と認める事項": "左記のうち、事前に市が特定し、環境調整を事前に行った者",
        "受入対象者": "要配慮者",
        "備考": ""
      }
    },
    {
      "type": "Feature",
      "geometry": {
        "type": "Point",
        "coordinates": [
          134.06706,
          34.056923
        ]
      },
      "properties": {
        "NO": 65755,
        "共通ID": "E3620700018111",
        "都道府県名及び市町村名": "徳島県美馬市",
        "施設・場所名": "郡里地域活動センター",
        "住所": "徳島県美馬市美馬町字玉振前1-1",
        "指定緊急避難場所との住所同一": "1",
        "その他市町村長が必要と認める事項": "",
        "受入対象者": "",
        "備考": ""
      }
    },
    {
      "type": "Feature",
      "geometry": {
        "type": "Point",
        "coordinates": [
          134.060684,
          34.052091
        ]
      },
      "properties": {
        "NO": 65756,
        "共通ID": "E3620700019111",
        "都道府県名及び市町村名": "徳島県美馬市",
        "施設・場所名": "寺町防災交流センター",
        "住所": "徳島県美馬市美馬町字寺ノ下20-1",
        "指定緊急避難場所との住所同一": "1",
        "その他市町村長が必要と認める事項": "",
        "受入対象者": "",
        "備考": ""
      }
    },
    {
      "type": "Feature",
      "geometry": {
        "type": "Point",
        "coordinates": [
          134.042067,
          34.086684
        ]
      },
      "properties": {
        "NO": 65757,
        "共通ID": "E3620700022111",
        "都道府県名及び市町村名": "徳島県美馬市",
        "施設・場所名": "重清北交流館",
        "住所": "徳島県美馬市美馬町字狙ケ内26-3",
        "指定緊急避難場所との住所同一": "1",
        "その他市町村長が必要と認める事項": "",
        "受入対象者": "",
        "備考": ""
      }
    },
    {
      "type": "Feature",
      "geometry": {
        "type": "Point",
        "coordinates": [
          134.0494,
          34.048784
        ]
      },
      "properties": {
        "NO": 65758,
        "共通ID": "E3620700060121",
        "都道府県名及び市町村名": "徳島県美馬市",
        "施設・場所名": "徳島県立池田支援学校　美馬分校",
        "住所": "徳島県美馬市美馬町字大宮西100-4",
        "指定緊急避難場所との住所同一": "",
        "その他市町村長が必要と認める事項": "",
        "受入対象者": "要配慮者",
        "備考": ""
      }
    },
    {
      "type": "Feature",
      "geometry": {
        "type": "Point",
        "coordinates": [
          134.042564,
          34.051719
        ]
      },
      "properties": {
        "NO": 65759,
        "共通ID": "E3620700023111",
        "都道府県名及び市町村名": "徳島県美馬市",
        "施設・場所名": "重清東地域活動センター",
        "住所": "徳島県美馬市美馬町字大泉48-1",
        "指定緊急避難場所との住所同一": "1",
        "その他市町村長が必要と認める事項": "",
        "受入対象者": "",
        "備考": ""
      }
    },
    {
      "type": "Feature",
      "geometry": {
        "type": "Point",
        "coordinates": [
          134.049845,
          34.052531
        ]
      },
      "properties": {
        "NO": 65760,
        "共通ID": "E3620700024112",
        "都道府県名及び市町村名": "徳島県美馬市",
        "施設・場所名": "美馬中学校等（美馬小学校含む）",
        "住所": "徳島県美馬市美馬町字谷ヨリ西68",
        "指定緊急避難場所との住所同一": "1",
        "その他市町村長が必要と認める事項": "",
        "受入対象者": "",
        "備考": ""
      }
    },
    {
      "type": "Feature",
      "geometry": {
        "type": "Point",
        "coordinates": [
          134.048073,
          34.053435
        ]
      },
      "properties": {
        "NO": 65761,
        "共通ID": "E3620700025121",
        "都道府県名及び市町村名": "徳島県美馬市",
        "施設・場所名": "美馬認定こども園",
        "住所": "徳島県美馬市美馬町字中東原70-1",
        "指定緊急避難場所との住所同一": "",
        "その他市町村長が必要と認める事項": "",
        "受入対象者": "妊産婦・乳幼児",
        "備考": ""
      }
    },
    {
      "type": "Feature",
      "geometry": {
        "type": "Point",
        "coordinates": [
          134.049934,
          34.049743
        ]
      },
      "properties": {
        "NO": 65762,
        "共通ID": "E3620700027111",
        "都道府県名及び市町村名": "徳島県美馬市",
        "施設・場所名": "美馬町市民サービスセンター",
        "住所": "徳島県美馬市美馬町字天神121",
        "指定緊急避難場所との住所同一": "1",
        "その他市町村長が必要と認める事項": "",
        "受入対象者": "",
        "備考": ""
      }
    },
    {
      "type": "Feature",
      "geometry": {
        "type": "Point",
        "coordinates": [
          134.052871,
          34.048937
        ]
      },
      "properties": {
        "NO": 65763,
        "共通ID": "E3620700028111",
        "都道府県名及び市町村名": "徳島県美馬市",
        "施設・場所名": "喜来地域活動センター",
        "住所": "徳島県美馬市美馬町字天神63-1",
        "指定緊急避難場所との住所同一": "1",
        "その他市町村長が必要と認める事項": "",
        "受入対象者": "",
        "備考": ""
      }
    },
    {
      "type": "Feature",
      "geometry": {
        "type": "Point",
        "coordinates": [
          134.087276,
          34.064393
        ]
      },
      "properties": {
        "NO": 65764,
        "共通ID": "E3620700029111",
        "都道府県名及び市町村名": "徳島県美馬市",
        "施設・場所名": "芝坂地域活動センター",
        "住所": "徳島県美馬市美馬町字南原22-1",
        "指定緊急避難場所との住所同一": "1",
        "その他市町村長が必要と認める事項": "",
        "受入対象者": "",
        "備考": ""
      }
    },
    {
      "type": "Feature",
      "geometry": {
        "type": "Point",
        "coordinates": [
          134.066622,
          34.096292
        ]
      },
      "properties": {
        "NO": 65765,
        "共通ID": "E3620700031111",
        "都道府県名及び市町村名": "徳島県美馬市",
        "施設・場所名": "美馬竜王の郷",
        "住所": "徳島県美馬市美馬町字入倉657",
        "指定緊急避難場所との住所同一": "1",
        "その他市町村長が必要と認める事項": "",
        "受入対象者": "",
        "備考": ""
      }
    },
    {
      "type": "Feature",
      "geometry": {
        "type": "Point",
        "coordinates": [
          134.01778,
          34.047568
        ]
      },
      "properties": {
        "NO": 65766,
        "共通ID": "E3620700032111",
        "都道府県名及び市町村名": "徳島県美馬市",
        "施設・場所名": "重清西地域活動センター",
        "住所": "徳島県美馬市美馬町字八幡115",
        "指定緊急避難場所との住所同一": "1",
        "その他市町村長が必要と認める事項": "",
        "受入対象者": "",
        "備考": ""
      }
    },
    {
      "type": "Feature",
      "geometry": {
        "type": "Point",
        "coordinates": [
          134.214209,
          33.963293
        ]
      },
      "properties": {
        "NO": 65767,
        "共通ID": "E3620700033111",
        "都道府県名及び市町村名": "徳島県美馬市",
        "施設・場所名": "三ツ木集会所",
        "住所": "徳島県美馬市木屋平字三ツ木239-1",
        "指定緊急避難場所との住所同一": "1",
        "その他市町村長が必要と認める事項": "",
        "受入対象者": "",
        "備考": ""
      }
    },
    {
      "type": "Feature",
      "geometry": {
        "type": "Point",
        "coordinates": [
          134.212178,
          33.934833
        ]
      },
      "properties": {
        "NO": 65768,
        "共通ID": "E3620700036111",
        "都道府県名及び市町村名": "徳島県美馬市",
        "施設・場所名": "木屋平複合施設等（川井集会所、木屋平中学校体育館含む）",
        "住所": "徳島県美馬市木屋平字川井224",
        "指定緊急避難場所との住所同一": "1",
        "その他市町村長が必要と認める事項": "",
        "受入対象者": "",
        "備考": ""
      }
    },
    {
      "type": "Feature",
      "geometry": {
        "type": "Point",
        "coordinates": [
          134.177607,
          33.915071
        ]
      },
      "properties": {
        "NO": 65769,
        "共通ID": "E3620700038121",
        "都道府県名及び市町村名": "徳島県美馬市",
        "施設・場所名": "木屋平高齢者生活福祉センター　つるぎの里",
        "住所": "徳島県美馬市木屋平字谷口257-4",
        "指定緊急避難場所との住所同一": "",
        "その他市町村長が必要と認める事項": "左記のうち、事前に市が特定し、環境調整を事前に行った者",
        "受入対象者": "高齢者",
        "備考": ""
      }
    },
    {
      "type": "Feature",
      "geometry": {
        "type": "Point",
        "coordinates": [
          134.178674,
          33.914766
        ]
      },
      "properties": {
        "NO": 65770,
        "共通ID": "E3620700039111",
        "都道府県名及び市町村名": "徳島県美馬市",
        "施設・場所名": "谷口公民館",
        "住所": "徳島県美馬市木屋平字谷口35-1",
        "指定緊急避難場所との住所同一": "1",
        "その他市町村長が必要と認める事項": "",
        "受入対象者": "",
        "備考": ""
      }
    },
    {
      "type": "Feature",
      "geometry": {
        "type": "Point",
        "coordinates": [
          134.113552,
          34.06258
        ]
      },
      "properties": {
        "NO": 65771,
        "共通ID": "E3620700040111",
        "都道府県名及び市町村名": "徳島県美馬市",
        "施設・場所名": "岩倉小学校",
        "住所": "徳島県美馬市脇町岩倉2879",
        "指定緊急避難場所との住所同一": "1",
        "その他市町村長が必要と認める事項": "",
        "受入対象者": "",
        "備考": ""
      }
    },
    {
      "type": "Feature",
      "geometry": {
        "type": "Point",
        "coordinates": [
          134.096712,
          34.06055
        ]
      },
      "properties": {
        "NO": 65772,
        "共通ID": "E3620700041111",
        "都道府県名及び市町村名": "徳島県美馬市",
        "施設・場所名": "地域共生交流施設　小星ベース",
        "住所": "徳島県美馬市脇町字小星692-1",
        "指定緊急避難場所との住所同一": "1",
        "その他市町村長が必要と認める事項": "",
        "受入対象者": "",
        "備考": ""
      }
    },
    {
      "type": "Feature",
      "geometry": {
        "type": "Point",
        "coordinates": [
          134.095661,
          34.062661
        ]
      },
      "properties": {
        "NO": 65773,
        "共通ID": "E3620700042121",
        "都道府県名及び市町村名": "徳島県美馬市",
        "施設・場所名": "障害者支援センター　小星園",
        "住所": "徳島県美馬市脇町字小星748-1",
        "指定緊急避難場所との住所同一": "",
        "その他市町村長が必要と認める事項": "左記のうち、事前に市が特定し、環境調整を事前に行った者",
        "受入対象者": "要配慮者",
        "備考": ""
      }
    },
    {
      "type": "Feature",
      "geometry": {
        "type": "Point",
        "coordinates": [
          134.17166,
          34.111473
        ]
      },
      "properties": {
        "NO": 65774,
        "共通ID": "E3620700043111",
        "都道府県名及び市町村名": "徳島県美馬市",
        "施設・場所名": "江原北小学校",
        "住所": "徳島県美馬市脇町字西赤谷3744-2",
        "指定緊急避難場所との住所同一": "1",
        "その他市町村長が必要と認める事項": "",
        "受入対象者": "",
        "備考": ""
      }
    },
    {
      "type": "Feature",
      "geometry": {
        "type": "Point",
        "coordinates": [
          134.143016,
          34.105208
        ]
      },
      "properties": {
        "NO": 65775,
        "共通ID": "E3620700044111",
        "都道府県名及び市町村名": "徳島県美馬市",
        "施設・場所名": "大谷せせらぎの里",
        "住所": "徳島県美馬市脇町字西大谷437",
        "指定緊急避難場所との住所同一": "1",
        "その他市町村長が必要と認める事項": "",
        "受入対象者": "",
        "備考": ""
      }
    },
    {
      "type": "Feature",
      "geometry": {
        "type": "Point",
        "coordinates": [
          134.156056,
          34.156736
        ]
      },
      "properties": {
        "NO": 65776,
        "共通ID": "E3620700045111",
        "都道府県名及び市町村名": "徳島県美馬市",
        "施設・場所名": "清水地域活動センター",
        "住所": "徳島県美馬市脇町字西俣名1069",
        "指定緊急避難場所との住所同一": "1",
        "その他市町村長が必要と認める事項": "",
        "受入対象者": "",
        "備考": ""
      }
    },
    {
      "type": "Feature",
      "geometry": {
        "type": "Point",
        "coordinates": [
          134.115473,
          34.103324
        ]
      },
      "properties": {
        "NO": 65777,
        "共通ID": "E3620700046111",
        "都道府県名及び市町村名": "徳島県美馬市",
        "施設・場所名": "中ノ谷ふれあいの里",
        "住所": "徳島県美馬市脇町字川原柴221",
        "指定緊急避難場所との住所同一": "1",
        "その他市町村長が必要と認める事項": "",
        "受入対象者": "",
        "備考": ""
      }
    },
    {
      "type": "Feature",
      "geometry": {
        "type": "Point",
        "coordinates": [
          134.172681,
          34.08951
        ]
      },
      "properties": {
        "NO": 65778,
        "共通ID": "E3620700047111",
        "都道府県名及び市町村名": "徳島県美馬市",
        "施設・場所名": "江原中学校",
        "住所": "徳島県美馬市脇町字曽江名359-41",
        "指定緊急避難場所との住所同一": "1",
        "その他市町村長が必要と認める事項": "",
        "受入対象者": "",
        "備考": ""
      }
    },
    {
      "type": "Feature",
      "geometry": {
        "type": "Point",
        "coordinates": [
          134.193155,
          34.13441
        ]
      },
      "properties": {
        "NO": 65779,
        "共通ID": "E3620700048111",
        "都道府県名及び市町村名": "徳島県美馬市",
        "施設・場所名": "東俣ふれあいの里",
        "住所": "徳島県美馬市脇町字東俣名320",
        "指定緊急避難場所との住所同一": "1",
        "その他市町村長が必要と認める事項": "",
        "受入対象者": "",
        "備考": ""
      }
    },
    {
      "type": "Feature",
      "geometry": {
        "type": "Point",
        "coordinates": [
          134.165441,
          34.070936
        ]
      },
      "properties": {
        "NO": 65780,
        "共通ID": "E3620700049121",
        "都道府県名及び市町村名": "徳島県美馬市",
        "施設・場所名": "介護老人保健施設　センターヴィレッジ",
        "住所": "徳島県美馬市脇町字拝原1354-5",
        "指定緊急避難場所との住所同一": "",
        "その他市町村長が必要と認める事項": "左記のうち、事前に市が特定し、環境調整を事前に行った者",
        "受入対象者": "高齢者・障がい者・妊産婦",
        "備考": ""
      }
    },
    {
      "type": "Feature",
      "geometry": {
        "type": "Point",
        "coordinates": [
          134.171439,
          34.071913
        ]
      },
      "properties": {
        "NO": 65781,
        "共通ID": "E3620700050121",
        "都道府県名及び市町村名": "徳島県美馬市",
        "施設・場所名": "江原認定こども園",
        "住所": "徳島県美馬市脇町字拝原700-1",
        "指定緊急避難場所との住所同一": "",
        "その他市町村長が必要と認める事項": "",
        "受入対象者": "妊産婦・乳幼児",
        "備考": ""
      }
    },
    {
      "type": "Feature",
      "geometry": {
        "type": "Point",
        "coordinates": [
          134.172741,
          34.072768
        ]
      },
      "properties": {
        "NO": 65782,
        "共通ID": "E3620700051111",
        "都道府県名及び市町村名": "徳島県美馬市",
        "施設・場所名": "江原南小学校",
        "住所": "徳島県美馬市脇町字拝原829",
        "指定緊急避難場所との住所同一": "1",
        "その他市町村長が必要と認める事項": "",
        "受入対象者": "",
        "備考": ""
      }
    },
    {
      "type": "Feature",
      "geometry": {
        "type": "Point",
        "coordinates": [
          134.131855,
          34.067582
        ]
      },
      "properties": {
        "NO": 65783,
        "共通ID": "E3620700052111",
        "都道府県名及び市町村名": "徳島県美馬市",
        "施設・場所名": "うだつアリーナ",
        "住所": "徳島県美馬市脇町新町196",
        "指定緊急避難場所との住所同一": "1",
        "その他市町村長が必要と認める事項": "",
        "受入対象者": "",
        "備考": ""
      }
    },
    {
      "type": "Feature",
      "geometry": {
        "type": "Point",
        "coordinates": [
          134.151383,
          34.070705
        ]
      },
      "properties": {
        "NO": 65784,
        "共通ID": "E3620700053111",
        "都道府県名及び市町村名": "徳島県美馬市",
        "施設・場所名": "脇町小学校",
        "住所": "徳島県美馬市脇町大字猪尻字西ノ久保116",
        "指定緊急避難場所との住所同一": "1",
        "その他市町村長が必要と認める事項": "",
        "受入対象者": "",
        "備考": ""
      }
    },
    {
      "type": "Feature",
      "geometry": {
        "type": "Point",
        "coordinates": [
          134.152829,
          34.070329
        ]
      },
      "properties": {
        "NO": 65785,
        "共通ID": "E3620700054111",
        "都道府県名及び市町村名": "徳島県美馬市",
        "施設・場所名": "脇町中学校",
        "住所": "徳島県美馬市脇町大字猪尻字西ノ久保78",
        "指定緊急避難場所との住所同一": "1",
        "その他市町村長が必要と認める事項": "",
        "受入対象者": "",
        "備考": ""
      }
    },
    {
      "type": "Feature",
      "geometry": {
        "type": "Point",
        "coordinates": [
          134.14941,
          34.06673
        ]
      },
      "properties": {
        "NO": 65786,
        "共通ID": "E3620700055111",
        "都道府県名及び市町村名": "徳島県美馬市",
        "施設・場所名": "地域交流センター　ミライズ",
        "住所": "徳島県美馬市脇町大字猪尻字西分116-1",
        "指定緊急避難場所との住所同一": "1",
        "その他市町村長が必要と認める事項": "",
        "受入対象者": "",
        "備考": ""
      }
    },
    {
      "type": "Feature",
      "geometry": {
        "type": "Point",
        "coordinates": [
          134.147863,
          34.070094
        ]
      },
      "properties": {
        "NO": 65787,
        "共通ID": "E3620700061122",
        "都道府県名及び市町村名": "徳島県美馬市",
        "施設・場所名": "社会医療法人芳越会わきの里小規模多機能ホーム",
        "住所": "徳島県美馬市脇町大字脇町340",
        "指定緊急避難場所との住所同一": "",
        "その他市町村長が必要と認める事項": "",
        "受入対象者": "高齢者・障がい者・難病患者等",
        "備考": ""
      }
    },
    {
      "type": "Feature",
      "geometry": {
        "type": "Point",
        "coordinates": [
          134.147863,
          34.070094
        ]
      },
      "properties": {
        "NO": 65788,
        "共通ID": "E3620700061121",
        "都道府県名及び市町村名": "徳島県美馬市",
        "施設・場所名": "社会医療法人芳越会林クリニック",
        "住所": "徳島県美馬市脇町大字脇町340",
        "指定緊急避難場所との住所同一": "",
        "その他市町村長が必要と認める事項": "",
        "受入対象者": "高齢者・障がい者・難病患者等",
        "備考": ""
      }
    },
    {
      "type": "Feature",
      "geometry": {
        "type": "Point",
        "coordinates": [
          134.137149,
          34.072553
        ]
      },
      "properties": {
        "NO": 65789,
        "共通ID": "E3620700058121",
        "都道府県名及び市町村名": "徳島県美馬市",
        "施設・場所名": "特別養護老人ホーム　健祥会家康",
        "住所": "徳島県美馬市脇町大字脇町966",
        "指定緊急避難場所との住所同一": "",
        "その他市町村長が必要と認める事項": "左記のうち、事前に市が特定し、環境調整を事前に行った者",
        "受入対象者": "高齢者",
        "備考": ""
      }
    },
    {
      "type": "Feature",
      "geometry": {
        "type": "Point",
        "coordinates": [
          134.107495,
          34.060911
        ]
      },
      "properties": {
        "NO": 65790,
        "共通ID": "E3620700059111",
        "都道府県名及び市町村名": "徳島県美馬市",
        "施設・場所名": "岩倉中学校",
        "住所": "徳島県美馬市脇町別所3406",
        "指定緊急避難場所との住所同一": "1",
        "その他市町村長が必要と認める事項": "",
        "受入対象者": "",
        "備考": ""
      }
    }
  ]
}