{
  "type": "FeatureCollection",
  "name": "362042",
  "features": [
    {
      "type": "Feature",
      "geometry": {
        "type": "Point",
        "coordinates": [
          134.808363,
          33.844544
        ]
      },
      "properties": {
        "NO": 65477,
        "共通ID": "E3620400001111",
        "都道府県名及び市町村名": "徳島県阿南市",
        "施設・場所名": "伊島中学校　体育館",
        "住所": "徳島県阿南市伊島町瀬戸3",
        "指定緊急避難場所との住所同一": "1",
        "その他市町村長が必要と認める事項": "",
        "受入対象者": "",
        "備考": ""
      }
    },
    {
      "type": "Feature",
      "geometry": {
        "type": "Point",
        "coordinates": [
          134.614526,
          33.949401
        ]
      },
      "properties": {
        "NO": 65478,
        "共通ID": "E3620400003111",
        "都道府県名及び市町村名": "徳島県阿南市",
        "施設・場所名": "あすみが丘集会所",
        "住所": "徳島県阿南市羽ノ浦町岩脇奥ノ谷6-214",
        "指定緊急避難場所との住所同一": "",
        "その他市町村長が必要と認める事項": null,
        "受入対象者": null,
        "備考": ""
      }
    },
    {
      "type": "Feature",
      "geometry": {
        "type": "Point",
        "coordinates": [
          134.608906,
          33.94386
        ]
      },
      "properties": {
        "NO": 65479,
        "共通ID": "E3620400004111",
        "都道府県名及び市町村名": "徳島県阿南市",
        "施設・場所名": "羽ノ浦西児童館",
        "住所": "徳島県阿南市羽ノ浦町岩脇宮ノ下112",
        "指定緊急避難場所との住所同一": "",
        "その他市町村長が必要と認める事項": null,
        "受入対象者": null,
        "備考": ""
      }
    },
    {
      "type": "Feature",
      "geometry": {
        "type": "Point",
        "coordinates": [
          134.618539,
          33.949896
        ]
      },
      "properties": {
        "NO": 65480,
        "共通ID": "E3620400005111",
        "都道府県名及び市町村名": "徳島県阿南市",
        "施設・場所名": "岩脇こどもセンター",
        "住所": "徳島県阿南市羽ノ浦町岩脇神代地85-1",
        "指定緊急避難場所との住所同一": "",
        "その他市町村長が必要と認める事項": null,
        "受入対象者": null,
        "備考": ""
      }
    },
    {
      "type": "Feature",
      "geometry": {
        "type": "Point",
        "coordinates": [
          134.618074,
          33.941667
        ]
      },
      "properties": {
        "NO": 65481,
        "共通ID": "E3620400006111",
        "都道府県名及び市町村名": "徳島県阿南市",
        "施設・場所名": "岩脇福祉会館",
        "住所": "徳島県阿南市羽ノ浦町岩脇町筋20-3",
        "指定緊急避難場所との住所同一": "1",
        "その他市町村長が必要と認める事項": null,
        "受入対象者": null,
        "備考": ""
      }
    },
    {
      "type": "Feature",
      "geometry": {
        "type": "Point",
        "coordinates": [
          134.615898,
          33.94253
        ]
      },
      "properties": {
        "NO": 65482,
        "共通ID": "E3620400007111",
        "都道府県名及び市町村名": "徳島県阿南市",
        "施設・場所名": "岩脇小学校　体育館",
        "住所": "徳島県阿南市羽ノ浦町岩脇町筋87",
        "指定緊急避難場所との住所同一": "1",
        "その他市町村長が必要と認める事項": null,
        "受入対象者": null,
        "備考": ""
      }
    },
    {
      "type": "Feature",
      "geometry": {
        "type": "Point",
        "coordinates": [
          134.622247,
          33.953575
        ]
      },
      "properties": {
        "NO": 65483,
        "共通ID": "E3620400008111",
        "都道府県名及び市町村名": "徳島県阿南市",
        "施設・場所名": "羽ノ浦公民館",
        "住所": "徳島県阿南市羽ノ浦町宮倉大木38-4",
        "指定緊急避難場所との住所同一": "1",
        "その他市町村長が必要と認める事項": null,
        "受入対象者": null,
        "備考": ""
      }
    },
    {
      "type": "Feature",
      "geometry": {
        "type": "Point",
        "coordinates": [
          134.618437,
          33.95315
        ]
      },
      "properties": {
        "NO": 65484,
        "共通ID": "E3620400155111",
        "都道府県名及び市町村名": "徳島県阿南市",
        "施設・場所名": "羽ノ浦スポーツセンター",
        "住所": "徳島県阿南市羽ノ浦町宮倉沢田100",
        "指定緊急避難場所との住所同一": "",
        "その他市町村長が必要と認める事項": "",
        "受入対象者": "",
        "備考": ""
      }
    },
    {
      "type": "Feature",
      "geometry": {
        "type": "Point",
        "coordinates": [
          134.616898,
          33.960921
        ]
      },
      "properties": {
        "NO": 65485,
        "共通ID": "E3620400011111",
        "都道府県名及び市町村名": "徳島県阿南市",
        "施設・場所名": "阿南市勤労女性センター",
        "住所": "徳島県阿南市羽ノ浦町春日野1-75",
        "指定緊急避難場所との住所同一": "1",
        "その他市町村長が必要と認める事項": null,
        "受入対象者": null,
        "備考": ""
      }
    },
    {
      "type": "Feature",
      "geometry": {
        "type": "Point",
        "coordinates": [
          134.617144,
          33.961163
        ]
      },
      "properties": {
        "NO": 65486,
        "共通ID": "E3620400012111",
        "都道府県名及び市町村名": "徳島県阿南市",
        "施設・場所名": "春日野体育館",
        "住所": "徳島県阿南市羽ノ浦町春日野1-766",
        "指定緊急避難場所との住所同一": "",
        "その他市町村長が必要と認める事項": null,
        "受入対象者": null,
        "備考": ""
      }
    },
    {
      "type": "Feature",
      "geometry": {
        "type": "Point",
        "coordinates": [
          134.628984,
          33.956464
        ]
      },
      "properties": {
        "NO": 65487,
        "共通ID": "E3620400013111",
        "都道府県名及び市町村名": "徳島県阿南市",
        "施設・場所名": "羽ノ浦くるみ保育所",
        "住所": "徳島県阿南市羽ノ浦町中庄なかれ24-1",
        "指定緊急避難場所との住所同一": "",
        "その他市町村長が必要と認める事項": null,
        "受入対象者": null,
        "備考": ""
      }
    },
    {
      "type": "Feature",
      "geometry": {
        "type": "Point",
        "coordinates": [
          134.62638,
          33.961225
        ]
      },
      "properties": {
        "NO": 65488,
        "共通ID": "E3620400014111",
        "都道府県名及び市町村名": "徳島県阿南市",
        "施設・場所名": "浦川西集会所",
        "住所": "徳島県阿南市羽ノ浦町中庄原ノ内7-5",
        "指定緊急避難場所との住所同一": "",
        "その他市町村長が必要と認める事項": null,
        "受入対象者": null,
        "備考": ""
      }
    },
    {
      "type": "Feature",
      "geometry": {
        "type": "Point",
        "coordinates": [
          134.627712,
          33.958071
        ]
      },
      "properties": {
        "NO": 65489,
        "共通ID": "E3620400015112",
        "都道府県名及び市町村名": "徳島県阿南市",
        "施設・場所名": "羽ノ浦小学校　体育室",
        "住所": "徳島県阿南市羽ノ浦町中庄原婦知1-1",
        "指定緊急避難場所との住所同一": "1",
        "その他市町村長が必要と認める事項": "",
        "受入対象者": "",
        "備考": ""
      }
    },
    {
      "type": "Feature",
      "geometry": {
        "type": "Point",
        "coordinates": [
          134.627753,
          33.957953
        ]
      },
      "properties": {
        "NO": 65490,
        "共通ID": "E3620400015111",
        "都道府県名及び市町村名": "徳島県阿南市",
        "施設・場所名": "羽ノ浦小学校　体育館",
        "住所": "徳島県阿南市羽ノ浦町中庄原婦知1-1",
        "指定緊急避難場所との住所同一": "1",
        "その他市町村長が必要と認める事項": "",
        "受入対象者": "",
        "備考": ""
      }
    },
    {
      "type": "Feature",
      "geometry": {
        "type": "Point",
        "coordinates": [
          134.627964,
          33.953354
        ]
      },
      "properties": {
        "NO": 65491,
        "共通ID": "E3620400016111",
        "都道府県名及び市町村名": "徳島県阿南市",
        "施設・場所名": "羽ノ浦老人福祉センター",
        "住所": "徳島県阿南市羽ノ浦町中庄高田原56-2",
        "指定緊急避難場所との住所同一": "",
        "その他市町村長が必要と認める事項": "",
        "受入対象者": "",
        "備考": ""
      }
    },
    {
      "type": "Feature",
      "geometry": {
        "type": "Point",
        "coordinates": [
          134.627503,
          33.959482
        ]
      },
      "properties": {
        "NO": 65492,
        "共通ID": "E3620400017111",
        "都道府県名及び市町村名": "徳島県阿南市",
        "施設・場所名": "富岡東高等学校　羽ノ浦校　体育館",
        "住所": "徳島県阿南市羽ノ浦町中庄市50-1",
        "指定緊急避難場所との住所同一": "1",
        "その他市町村長が必要と認める事項": null,
        "受入対象者": null,
        "備考": ""
      }
    },
    {
      "type": "Feature",
      "geometry": {
        "type": "Point",
        "coordinates": [
          134.623754,
          33.954091
        ]
      },
      "properties": {
        "NO": 65493,
        "共通ID": "E3620400018111",
        "都道府県名及び市町村名": "徳島県阿南市",
        "施設・場所名": "阿南市情報文化センター",
        "住所": "徳島県阿南市羽ノ浦町中庄上ナカレ16-3",
        "指定緊急避難場所との住所同一": "1",
        "その他市町村長が必要と認める事項": null,
        "受入対象者": null,
        "備考": ""
      }
    },
    {
      "type": "Feature",
      "geometry": {
        "type": "Point",
        "coordinates": [
          134.66054,
          33.924223
        ]
      },
      "properties": {
        "NO": 65494,
        "共通ID": "E3620400019111",
        "都道府県名及び市町村名": "徳島県阿南市",
        "施設・場所名": "横見老人ルーム",
        "住所": "徳島県阿南市横見町願能地東52-2",
        "指定緊急避難場所との住所同一": "",
        "その他市町村長が必要と認める事項": "",
        "受入対象者": "",
        "備考": ""
      }
    },
    {
      "type": "Feature",
      "geometry": {
        "type": "Point",
        "coordinates": [
          134.65606,
          33.928932
        ]
      },
      "properties": {
        "NO": 65495,
        "共通ID": "E3620400020111",
        "都道府県名及び市町村名": "徳島県阿南市",
        "施設・場所名": "横見幼稚園",
        "住所": "徳島県阿南市横見町上木戸49-1",
        "指定緊急避難場所との住所同一": "",
        "その他市町村長が必要と認める事項": null,
        "受入対象者": null,
        "備考": ""
      }
    },
    {
      "type": "Feature",
      "geometry": {
        "type": "Point",
        "coordinates": [
          134.655952,
          33.928519
        ]
      },
      "properties": {
        "NO": 65496,
        "共通ID": "E3620400021111",
        "都道府県名及び市町村名": "徳島県阿南市",
        "施設・場所名": "横見小学校　体育館",
        "住所": "徳島県阿南市横見町前長岡67-2",
        "指定緊急避難場所との住所同一": "1",
        "その他市町村長が必要と認める事項": null,
        "受入対象者": null,
        "備考": ""
      }
    },
    {
      "type": "Feature",
      "geometry": {
        "type": "Point",
        "coordinates": [
          134.660758,
          33.929979
        ]
      },
      "properties": {
        "NO": 65497,
        "共通ID": "E3620400022111",
        "都道府県名及び市町村名": "徳島県阿南市",
        "施設・場所名": "横見保育所",
        "住所": "徳島県阿南市横見町長岡東50-1",
        "指定緊急避難場所との住所同一": "",
        "その他市町村長が必要と認める事項": null,
        "受入対象者": null,
        "備考": ""
      }
    },
    {
      "type": "Feature",
      "geometry": {
        "type": "Point",
        "coordinates": [
          134.594838,
          33.934008
        ]
      },
      "properties": {
        "NO": 65498,
        "共通ID": "E3620400023111",
        "都道府県名及び市町村名": "徳島県阿南市",
        "施設・場所名": "大野老人憩いの家",
        "住所": "徳島県阿南市下大野町三条12-1",
        "指定緊急避難場所との住所同一": "",
        "その他市町村長が必要と認める事項": null,
        "受入対象者": null,
        "備考": ""
      }
    },
    {
      "type": "Feature",
      "geometry": {
        "type": "Point",
        "coordinates": [
          134.595079,
          33.934356
        ]
      },
      "properties": {
        "NO": 65499,
        "共通ID": "E3620400024111",
        "都道府県名及び市町村名": "徳島県阿南市",
        "施設・場所名": "大野幼稚園",
        "住所": "徳島県阿南市下大野町三条15-5",
        "指定緊急避難場所との住所同一": "",
        "その他市町村長が必要と認める事項": null,
        "受入対象者": null,
        "備考": ""
      }
    },
    {
      "type": "Feature",
      "geometry": {
        "type": "Point",
        "coordinates": [
          134.595566,
          33.934784
        ]
      },
      "properties": {
        "NO": 65500,
        "共通ID": "E3620400025111",
        "都道府県名及び市町村名": "徳島県阿南市",
        "施設・場所名": "大野小学校　体育館",
        "住所": "徳島県阿南市下大野町三条5",
        "指定緊急避難場所との住所同一": "1",
        "その他市町村長が必要と認める事項": null,
        "受入対象者": null,
        "備考": ""
      }
    },
    {
      "type": "Feature",
      "geometry": {
        "type": "Point",
        "coordinates": [
          134.595265,
          33.931017
        ]
      },
      "properties": {
        "NO": 65501,
        "共通ID": "E3620400026111",
        "都道府県名及び市町村名": "徳島県阿南市",
        "施設・場所名": "大野保育所",
        "住所": "徳島県阿南市下大野町小野74-1",
        "指定緊急避難場所との住所同一": "",
        "その他市町村長が必要と認める事項": null,
        "受入対象者": null,
        "備考": ""
      }
    },
    {
      "type": "Feature",
      "geometry": {
        "type": "Point",
        "coordinates": [
          134.550534,
          33.915144
        ]
      },
      "properties": {
        "NO": 65502,
        "共通ID": "E3620400027111",
        "都道府県名及び市町村名": "徳島県阿南市",
        "施設・場所名": "加茂谷中学校　体育館",
        "住所": "徳島県阿南市加茂町南不け1",
        "指定緊急避難場所との住所同一": "1",
        "その他市町村長が必要と認める事項": null,
        "受入対象者": null,
        "備考": ""
      }
    },
    {
      "type": "Feature",
      "geometry": {
        "type": "Point",
        "coordinates": [
          134.552795,
          33.921175
        ]
      },
      "properties": {
        "NO": 65503,
        "共通ID": "E3620400028111",
        "都道府県名及び市町村名": "徳島県阿南市",
        "施設・場所名": "加茂谷総合センター",
        "住所": "徳島県阿南市加茂町野上22-11",
        "指定緊急避難場所との住所同一": "1",
        "その他市町村長が必要と認める事項": null,
        "受入対象者": null,
        "備考": ""
      }
    },
    {
      "type": "Feature",
      "geometry": {
        "type": "Point",
        "coordinates": [
          134.5592,
          33.921805
        ]
      },
      "properties": {
        "NO": 65504,
        "共通ID": "E3620400029111",
        "都道府県名及び市町村名": "徳島県阿南市",
        "施設・場所名": "吉井小学校　体育館",
        "住所": "徳島県阿南市吉井町原18-2",
        "指定緊急避難場所との住所同一": "1",
        "その他市町村長が必要と認める事項": null,
        "受入対象者": null,
        "備考": ""
      }
    },
    {
      "type": "Feature",
      "geometry": {
        "type": "Point",
        "coordinates": [
          134.55866,
          33.921921
        ]
      },
      "properties": {
        "NO": 65505,
        "共通ID": "E3620400030111",
        "都道府県名及び市町村名": "徳島県阿南市",
        "施設・場所名": "加茂谷幼稚園",
        "住所": "徳島県阿南市吉井町原33",
        "指定緊急避難場所との住所同一": "",
        "その他市町村長が必要と認める事項": null,
        "受入対象者": null,
        "備考": ""
      }
    },
    {
      "type": "Feature",
      "geometry": {
        "type": "Point",
        "coordinates": [
          134.640529,
          33.875216
        ]
      },
      "properties": {
        "NO": 65506,
        "共通ID": "E3620400031111",
        "都道府県名及び市町村名": "徳島県阿南市",
        "施設・場所名": "橘こどもセンター",
        "住所": "徳島県阿南市橘町久保38-3",
        "指定緊急避難場所との住所同一": "1",
        "その他市町村長が必要と認める事項": "",
        "受入対象者": "",
        "備考": ""
      }
    },
    {
      "type": "Feature",
      "geometry": {
        "type": "Point",
        "coordinates": [
          134.632576,
          33.87053
        ]
      },
      "properties": {
        "NO": 65507,
        "共通ID": "E3620400033111",
        "都道府県名及び市町村名": "徳島県阿南市",
        "施設・場所名": "橘小学校　体育館",
        "住所": "徳島県阿南市橘町大浦166-1",
        "指定緊急避難場所との住所同一": "1",
        "その他市町村長が必要と認める事項": null,
        "受入対象者": null,
        "備考": ""
      }
    },
    {
      "type": "Feature",
      "geometry": {
        "type": "Point",
        "coordinates": [
          134.623984,
          33.851904
        ]
      },
      "properties": {
        "NO": 65508,
        "共通ID": "E3620400034111",
        "都道府県名及び市町村名": "徳島県阿南市",
        "施設・場所名": "ふるさと館",
        "住所": "徳島県阿南市橘町土井崎115-16",
        "指定緊急避難場所との住所同一": "1",
        "その他市町村長が必要と認める事項": null,
        "受入対象者": null,
        "備考": ""
      }
    },
    {
      "type": "Feature",
      "geometry": {
        "type": "Point",
        "coordinates": [
          134.622643,
          33.852107
        ]
      },
      "properties": {
        "NO": 65509,
        "共通ID": "E3620400035111",
        "都道府県名及び市町村名": "徳島県阿南市",
        "施設・場所名": "旧クリーンセンター管理棟",
        "住所": "徳島県阿南市橘町土井崎117-14",
        "指定緊急避難場所との住所同一": "1",
        "その他市町村長が必要と認める事項": null,
        "受入対象者": null,
        "備考": ""
      }
    },
    {
      "type": "Feature",
      "geometry": {
        "type": "Point",
        "coordinates": [
          134.641121,
          33.872051
        ]
      },
      "properties": {
        "NO": 65510,
        "共通ID": "E3620400037111",
        "都道府県名及び市町村名": "徳島県阿南市",
        "施設・場所名": "橘町総合センター",
        "住所": "徳島県阿南市橘町豊浜36-15",
        "指定緊急避難場所との住所同一": "1",
        "その他市町村長が必要と認める事項": null,
        "受入対象者": null,
        "備考": ""
      }
    },
    {
      "type": "Feature",
      "geometry": {
        "type": "Point",
        "coordinates": [
          134.5773,
          33.916615
        ]
      },
      "properties": {
        "NO": 65511,
        "共通ID": "E3620400038111",
        "都道府県名及び市町村名": "徳島県阿南市",
        "施設・場所名": "阿南市クリーンピュア",
        "住所": "徳島県阿南市熊谷町定方44",
        "指定緊急避難場所との住所同一": "1",
        "その他市町村長が必要と認める事項": null,
        "受入対象者": null,
        "備考": ""
      }
    },
    {
      "type": "Feature",
      "geometry": {
        "type": "Point",
        "coordinates": [
          134.611504,
          33.87385
        ]
      },
      "properties": {
        "NO": 65512,
        "共通ID": "E3620400039111",
        "都道府県名及び市町村名": "徳島県阿南市",
        "施設・場所名": "桑野小学校　体育館",
        "住所": "徳島県阿南市桑野町岡元40-1",
        "指定緊急避難場所との住所同一": "1",
        "その他市町村長が必要と認める事項": null,
        "受入対象者": null,
        "備考": ""
      }
    },
    {
      "type": "Feature",
      "geometry": {
        "type": "Point",
        "coordinates": [
          134.60371,
          33.866927
        ]
      },
      "properties": {
        "NO": 65513,
        "共通ID": "E3620400040112",
        "都道府県名及び市町村名": "徳島県阿南市",
        "施設・場所名": "南部健康運動公園",
        "住所": "徳島県阿南市桑野町桑野谷34-1",
        "指定緊急避難場所との住所同一": "",
        "その他市町村長が必要と認める事項": null,
        "受入対象者": null,
        "備考": ""
      }
    },
    {
      "type": "Feature",
      "geometry": {
        "type": "Point",
        "coordinates": [
          134.603634,
          33.865352
        ]
      },
      "properties": {
        "NO": 65514,
        "共通ID": "E3620400040111",
        "都道府県名及び市町村名": "徳島県阿南市",
        "施設・場所名": "南部健康運動公園陸上競技場",
        "住所": "徳島県阿南市桑野町桑野谷34-1",
        "指定緊急避難場所との住所同一": "",
        "その他市町村長が必要と認める事項": null,
        "受入対象者": null,
        "備考": ""
      }
    },
    {
      "type": "Feature",
      "geometry": {
        "type": "Point",
        "coordinates": [
          134.612733,
          33.883104
        ]
      },
      "properties": {
        "NO": 65515,
        "共通ID": "E3620400041111",
        "都道府県名及び市町村名": "徳島県阿南市",
        "施設・場所名": "紺屋総合センター",
        "住所": "徳島県阿南市桑野町紺屋80-4",
        "指定緊急避難場所との住所同一": "",
        "その他市町村長が必要と認める事項": null,
        "受入対象者": null,
        "備考": ""
      }
    },
    {
      "type": "Feature",
      "geometry": {
        "type": "Point",
        "coordinates": [
          134.613923,
          33.877694
        ]
      },
      "properties": {
        "NO": 65516,
        "共通ID": "E3620400042111",
        "都道府県名及び市町村名": "徳島県阿南市",
        "施設・場所名": "桑野保育所",
        "住所": "徳島県阿南市桑野町中野202",
        "指定緊急避難場所との住所同一": "",
        "その他市町村長が必要と認める事項": null,
        "受入対象者": null,
        "備考": ""
      }
    },
    {
      "type": "Feature",
      "geometry": {
        "type": "Point",
        "coordinates": [
          134.662802,
          33.903998
        ]
      },
      "properties": {
        "NO": 65517,
        "共通ID": "E3620400043111",
        "都道府県名及び市町村名": "徳島県阿南市",
        "施設・場所名": "社会福祉法人お山保育園",
        "住所": "徳島県阿南市見能林町花谷56-2",
        "指定緊急避難場所との住所同一": "",
        "その他市町村長が必要と認める事項": null,
        "受入対象者": null,
        "備考": ""
      }
    },
    {
      "type": "Feature",
      "geometry": {
        "type": "Point",
        "coordinates": [
          134.670061,
          33.900964
        ]
      },
      "properties": {
        "NO": 65518,
        "共通ID": "E3620400044111",
        "都道府県名及び市町村名": "徳島県阿南市",
        "施設・場所名": "見能林小学校　体育館",
        "住所": "徳島県阿南市見能林町西内35",
        "指定緊急避難場所との住所同一": "1",
        "その他市町村長が必要と認める事項": null,
        "受入対象者": null,
        "備考": ""
      }
    },
    {
      "type": "Feature",
      "geometry": {
        "type": "Point",
        "coordinates": [
          134.669221,
          33.897956
        ]
      },
      "properties": {
        "NO": 65519,
        "共通ID": "E3620400045111",
        "都道府県名及び市町村名": "徳島県阿南市",
        "施設・場所名": "阿南工業高等専門学校　体育館",
        "住所": "徳島県阿南市見能林町青木265",
        "指定緊急避難場所との住所同一": "1",
        "その他市町村長が必要と認める事項": null,
        "受入対象者": null,
        "備考": ""
      }
    },
    {
      "type": "Feature",
      "geometry": {
        "type": "Point",
        "coordinates": [
          134.673169,
          33.899328
        ]
      },
      "properties": {
        "NO": 65520,
        "共通ID": "E3620400046111",
        "都道府県名及び市町村名": "徳島県阿南市",
        "施設・場所名": "見能林幼稚園",
        "住所": "徳島県阿南市見能林町東野10-2",
        "指定緊急避難場所との住所同一": "",
        "その他市町村長が必要と認める事項": null,
        "受入対象者": null,
        "備考": ""
      }
    },
    {
      "type": "Feature",
      "geometry": {
        "type": "Point",
        "coordinates": [
          134.672755,
          33.899256
        ]
      },
      "properties": {
        "NO": 65521,
        "共通ID": "E3620400047111",
        "都道府県名及び市町村名": "徳島県阿南市",
        "施設・場所名": "見能方保育所",
        "住所": "徳島県阿南市見能林町東野12-2",
        "指定緊急避難場所との住所同一": "",
        "その他市町村長が必要と認める事項": null,
        "受入対象者": null,
        "備考": ""
      }
    },
    {
      "type": "Feature",
      "geometry": {
        "type": "Point",
        "coordinates": [
          134.66483,
          33.904884
        ]
      },
      "properties": {
        "NO": 65522,
        "共通ID": "E3620400048111",
        "都道府県名及び市町村名": "徳島県阿南市",
        "施設・場所名": "阿南中学校　体育館",
        "住所": "徳島県阿南市見能林町南勘高1",
        "指定緊急避難場所との住所同一": "1",
        "その他市町村長が必要と認める事項": null,
        "受入対象者": null,
        "備考": ""
      }
    },
    {
      "type": "Feature",
      "geometry": {
        "type": "Point",
        "coordinates": [
          134.669541,
          33.901179
        ]
      },
      "properties": {
        "NO": 65523,
        "共通ID": "E3620400049111",
        "都道府県名及び市町村名": "徳島県阿南市",
        "施設・場所名": "見能林公民館",
        "住所": "徳島県阿南市見能林町念仏免4-1",
        "指定緊急避難場所との住所同一": "1",
        "その他市町村長が必要と認める事項": null,
        "受入対象者": null,
        "備考": ""
      }
    },
    {
      "type": "Feature",
      "geometry": {
        "type": "Point",
        "coordinates": [
          134.668708,
          33.89534
        ]
      },
      "properties": {
        "NO": 65524,
        "共通ID": "E3620400050111",
        "都道府県名及び市町村名": "徳島県阿南市",
        "施設・場所名": "林崎コミュニティセンター",
        "住所": "徳島県阿南市見能林町林崎140-1",
        "指定緊急避難場所との住所同一": "",
        "その他市町村長が必要と認める事項": null,
        "受入対象者": null,
        "備考": ""
      }
    },
    {
      "type": "Feature",
      "geometry": {
        "type": "Point",
        "coordinates": [
          134.582405,
          33.872632
        ]
      },
      "properties": {
        "NO": 65525,
        "共通ID": "E3620400052111",
        "都道府県名及び市町村名": "徳島県阿南市",
        "施設・場所名": "山口小学校　体育館",
        "住所": "徳島県阿南市山口町久延69-1",
        "指定緊急避難場所との住所同一": "1",
        "その他市町村長が必要と認める事項": null,
        "受入対象者": null,
        "備考": ""
      }
    },
    {
      "type": "Feature",
      "geometry": {
        "type": "Point",
        "coordinates": [
          134.603881,
          33.871374
        ]
      },
      "properties": {
        "NO": 65526,
        "共通ID": "E3620400053111",
        "都道府県名及び市町村名": "徳島県阿南市",
        "施設・場所名": "桑野公民館",
        "住所": "徳島県阿南市山口町内田150-1",
        "指定緊急避難場所との住所同一": "1",
        "その他市町村長が必要と認める事項": null,
        "受入対象者": null,
        "備考": ""
      }
    },
    {
      "type": "Feature",
      "geometry": {
        "type": "Point",
        "coordinates": [
          134.582861,
          33.871209
        ]
      },
      "properties": {
        "NO": 65527,
        "共通ID": "E3620400054111",
        "都道府県名及び市町村名": "徳島県阿南市",
        "施設・場所名": "山口保育所",
        "住所": "徳島県阿南市山口町末広12-1",
        "指定緊急避難場所との住所同一": "",
        "その他市町村長が必要と認める事項": null,
        "受入対象者": null,
        "備考": ""
      }
    },
    {
      "type": "Feature",
      "geometry": {
        "type": "Point",
        "coordinates": [
          134.68422,
          33.919689
        ]
      },
      "properties": {
        "NO": 65528,
        "共通ID": "E3620400055111",
        "都道府県名及び市町村名": "徳島県阿南市",
        "施設・場所名": "スポーツ総合センター",
        "住所": "徳島県阿南市七見町下川田100-1",
        "指定緊急避難場所との住所同一": "1",
        "その他市町村長が必要と認める事項": null,
        "受入対象者": null,
        "備考": ""
      }
    },
    {
      "type": "Feature",
      "geometry": {
        "type": "Point",
        "coordinates": [
          134.581884,
          33.934885
        ]
      },
      "properties": {
        "NO": 65529,
        "共通ID": "E3620400056111",
        "都道府県名及び市町村名": "徳島県阿南市",
        "施設・場所名": "大野公民館上大野分館",
        "住所": "徳島県阿南市上大野町城の内68-1",
        "指定緊急避難場所との住所同一": "",
        "その他市町村長が必要と認める事項": null,
        "受入対象者": null,
        "備考": ""
      }
    },
    {
      "type": "Feature",
      "geometry": {
        "type": "Point",
        "coordinates": [
          134.581488,
          33.925752
        ]
      },
      "properties": {
        "NO": 65530,
        "共通ID": "E3620400057111",
        "都道府県名及び市町村名": "徳島県阿南市",
        "施設・場所名": "阿南支援学校　体育館",
        "住所": "徳島県阿南市上大野町大山田52",
        "指定緊急避難場所との住所同一": "1",
        "その他市町村長が必要と認める事項": null,
        "受入対象者": null,
        "備考": ""
      }
    },
    {
      "type": "Feature",
      "geometry": {
        "type": "Point",
        "coordinates": [
          134.622608,
          33.932708
        ]
      },
      "properties": {
        "NO": 65531,
        "共通ID": "E3620400058111",
        "都道府県名及び市町村名": "徳島県阿南市",
        "施設・場所名": "中野島公民館上中分館",
        "住所": "徳島県阿南市上中町岡106-1",
        "指定緊急避難場所との住所同一": "",
        "その他市町村長が必要と認める事項": null,
        "受入対象者": null,
        "備考": ""
      }
    },
    {
      "type": "Feature",
      "geometry": {
        "type": "Point",
        "coordinates": [
          134.628442,
          33.932408
        ]
      },
      "properties": {
        "NO": 65532,
        "共通ID": "E3620400059111",
        "都道府県名及び市町村名": "徳島県阿南市",
        "施設・場所名": "中野島小学校　体育館",
        "住所": "徳島県阿南市上中町中原182-1",
        "指定緊急避難場所との住所同一": "1",
        "その他市町村長が必要と認める事項": null,
        "受入対象者": null,
        "備考": ""
      }
    },
    {
      "type": "Feature",
      "geometry": {
        "type": "Point",
        "coordinates": [
          134.624516,
          33.934985
        ]
      },
      "properties": {
        "NO": 65533,
        "共通ID": "E3620400060111",
        "都道府県名及び市町村名": "徳島県阿南市",
        "施設・場所名": "明星保育所",
        "住所": "徳島県阿南市上中町中原353-2",
        "指定緊急避難場所との住所同一": "",
        "その他市町村長が必要と認める事項": null,
        "受入対象者": null,
        "備考": ""
      }
    },
    {
      "type": "Feature",
      "geometry": {
        "type": "Point",
        "coordinates": [
          134.596706,
          33.850031
        ]
      },
      "properties": {
        "NO": 65534,
        "共通ID": "E3620400061112",
        "都道府県名及び市町村名": "徳島県阿南市",
        "施設・場所名": "阿南光高等学校　新野キャンパス　宿泊棟",
        "住所": "徳島県阿南市新野町室ノ久保12",
        "指定緊急避難場所との住所同一": "1",
        "その他市町村長が必要と認める事項": "",
        "受入対象者": "",
        "備考": ""
      }
    },
    {
      "type": "Feature",
      "geometry": {
        "type": "Point",
        "coordinates": [
          134.595259,
          33.850291
        ]
      },
      "properties": {
        "NO": 65535,
        "共通ID": "E3620400061111",
        "都道府県名及び市町村名": "徳島県阿南市",
        "施設・場所名": "阿南光高等学校　新野キャンパス　体育館",
        "住所": "徳島県阿南市新野町室ノ久保12",
        "指定緊急避難場所との住所同一": "1",
        "その他市町村長が必要と認める事項": "",
        "受入対象者": "",
        "備考": ""
      }
    },
    {
      "type": "Feature",
      "geometry": {
        "type": "Point",
        "coordinates": [
          134.604161,
          33.84513
        ]
      },
      "properties": {
        "NO": 65536,
        "共通ID": "E3620400062111",
        "都道府県名及び市町村名": "徳島県阿南市",
        "施設・場所名": "新野東小学校　体育館",
        "住所": "徳島県阿南市新野町是国37-2",
        "指定緊急避難場所との住所同一": "1",
        "その他市町村長が必要と認める事項": null,
        "受入対象者": null,
        "備考": ""
      }
    },
    {
      "type": "Feature",
      "geometry": {
        "type": "Point",
        "coordinates": [
          134.581843,
          33.847802
        ]
      },
      "properties": {
        "NO": 65537,
        "共通ID": "E3620400063111",
        "都道府県名及び市町村名": "徳島県阿南市",
        "施設・場所名": "新野公民館",
        "住所": "徳島県阿南市新野町西馬場18",
        "指定緊急避難場所との住所同一": "1",
        "その他市町村長が必要と認める事項": null,
        "受入対象者": null,
        "備考": ""
      }
    },
    {
      "type": "Feature",
      "geometry": {
        "type": "Point",
        "coordinates": [
          134.586264,
          33.849063
        ]
      },
      "properties": {
        "NO": 65538,
        "共通ID": "E3620400064111",
        "都道府県名及び市町村名": "徳島県阿南市",
        "施設・場所名": "新野教育集会所",
        "住所": "徳島県阿南市新野町東馬場59-1",
        "指定緊急避難場所との住所同一": "",
        "その他市町村長が必要と認める事項": null,
        "受入対象者": null,
        "備考": ""
      }
    },
    {
      "type": "Feature",
      "geometry": {
        "type": "Point",
        "coordinates": [
          134.58116,
          33.846939
        ]
      },
      "properties": {
        "NO": 65539,
        "共通ID": "E3620400065112",
        "都道府県名及び市町村名": "徳島県阿南市",
        "施設・場所名": "新野小学校　体育館",
        "住所": "徳島県阿南市新野町南宮ノ久保70-1",
        "指定緊急避難場所との住所同一": "1",
        "その他市町村長が必要と認める事項": "",
        "受入対象者": "",
        "備考": ""
      }
    },
    {
      "type": "Feature",
      "geometry": {
        "type": "Point",
        "coordinates": [
          134.579,
          33.844397
        ]
      },
      "properties": {
        "NO": 65540,
        "共通ID": "E3620400066111",
        "都道府県名及び市町村名": "徳島県阿南市",
        "施設・場所名": "新野中学校　体育館",
        "住所": "徳島県阿南市新野町馬見21",
        "指定緊急避難場所との住所同一": "1",
        "その他市町村長が必要と認める事項": null,
        "受入対象者": null,
        "備考": ""
      }
    },
    {
      "type": "Feature",
      "geometry": {
        "type": "Point",
        "coordinates": [
          134.541711,
          33.838571
        ]
      },
      "properties": {
        "NO": 65541,
        "共通ID": "E3620400067111",
        "都道府県名及び市町村名": "徳島県阿南市",
        "施設・場所名": "新野西小学校（休校中）校舎",
        "住所": "徳島県阿南市新野町友常1",
        "指定緊急避難場所との住所同一": "1",
        "その他市町村長が必要と認める事項": null,
        "受入対象者": null,
        "備考": ""
      }
    },
    {
      "type": "Feature",
      "geometry": {
        "type": "Point",
        "coordinates": [
          134.548076,
          33.922015
        ]
      },
      "properties": {
        "NO": 65542,
        "共通ID": "E3620400068111",
        "都道府県名及び市町村名": "徳島県阿南市",
        "施設・場所名": "深瀬町コミュニティセンター",
        "住所": "徳島県阿南市深瀬町大畝町35-1",
        "指定緊急避難場所との住所同一": "1",
        "その他市町村長が必要と認める事項": null,
        "受入対象者": null,
        "備考": ""
      }
    },
    {
      "type": "Feature",
      "geometry": {
        "type": "Point",
        "coordinates": [
          134.494202,
          33.900848
        ]
      },
      "properties": {
        "NO": 65543,
        "共通ID": "E3620400069112",
        "都道府県名及び市町村名": "徳島県阿南市",
        "施設・場所名": "大井小学校（休校中）　体育館　　",
        "住所": "徳島県阿南市大井町東平127-1",
        "指定緊急避難場所との住所同一": "1",
        "その他市町村長が必要と認める事項": "",
        "受入対象者": "",
        "備考": ""
      }
    },
    {
      "type": "Feature",
      "geometry": {
        "type": "Point",
        "coordinates": [
          134.517932,
          33.908847
        ]
      },
      "properties": {
        "NO": 65544,
        "共通ID": "E3620400069111",
        "都道府県名及び市町村名": "徳島県阿南市",
        "施設・場所名": "大井小学校（休校中）　南校舎",
        "住所": "徳島県阿南市大井町東平127-1",
        "指定緊急避難場所との住所同一": "1",
        "その他市町村長が必要と認める事項": "",
        "受入対象者": "",
        "備考": ""
      }
    },
    {
      "type": "Feature",
      "geometry": {
        "type": "Point",
        "coordinates": [
          134.668492,
          33.88471
        ]
      },
      "properties": {
        "NO": 65545,
        "共通ID": "E3620400070111",
        "都道府県名及び市町村名": "徳島県阿南市",
        "施設・場所名": "阿南市武道館",
        "住所": "徳島県阿南市大潟町210-56",
        "指定緊急避難場所との住所同一": "1",
        "その他市町村長が必要と認める事項": null,
        "受入対象者": null,
        "備考": ""
      }
    },
    {
      "type": "Feature",
      "geometry": {
        "type": "Point",
        "coordinates": [
          134.667632,
          33.885134
        ]
      },
      "properties": {
        "NO": 65546,
        "共通ID": "E3620400071111",
        "都道府県名及び市町村名": "徳島県阿南市",
        "施設・場所名": "大潟会館",
        "住所": "徳島県阿南市大潟町214-16",
        "指定緊急避難場所との住所同一": "1",
        "その他市町村長が必要と認める事項": null,
        "受入対象者": null,
        "備考": ""
      }
    },
    {
      "type": "Feature",
      "geometry": {
        "type": "Point",
        "coordinates": [
          134.58684,
          33.930412
        ]
      },
      "properties": {
        "NO": 65547,
        "共通ID": "E3620400073111",
        "都道府県名及び市町村名": "徳島県阿南市",
        "施設・場所名": "大野公民館中大野分館",
        "住所": "徳島県阿南市中大野町南傍示132-3",
        "指定緊急避難場所との住所同一": "",
        "その他市町村長が必要と認める事項": null,
        "受入対象者": null,
        "備考": ""
      }
    },
    {
      "type": "Feature",
      "geometry": {
        "type": "Point",
        "coordinates": [
          134.589453,
          33.927912
        ]
      },
      "properties": {
        "NO": 65548,
        "共通ID": "E3620400074111",
        "都道府県名及び市町村名": "徳島県阿南市",
        "施設・場所名": "大野隣保館",
        "住所": "徳島県阿南市中大野町南傍示249-1",
        "指定緊急避難場所との住所同一": "",
        "その他市町村長が必要と認める事項": null,
        "受入対象者": null,
        "備考": ""
      }
    },
    {
      "type": "Feature",
      "geometry": {
        "type": "Point",
        "coordinates": [
          134.594167,
          33.933267
        ]
      },
      "properties": {
        "NO": 65549,
        "共通ID": "E3620400075111",
        "都道府県名及び市町村名": "徳島県阿南市",
        "施設・場所名": "大野公民館",
        "住所": "徳島県阿南市中大野町北傍示440-2",
        "指定緊急避難場所との住所同一": "1",
        "その他市町村長が必要と認める事項": null,
        "受入対象者": null,
        "備考": ""
      }
    },
    {
      "type": "Feature",
      "geometry": {
        "type": "Point",
        "coordinates": [
          134.589424,
          33.9309
        ]
      },
      "properties": {
        "NO": 65550,
        "共通ID": "E3620400076111",
        "都道府県名及び市町村名": "徳島県阿南市",
        "施設・場所名": "中大野教育集会所",
        "住所": "徳島県阿南市中大野町北傍示616-14",
        "指定緊急避難場所との住所同一": "",
        "その他市町村長が必要と認める事項": null,
        "受入対象者": null,
        "備考": ""
      }
    },
    {
      "type": "Feature",
      "geometry": {
        "type": "Point",
        "coordinates": [
          134.616846,
          33.910534
        ]
      },
      "properties": {
        "NO": 65551,
        "共通ID": "E3620400077111",
        "都道府県名及び市町村名": "徳島県阿南市",
        "施設・場所名": "長生保育所",
        "住所": "徳島県阿南市長生町五反地18",
        "指定緊急避難場所との住所同一": "",
        "その他市町村長が必要と認める事項": null,
        "受入対象者": null,
        "備考": ""
      }
    },
    {
      "type": "Feature",
      "geometry": {
        "type": "Point",
        "coordinates": [
          134.616545,
          33.910229
        ]
      },
      "properties": {
        "NO": 65552,
        "共通ID": "E3620400078111",
        "都道府県名及び市町村名": "徳島県阿南市",
        "施設・場所名": "長生小学校　体育館",
        "住所": "徳島県阿南市長生町五反地25-2",
        "指定緊急避難場所との住所同一": "1",
        "その他市町村長が必要と認める事項": null,
        "受入対象者": null,
        "備考": ""
      }
    },
    {
      "type": "Feature",
      "geometry": {
        "type": "Point",
        "coordinates": [
          134.629911,
          33.916072
        ]
      },
      "properties": {
        "NO": 65553,
        "共通ID": "E3620400079111",
        "都道府県名及び市町村名": "徳島県阿南市",
        "施設・場所名": "長生隣保館",
        "住所": "徳島県阿南市長生町舟田58",
        "指定緊急避難場所との住所同一": "",
        "その他市町村長が必要と認める事項": null,
        "受入対象者": null,
        "備考": ""
      }
    },
    {
      "type": "Feature",
      "geometry": {
        "type": "Point",
        "coordinates": [
          134.629845,
          33.916227
        ]
      },
      "properties": {
        "NO": 65554,
        "共通ID": "E3620400080111",
        "都道府県名及び市町村名": "徳島県阿南市",
        "施設・場所名": "本庄老人ルーム",
        "住所": "徳島県阿南市長生町舟田66",
        "指定緊急避難場所との住所同一": "",
        "その他市町村長が必要と認める事項": "",
        "受入対象者": "",
        "備考": ""
      }
    },
    {
      "type": "Feature",
      "geometry": {
        "type": "Point",
        "coordinates": [
          134.61937,
          33.908677
        ]
      },
      "properties": {
        "NO": 65555,
        "共通ID": "E3620400081111",
        "都道府県名及び市町村名": "徳島県阿南市",
        "施設・場所名": "長生公民館",
        "住所": "徳島県阿南市長生町上荒井楠ノ前4-2",
        "指定緊急避難場所との住所同一": "1",
        "その他市町村長が必要と認める事項": null,
        "受入対象者": null,
        "備考": ""
      }
    },
    {
      "type": "Feature",
      "geometry": {
        "type": "Point",
        "coordinates": [
          134.517672,
          33.908961
        ]
      },
      "properties": {
        "NO": 65556,
        "共通ID": "E3620400082112",
        "都道府県名及び市町村名": "徳島県阿南市",
        "施設・場所名": "阿南第一中学校　　剣道場",
        "住所": "徳島県阿南市長生町西方589",
        "指定緊急避難場所との住所同一": "1",
        "その他市町村長が必要と認める事項": "",
        "受入対象者": "",
        "備考": ""
      }
    },
    {
      "type": "Feature",
      "geometry": {
        "type": "Point",
        "coordinates": [
          134.624458,
          33.926954
        ]
      },
      "properties": {
        "NO": 65557,
        "共通ID": "E3620400082111",
        "都道府県名及び市町村名": "徳島県阿南市",
        "施設・場所名": "阿南第一中学校　体育館",
        "住所": "徳島県阿南市長生町西方589",
        "指定緊急避難場所との住所同一": "1",
        "その他市町村長が必要と認める事項": "",
        "受入対象者": "",
        "備考": ""
      }
    },
    {
      "type": "Feature",
      "geometry": {
        "type": "Point",
        "coordinates": [
          134.626968,
          33.914034
        ]
      },
      "properties": {
        "NO": 65558,
        "共通ID": "E3620400083111",
        "都道府県名及び市町村名": "徳島県阿南市",
        "施設・場所名": "本庄保育所",
        "住所": "徳島県阿南市長生町平久保60",
        "指定緊急避難場所との住所同一": "",
        "その他市町村長が必要と認める事項": null,
        "受入対象者": null,
        "備考": ""
      }
    },
    {
      "type": "Feature",
      "geometry": {
        "type": "Point",
        "coordinates": [
          134.629672,
          33.914869
        ]
      },
      "properties": {
        "NO": 65559,
        "共通ID": "E3620400084111",
        "都道府県名及び市町村名": "徳島県阿南市",
        "施設・場所名": "本庄公会堂",
        "住所": "徳島県阿南市長生町油免83",
        "指定緊急避難場所との住所同一": "",
        "その他市町村長が必要と認める事項": null,
        "受入対象者": null,
        "備考": ""
      }
    },
    {
      "type": "Feature",
      "geometry": {
        "type": "Point",
        "coordinates": [
          134.6496,
          33.88465
        ]
      },
      "properties": {
        "NO": 65560,
        "共通ID": "E3620400085111",
        "都道府県名及び市町村名": "徳島県阿南市",
        "施設・場所名": "津乃峰小学校　体育館",
        "住所": "徳島県阿南市津乃峰町戎山129-37",
        "指定緊急避難場所との住所同一": "1",
        "その他市町村長が必要と認める事項": null,
        "受入対象者": null,
        "備考": ""
      }
    },
    {
      "type": "Feature",
      "geometry": {
        "type": "Point",
        "coordinates": [
          134.654239,
          33.88769
        ]
      },
      "properties": {
        "NO": 65561,
        "共通ID": "E3620400088112",
        "都道府県名及び市町村名": "徳島県阿南市",
        "施設・場所名": "Ｂ＆Ｇ海洋センター体育館",
        "住所": "徳島県阿南市津乃峰町長浜387",
        "指定緊急避難場所との住所同一": "",
        "その他市町村長が必要と認める事項": null,
        "受入対象者": null,
        "備考": ""
      }
    },
    {
      "type": "Feature",
      "geometry": {
        "type": "Point",
        "coordinates": [
          134.654395,
          33.888104
        ]
      },
      "properties": {
        "NO": 65562,
        "共通ID": "E3620400088111",
        "都道府県名及び市町村名": "徳島県阿南市",
        "施設・場所名": "津乃峰保育所",
        "住所": "徳島県阿南市津乃峰町長浜387",
        "指定緊急避難場所との住所同一": "",
        "その他市町村長が必要と認める事項": null,
        "受入対象者": null,
        "備考": ""
      }
    },
    {
      "type": "Feature",
      "geometry": {
        "type": "Point",
        "coordinates": [
          134.655915,
          33.888756
        ]
      },
      "properties": {
        "NO": 65563,
        "共通ID": "E3620400089111",
        "都道府県名及び市町村名": "徳島県阿南市",
        "施設・場所名": "津乃峰総合センター",
        "住所": "徳島県阿南市津乃峰町長浜494",
        "指定緊急避難場所との住所同一": "1",
        "その他市町村長が必要と認める事項": "",
        "受入対象者": "",
        "備考": ""
      }
    },
    {
      "type": "Feature",
      "geometry": {
        "type": "Point",
        "coordinates": [
          134.741573,
          33.838337
        ]
      },
      "properties": {
        "NO": 65564,
        "共通ID": "E3620400090111",
        "都道府県名及び市町村名": "徳島県阿南市",
        "施設・場所名": "蒲生田小学校（休校中）　校舎",
        "住所": "徳島県阿南市椿町蒲生田2",
        "指定緊急避難場所との住所同一": "1",
        "その他市町村長が必要と認める事項": null,
        "受入対象者": null,
        "備考": ""
      }
    },
    {
      "type": "Feature",
      "geometry": {
        "type": "Point",
        "coordinates": [
          134.681626,
          33.834291
        ]
      },
      "properties": {
        "NO": 65565,
        "共通ID": "E3620400091111",
        "都道府県名及び市町村名": "徳島県阿南市",
        "施設・場所名": "椿町中学校　体育館",
        "住所": "徳島県阿南市椿町宮ケ谷23",
        "指定緊急避難場所との住所同一": "1",
        "その他市町村長が必要と認める事項": null,
        "受入対象者": null,
        "備考": ""
      }
    },
    {
      "type": "Feature",
      "geometry": {
        "type": "Point",
        "coordinates": [
          134.66821,
          33.830354
        ]
      },
      "properties": {
        "NO": 65566,
        "共通ID": "E3620400092111",
        "都道府県名及び市町村名": "徳島県阿南市",
        "施設・場所名": "椿保育所",
        "住所": "徳島県阿南市椿町高岸64-1",
        "指定緊急避難場所との住所同一": "",
        "その他市町村長が必要と認める事項": null,
        "受入対象者": null,
        "備考": ""
      }
    },
    {
      "type": "Feature",
      "geometry": {
        "type": "Point",
        "coordinates": [
          134.666093,
          33.828824
        ]
      },
      "properties": {
        "NO": 65567,
        "共通ID": "E3620400093111",
        "都道府県名及び市町村名": "徳島県阿南市",
        "施設・場所名": "椿小学校　体育館",
        "住所": "徳島県阿南市椿町黒田47",
        "指定緊急避難場所との住所同一": "1",
        "その他市町村長が必要と認める事項": null,
        "受入対象者": null,
        "備考": ""
      }
    },
    {
      "type": "Feature",
      "geometry": {
        "type": "Point",
        "coordinates": [
          134.726488,
          33.831653
        ]
      },
      "properties": {
        "NO": 65568,
        "共通ID": "E3620400094111",
        "都道府県名及び市町村名": "徳島県阿南市",
        "施設・場所名": "かもだ岬温泉保養施設",
        "住所": "徳島県阿南市椿町船瀬60-2",
        "指定緊急避難場所との住所同一": "1",
        "その他市町村長が必要と認める事項": null,
        "受入対象者": null,
        "備考": ""
      }
    },
    {
      "type": "Feature",
      "geometry": {
        "type": "Point",
        "coordinates": [
          134.677567,
          33.831302
        ]
      },
      "properties": {
        "NO": 65569,
        "共通ID": "E3620400095111",
        "都道府県名及び市町村名": "徳島県阿南市",
        "施設・場所名": "椿会館",
        "住所": "徳島県阿南市椿町浜14",
        "指定緊急避難場所との住所同一": "1",
        "その他市町村長が必要と認める事項": null,
        "受入対象者": null,
        "備考": ""
      }
    },
    {
      "type": "Feature",
      "geometry": {
        "type": "Point",
        "coordinates": [
          134.710466,
          33.842908
        ]
      },
      "properties": {
        "NO": 65570,
        "共通ID": "E3620400096112",
        "都道府県名及び市町村名": "徳島県阿南市",
        "施設・場所名": "椿泊老人いこいの家",
        "住所": "徳島県阿南市椿泊町出島9-2",
        "指定緊急避難場所との住所同一": "1",
        "その他市町村長が必要と認める事項": "",
        "受入対象者": "",
        "備考": ""
      }
    },
    {
      "type": "Feature",
      "geometry": {
        "type": "Point",
        "coordinates": [
          134.71038,
          33.843033
        ]
      },
      "properties": {
        "NO": 65571,
        "共通ID": "E3620400096111",
        "都道府県名及び市町村名": "徳島県阿南市",
        "施設・場所名": "椿公民館　椿泊分館",
        "住所": "徳島県阿南市椿泊町出島9-2",
        "指定緊急避難場所との住所同一": "1",
        "その他市町村長が必要と認める事項": null,
        "受入対象者": null,
        "備考": ""
      }
    },
    {
      "type": "Feature",
      "geometry": {
        "type": "Point",
        "coordinates": [
          134.716061,
          33.84462
        ]
      },
      "properties": {
        "NO": 65572,
        "共通ID": "E3620400097111",
        "都道府県名及び市町村名": "徳島県阿南市",
        "施設・場所名": "椿泊小学校　体育館",
        "住所": "徳島県阿南市椿泊町東127",
        "指定緊急避難場所との住所同一": "1",
        "その他市町村長が必要と認める事項": null,
        "受入対象者": null,
        "備考": ""
      }
    },
    {
      "type": "Feature",
      "geometry": {
        "type": "Point",
        "coordinates": [
          134.68294,
          33.95365
        ]
      },
      "properties": {
        "NO": 65573,
        "共通ID": "E3620400098111",
        "都道府県名及び市町村名": "徳島県阿南市",
        "施設・場所名": "コート・ベール徳島クラブハウス",
        "住所": "徳島県阿南市那賀川町みどり台1-1",
        "指定緊急避難場所との住所同一": "",
        "その他市町村長が必要と認める事項": null,
        "受入対象者": null,
        "備考": ""
      }
    },
    {
      "type": "Feature",
      "geometry": {
        "type": "Point",
        "coordinates": [
          134.660748,
          33.951127
        ]
      },
      "properties": {
        "NO": 65574,
        "共通ID": "E3620400099111",
        "都道府県名及び市町村名": "徳島県阿南市",
        "施設・場所名": "那賀川図書館",
        "住所": "徳島県阿南市那賀川町苅屋308-1",
        "指定緊急避難場所との住所同一": "",
        "その他市町村長が必要と認める事項": null,
        "受入対象者": null,
        "備考": ""
      }
    },
    {
      "type": "Feature",
      "geometry": {
        "type": "Point",
        "coordinates": [
          134.66282,
          33.950353
        ]
      },
      "properties": {
        "NO": 65575,
        "共通ID": "E3620400100111",
        "都道府県名及び市町村名": "徳島県阿南市",
        "施設・場所名": "那賀川老人いこいの家",
        "住所": "徳島県阿南市那賀川町苅屋325-2",
        "指定緊急避難場所との住所同一": "",
        "その他市町村長が必要と認める事項": "",
        "受入対象者": "",
        "備考": ""
      }
    },
    {
      "type": "Feature",
      "geometry": {
        "type": "Point",
        "coordinates": [
          134.663125,
          33.948389
        ]
      },
      "properties": {
        "NO": 65576,
        "共通ID": "E3620400101111",
        "都道府県名及び市町村名": "徳島県阿南市",
        "施設・場所名": "那賀川スポーツセンター",
        "住所": "徳島県阿南市那賀川町苅屋354-1",
        "指定緊急避難場所との住所同一": "1",
        "その他市町村長が必要と認める事項": null,
        "受入対象者": null,
        "備考": ""
      }
    },
    {
      "type": "Feature",
      "geometry": {
        "type": "Point",
        "coordinates": [
          134.661891,
          33.948831
        ]
      },
      "properties": {
        "NO": 65577,
        "共通ID": "E3620400102111",
        "都道府県名及び市町村名": "徳島県阿南市",
        "施設・場所名": "那賀川中学校　武道場",
        "住所": "徳島県阿南市那賀川町苅屋370-1",
        "指定緊急避難場所との住所同一": "1",
        "その他市町村長が必要と認める事項": null,
        "受入対象者": null,
        "備考": ""
      }
    },
    {
      "type": "Feature",
      "geometry": {
        "type": "Point",
        "coordinates": [
          134.660858,
          33.949715
        ]
      },
      "properties": {
        "NO": 65578,
        "共通ID": "E3620400103111",
        "都道府県名及び市町村名": "徳島県阿南市",
        "施設・場所名": "平島こどもセンター",
        "住所": "徳島県阿南市那賀川町苅屋370-5",
        "指定緊急避難場所との住所同一": "",
        "その他市町村長が必要と認める事項": null,
        "受入対象者": null,
        "備考": ""
      }
    },
    {
      "type": "Feature",
      "geometry": {
        "type": "Point",
        "coordinates": [
          134.641483,
          33.964978
        ]
      },
      "properties": {
        "NO": 65579,
        "共通ID": "E3620400105111",
        "都道府県名及び市町村名": "徳島県阿南市",
        "施設・場所名": "黒地教育集会所",
        "住所": "徳島県阿南市那賀川町黒地658-1",
        "指定緊急避難場所との住所同一": "",
        "その他市町村長が必要と認める事項": null,
        "受入対象者": null,
        "備考": ""
      }
    },
    {
      "type": "Feature",
      "geometry": {
        "type": "Point",
        "coordinates": [
          134.641045,
          33.963105
        ]
      },
      "properties": {
        "NO": 65580,
        "共通ID": "E3620400106111",
        "都道府県名及び市町村名": "徳島県阿南市",
        "施設・場所名": "黒地文化センター",
        "住所": "徳島県阿南市那賀川町黒地712-1",
        "指定緊急避難場所との住所同一": "1",
        "その他市町村長が必要と認める事項": null,
        "受入対象者": null,
        "備考": ""
      }
    },
    {
      "type": "Feature",
      "geometry": {
        "type": "Point",
        "coordinates": [
          134.651518,
          33.962084
        ]
      },
      "properties": {
        "NO": 65581,
        "共通ID": "E3620400107111",
        "都道府県名及び市町村名": "徳島県阿南市",
        "施設・場所名": "那賀川公民館",
        "住所": "徳島県阿南市那賀川町今津浦喜来31-1",
        "指定緊急避難場所との住所同一": "1",
        "その他市町村長が必要と認める事項": null,
        "受入対象者": null,
        "備考": ""
      }
    },
    {
      "type": "Feature",
      "geometry": {
        "type": "Point",
        "coordinates": [
          134.650438,
          33.961215
        ]
      },
      "properties": {
        "NO": 65582,
        "共通ID": "E3620400108111",
        "都道府県名及び市町村名": "徳島県阿南市",
        "施設・場所名": "今津こどもセンター",
        "住所": "徳島県阿南市那賀川町今津浦喜来65-1",
        "指定緊急避難場所との住所同一": "",
        "その他市町村長が必要と認める事項": null,
        "受入対象者": null,
        "備考": ""
      }
    },
    {
      "type": "Feature",
      "geometry": {
        "type": "Point",
        "coordinates": [
          134.681301,
          33.948936
        ]
      },
      "properties": {
        "NO": 65583,
        "共通ID": "E3620400110111",
        "都道府県名及び市町村名": "徳島県阿南市",
        "施設・場所名": "科学センター",
        "住所": "徳島県阿南市那賀川町上福井南川渕8-1",
        "指定緊急避難場所との住所同一": "1",
        "その他市町村長が必要と認める事項": null,
        "受入対象者": null,
        "備考": ""
      }
    },
    {
      "type": "Feature",
      "geometry": {
        "type": "Point",
        "coordinates": [
          134.662387,
          33.943296
        ]
      },
      "properties": {
        "NO": 65584,
        "共通ID": "E3620400111111",
        "都道府県名及び市町村名": "徳島県阿南市",
        "施設・場所名": "平島小学校　体育館",
        "住所": "徳島県阿南市那賀川町赤池131-2",
        "指定緊急避難場所との住所同一": "1",
        "その他市町村長が必要と認める事項": null,
        "受入対象者": null,
        "備考": ""
      }
    },
    {
      "type": "Feature",
      "geometry": {
        "type": "Point",
        "coordinates": [
          134.663023,
          33.942291
        ]
      },
      "properties": {
        "NO": 65585,
        "共通ID": "E3620400112111",
        "都道府県名及び市町村名": "徳島県阿南市",
        "施設・場所名": "那賀川公民館　平島分館",
        "住所": "徳島県阿南市那賀川町赤池307-2",
        "指定緊急避難場所との住所同一": "1",
        "その他市町村長が必要と認める事項": "",
        "受入対象者": "",
        "備考": ""
      }
    },
    {
      "type": "Feature",
      "geometry": {
        "type": "Point",
        "coordinates": [
          134.648197,
          33.936475
        ]
      },
      "properties": {
        "NO": 65586,
        "共通ID": "E3620400113111",
        "都道府県名及び市町村名": "徳島県阿南市",
        "施設・場所名": "大京原教育集会所",
        "住所": "徳島県阿南市那賀川町大京原1079-5",
        "指定緊急避難場所との住所同一": "",
        "その他市町村長が必要と認める事項": null,
        "受入対象者": null,
        "備考": ""
      }
    },
    {
      "type": "Feature",
      "geometry": {
        "type": "Point",
        "coordinates": [
          134.646269,
          33.964112
        ]
      },
      "properties": {
        "NO": 65587,
        "共通ID": "E3620400116111",
        "都道府県名及び市町村名": "徳島県阿南市",
        "施設・場所名": "今津小学校　体育館",
        "住所": "徳島県阿南市那賀川町敷地238",
        "指定緊急避難場所との住所同一": "1",
        "その他市町村長が必要と認める事項": null,
        "受入対象者": null,
        "備考": ""
      }
    },
    {
      "type": "Feature",
      "geometry": {
        "type": "Point",
        "coordinates": [
          134.629375,
          33.87625
        ]
      },
      "properties": {
        "NO": 65588,
        "共通ID": "E3620400118112",
        "都道府県名及び市町村名": "徳島県阿南市",
        "施設・場所名": "阿南第二中学校　剣道場",
        "住所": "徳島県阿南市内原町竹ノ内口143-1",
        "指定緊急避難場所との住所同一": "1",
        "その他市町村長が必要と認める事項": "",
        "受入対象者": "",
        "備考": ""
      }
    },
    {
      "type": "Feature",
      "geometry": {
        "type": "Point",
        "coordinates": [
          134.628968,
          33.876771
        ]
      },
      "properties": {
        "NO": 65589,
        "共通ID": "E3620400118111",
        "都道府県名及び市町村名": "徳島県阿南市",
        "施設・場所名": "阿南第二中学校　体育館",
        "住所": "徳島県阿南市内原町竹ノ内口143-1",
        "指定緊急避難場所との住所同一": "1",
        "その他市町村長が必要と認める事項": "",
        "受入対象者": "",
        "備考": ""
      }
    },
    {
      "type": "Feature",
      "geometry": {
        "type": "Point",
        "coordinates": [
          134.673833,
          33.918389
        ]
      },
      "properties": {
        "NO": 65590,
        "共通ID": "E3620400120111",
        "都道府県名及び市町村名": "徳島県阿南市",
        "施設・場所名": "日開野コミュニティセンター",
        "住所": "徳島県阿南市日開野町南居内322",
        "指定緊急避難場所との住所同一": "",
        "その他市町村長が必要と認める事項": null,
        "受入対象者": null,
        "備考": ""
      }
    },
    {
      "type": "Feature",
      "geometry": {
        "type": "Point",
        "coordinates": [
          134.655836,
          33.917272
        ]
      },
      "properties": {
        "NO": 65591,
        "共通ID": "E3620400122111",
        "都道府県名及び市町村名": "徳島県阿南市",
        "施設・場所名": "ロイヤルガーデンホテル",
        "住所": "徳島県阿南市富岡町あ王谷52-2",
        "指定緊急避難場所との住所同一": "",
        "その他市町村長が必要と認める事項": null,
        "受入対象者": null,
        "備考": ""
      }
    },
    {
      "type": "Feature",
      "geometry": {
        "type": "Point",
        "coordinates": [
          134.656066,
          33.920594
        ]
      },
      "properties": {
        "NO": 65592,
        "共通ID": "E3620400125112",
        "都道府県名及び市町村名": "徳島県阿南市",
        "施設・場所名": "富岡保育所",
        "住所": "徳島県阿南市富岡町トノ町96-1",
        "指定緊急避難場所との住所同一": "1",
        "その他市町村長が必要と認める事項": null,
        "受入対象者": null,
        "備考": ""
      }
    },
    {
      "type": "Feature",
      "geometry": {
        "type": "Point",
        "coordinates": [
          134.655734,
          33.920701
        ]
      },
      "properties": {
        "NO": 65593,
        "共通ID": "E3620400125111",
        "都道府県名及び市町村名": "徳島県阿南市",
        "施設・場所名": "阿南琴江寮",
        "住所": "徳島県阿南市富岡町トノ町96-1",
        "指定緊急避難場所との住所同一": "1",
        "その他市町村長が必要と認める事項": null,
        "受入対象者": null,
        "備考": ""
      }
    },
    {
      "type": "Feature",
      "geometry": {
        "type": "Point",
        "coordinates": [
          134.663237,
          33.918917
        ]
      },
      "properties": {
        "NO": 65594,
        "共通ID": "E3620400126111",
        "都道府県名及び市町村名": "徳島県阿南市",
        "施設・場所名": "商工業振興センター",
        "住所": "徳島県阿南市富岡町今福寺34-4",
        "指定緊急避難場所との住所同一": "",
        "その他市町村長が必要と認める事項": null,
        "受入対象者": null,
        "備考": ""
      }
    },
    {
      "type": "Feature",
      "geometry": {
        "type": "Point",
        "coordinates": [
          134.662295,
          33.918572
        ]
      },
      "properties": {
        "NO": 65595,
        "共通ID": "E3620400127111",
        "都道府県名及び市町村名": "徳島県阿南市",
        "施設・場所名": "阿南社会福祉会館",
        "住所": "徳島県阿南市富岡町今福寺40-17",
        "指定緊急避難場所との住所同一": "1",
        "その他市町村長が必要と認める事項": null,
        "受入対象者": null,
        "備考": ""
      }
    },
    {
      "type": "Feature",
      "geometry": {
        "type": "Point",
        "coordinates": [
          134.653151,
          33.917696
        ]
      },
      "properties": {
        "NO": 65596,
        "共通ID": "E3620400128111",
        "都道府県名及び市町村名": "徳島県阿南市",
        "施設・場所名": "寿保育所",
        "住所": "徳島県阿南市富岡町寿通108",
        "指定緊急避難場所との住所同一": "",
        "その他市町村長が必要と認める事項": "",
        "受入対象者": "",
        "備考": ""
      }
    },
    {
      "type": "Feature",
      "geometry": {
        "type": "Point",
        "coordinates": [
          134.64977,
          33.919837
        ]
      },
      "properties": {
        "NO": 65597,
        "共通ID": "E3620400129112",
        "都道府県名及び市町村名": "徳島県阿南市",
        "施設・場所名": "富岡西高等学校　武道場",
        "住所": "徳島県阿南市富岡町小山18-3",
        "指定緊急避難場所との住所同一": "1",
        "その他市町村長が必要と認める事項": "",
        "受入対象者": "",
        "備考": ""
      }
    },
    {
      "type": "Feature",
      "geometry": {
        "type": "Point",
        "coordinates": [
          134.649396,
          33.919393
        ]
      },
      "properties": {
        "NO": 65598,
        "共通ID": "E3620400129111",
        "都道府県名及び市町村名": "徳島県阿南市",
        "施設・場所名": "富岡西高等学校　体育館",
        "住所": "徳島県阿南市富岡町小山18-3",
        "指定緊急避難場所との住所同一": "1",
        "その他市町村長が必要と認める事項": "",
        "受入対象者": "",
        "備考": ""
      }
    },
    {
      "type": "Feature",
      "geometry": {
        "type": "Point",
        "coordinates": [
          134.656099,
          33.915642
        ]
      },
      "properties": {
        "NO": 65599,
        "共通ID": "E3620400131112",
        "都道府県名及び市町村名": "徳島県阿南市",
        "施設・場所名": "阿南市文化会館",
        "住所": "徳島県阿南市富岡町西池田135-1",
        "指定緊急避難場所との住所同一": "1",
        "その他市町村長が必要と認める事項": null,
        "受入対象者": null,
        "備考": ""
      }
    },
    {
      "type": "Feature",
      "geometry": {
        "type": "Point",
        "coordinates": [
          134.656566,
          33.915384
        ]
      },
      "properties": {
        "NO": 65600,
        "共通ID": "E3620400131111",
        "都道府県名及び市町村名": "徳島県阿南市",
        "施設・場所名": "富岡公民館",
        "住所": "徳島県阿南市富岡町西池田135-1",
        "指定緊急避難場所との住所同一": "1",
        "その他市町村長が必要と認める事項": null,
        "受入対象者": null,
        "備考": ""
      }
    },
    {
      "type": "Feature",
      "geometry": {
        "type": "Point",
        "coordinates": [
          134.665139,
          33.91593
        ]
      },
      "properties": {
        "NO": 65601,
        "共通ID": "E3620400132111",
        "都道府県名及び市町村名": "徳島県阿南市",
        "施設・場所名": "ホテルサンオーシャン",
        "住所": "徳島県阿南市富岡町滝ノ下42",
        "指定緊急避難場所との住所同一": "",
        "その他市町村長が必要と認める事項": null,
        "受入対象者": null,
        "備考": ""
      }
    },
    {
      "type": "Feature",
      "geometry": {
        "type": "Point",
        "coordinates": [
          134.662545,
          33.921346
        ]
      },
      "properties": {
        "NO": 65602,
        "共通ID": "E3620400133111",
        "都道府県名及び市町村名": "徳島県阿南市",
        "施設・場所名": "阿南ひまわり会館",
        "住所": "徳島県阿南市富岡町北通33-1",
        "指定緊急避難場所との住所同一": "1",
        "その他市町村長が必要と認める事項": null,
        "受入対象者": null,
        "備考": ""
      }
    },
    {
      "type": "Feature",
      "geometry": {
        "type": "Point",
        "coordinates": [
          134.6211,
          33.836871
        ]
      },
      "properties": {
        "NO": 65603,
        "共通ID": "E3620400134111",
        "都道府県名及び市町村名": "徳島県阿南市",
        "施設・場所名": "福井町総合センター",
        "住所": "徳島県阿南市福井町古津198-2",
        "指定緊急避難場所との住所同一": "1",
        "その他市町村長が必要と認める事項": null,
        "受入対象者": null,
        "備考": ""
      }
    },
    {
      "type": "Feature",
      "geometry": {
        "type": "Point",
        "coordinates": [
          134.621338,
          33.837257
        ]
      },
      "properties": {
        "NO": 65604,
        "共通ID": "E3620400135111",
        "都道府県名及び市町村名": "徳島県阿南市",
        "施設・場所名": "福井保育所",
        "住所": "徳島県阿南市福井町高田117-3",
        "指定緊急避難場所との住所同一": "1",
        "その他市町村長が必要と認める事項": null,
        "受入対象者": null,
        "備考": ""
      }
    },
    {
      "type": "Feature",
      "geometry": {
        "type": "Point",
        "coordinates": [
          134.622638,
          33.838587
        ]
      },
      "properties": {
        "NO": 65605,
        "共通ID": "E3620400136111",
        "都道府県名及び市町村名": "徳島県阿南市",
        "施設・場所名": "福井中学校　体育館",
        "住所": "徳島県阿南市福井町大西141",
        "指定緊急避難場所との住所同一": "1",
        "その他市町村長が必要と認める事項": null,
        "受入対象者": null,
        "備考": ""
      }
    },
    {
      "type": "Feature",
      "geometry": {
        "type": "Point",
        "coordinates": [
          134.621454,
          33.838167
        ]
      },
      "properties": {
        "NO": 65606,
        "共通ID": "E3620400137111",
        "都道府県名及び市町村名": "徳島県阿南市",
        "施設・場所名": "福井小学校　体育館",
        "住所": "徳島県阿南市福井町大西192-1",
        "指定緊急避難場所との住所同一": "1",
        "その他市町村長が必要と認める事項": null,
        "受入対象者": null,
        "備考": ""
      }
    },
    {
      "type": "Feature",
      "geometry": {
        "type": "Point",
        "coordinates": [
          134.589799,
          33.798999
        ]
      },
      "properties": {
        "NO": 65607,
        "共通ID": "E3620400141111",
        "都道府県名及び市町村名": "徳島県阿南市",
        "施設・場所名": "福井南小学校（休校中）　体育館",
        "住所": "徳島県阿南市福井町日の地122-1",
        "指定緊急避難場所との住所同一": "1",
        "その他市町村長が必要と認める事項": "",
        "受入対象者": "",
        "備考": ""
      }
    },
    {
      "type": "Feature",
      "geometry": {
        "type": "Point",
        "coordinates": [
          134.589518,
          33.798811
        ]
      },
      "properties": {
        "NO": 65608,
        "共通ID": "E3620400142111",
        "都道府県名及び市町村名": "徳島県阿南市",
        "施設・場所名": "小野保育所（休所中）",
        "住所": "徳島県阿南市福井町日の地122-3",
        "指定緊急避難場所との住所同一": "",
        "その他市町村長が必要と認める事項": null,
        "受入対象者": null,
        "備考": ""
      }
    },
    {
      "type": "Feature",
      "geometry": {
        "type": "Point",
        "coordinates": [
          134.63518,
          33.920703
        ]
      },
      "properties": {
        "NO": 65609,
        "共通ID": "E3620400143111",
        "都道府県名及び市町村名": "徳島県阿南市",
        "施設・場所名": "宝田小学校　体育館",
        "住所": "徳島県阿南市宝田町久保田124",
        "指定緊急避難場所との住所同一": "1",
        "その他市町村長が必要と認める事項": null,
        "受入対象者": null,
        "備考": ""
      }
    },
    {
      "type": "Feature",
      "geometry": {
        "type": "Point",
        "coordinates": [
          134.637534,
          33.923004
        ]
      },
      "properties": {
        "NO": 65610,
        "共通ID": "E3620400144112",
        "都道府県名及び市町村名": "徳島県阿南市",
        "施設・場所名": "宝田公民館",
        "住所": "徳島県阿南市宝田町久保田97-1",
        "指定緊急避難場所との住所同一": "1",
        "その他市町村長が必要と認める事項": null,
        "受入対象者": null,
        "備考": ""
      }
    },
    {
      "type": "Feature",
      "geometry": {
        "type": "Point",
        "coordinates": [
          134.637437,
          33.922826
        ]
      },
      "properties": {
        "NO": 65611,
        "共通ID": "E3620400144111",
        "都道府県名及び市町村名": "徳島県阿南市",
        "施設・場所名": "宝田こどもセンター",
        "住所": "徳島県阿南市宝田町久保田97-1",
        "指定緊急避難場所との住所同一": "1",
        "その他市町村長が必要と認める事項": "",
        "受入対象者": "",
        "備考": ""
      }
    },
    {
      "type": "Feature",
      "geometry": {
        "type": "Point",
        "coordinates": [
          134.638934,
          33.92492
        ]
      },
      "properties": {
        "NO": 65612,
        "共通ID": "E3620400145112",
        "都道府県名及び市町村名": "徳島県阿南市",
        "施設・場所名": "阿南光高等学校　宝田キャンパス　　格技場　",
        "住所": "徳島県阿南市宝田町今市中新開10-6",
        "指定緊急避難場所との住所同一": "1",
        "その他市町村長が必要と認める事項": "",
        "受入対象者": "",
        "備考": ""
      }
    },
    {
      "type": "Feature",
      "geometry": {
        "type": "Point",
        "coordinates": [
          134.638997,
          33.924545
        ]
      },
      "properties": {
        "NO": 65613,
        "共通ID": "E3620400145111",
        "都道府県名及び市町村名": "徳島県阿南市",
        "施設・場所名": "阿南光高等学校　宝田キャンパス　体育館",
        "住所": "徳島県阿南市宝田町今市中新開10-6",
        "指定緊急避難場所との住所同一": "1",
        "その他市町村長が必要と認める事項": "",
        "受入対象者": "",
        "備考": ""
      }
    },
    {
      "type": "Feature",
      "geometry": {
        "type": "Point",
        "coordinates": [
          134.644794,
          33.919068
        ]
      },
      "properties": {
        "NO": 65614,
        "共通ID": "E3620400146111",
        "都道府県名及び市町村名": "徳島県阿南市",
        "施設・場所名": "郡教育集会所",
        "住所": "徳島県阿南市宝田町出口131-5",
        "指定緊急避難場所との住所同一": "",
        "その他市町村長が必要と認める事項": null,
        "受入対象者": null,
        "備考": ""
      }
    },
    {
      "type": "Feature",
      "geometry": {
        "type": "Point",
        "coordinates": [
          134.640699,
          33.933165
        ]
      },
      "properties": {
        "NO": 65615,
        "共通ID": "E3620400147111",
        "都道府県名及び市町村名": "徳島県阿南市",
        "施設・場所名": "中野島総合センター",
        "住所": "徳島県阿南市柳島町中川原10",
        "指定緊急避難場所との住所同一": "1",
        "その他市町村長が必要と認める事項": null,
        "受入対象者": null,
        "備考": ""
      }
    },
    {
      "type": "Feature",
      "geometry": {
        "type": "Point",
        "coordinates": [
          134.644521,
          33.932467
        ]
      },
      "properties": {
        "NO": 65616,
        "共通ID": "E3620400148111",
        "都道府県名及び市町村名": "徳島県阿南市",
        "施設・場所名": "中野島保育所",
        "住所": "徳島県阿南市柳島町八剣74",
        "指定緊急避難場所との住所同一": "",
        "その他市町村長が必要と認める事項": null,
        "受入対象者": null,
        "備考": ""
      }
    },
    {
      "type": "Feature",
      "geometry": {
        "type": "Point",
        "coordinates": [
          134.665101,
          33.921989
        ]
      },
      "properties": {
        "NO": 65617,
        "共通ID": "E3620400149111",
        "都道府県名及び市町村名": "徳島県阿南市",
        "施設・場所名": "富岡東中高等学校　体育館",
        "住所": "徳島県阿南市領家町走寄102-2",
        "指定緊急避難場所との住所同一": "1",
        "その他市町村長が必要と認める事項": "",
        "受入対象者": "",
        "備考": ""
      }
    },
    {
      "type": "Feature",
      "geometry": {
        "type": "Point",
        "coordinates": [
          134.665193,
          33.922272
        ]
      },
      "properties": {
        "NO": 65618,
        "共通ID": "E3620400149112",
        "都道府県名及び市町村名": "徳島県阿南市",
        "施設・場所名": "富岡東中高等学校　剣道場",
        "住所": "徳島県阿南市領家町走寄102-2",
        "指定緊急避難場所との住所同一": "1",
        "その他市町村長が必要と認める事項": "",
        "受入対象者": "",
        "備考": ""
      }
    },
    {
      "type": "Feature",
      "geometry": {
        "type": "Point",
        "coordinates": [
          134.668816,
          33.922946
        ]
      },
      "properties": {
        "NO": 65619,
        "共通ID": "E3620400150111",
        "都道府県名及び市町村名": "徳島県阿南市",
        "施設・場所名": "富岡幼稚園",
        "住所": "徳島県阿南市領家町浜田182-1",
        "指定緊急避難場所との住所同一": "1",
        "その他市町村長が必要と認める事項": null,
        "受入対象者": null,
        "備考": ""
      }
    },
    {
      "type": "Feature",
      "geometry": {
        "type": "Point",
        "coordinates": [
          134.667294,
          33.923838
        ]
      },
      "properties": {
        "NO": 65620,
        "共通ID": "E3620400151111",
        "都道府県名及び市町村名": "徳島県阿南市",
        "施設・場所名": "富岡小学校　体育館",
        "住所": "徳島県阿南市領家町浜田200",
        "指定緊急避難場所との住所同一": "1",
        "その他市町村長が必要と認める事項": null,
        "受入対象者": null,
        "備考": ""
      }
    },
    {
      "type": "Feature",
      "geometry": {
        "type": "Point",
        "coordinates": [
          134.697551,
          33.916554
        ]
      },
      "properties": {
        "NO": 65621,
        "共通ID": "E3620400154111",
        "都道府県名及び市町村名": "徳島県阿南市",
        "施設・場所名": "老人ホーム　福寿荘",
        "住所": "徳島県阿南市畭町亀崎93-7",
        "指定緊急避難場所との住所同一": "1",
        "その他市町村長が必要と認める事項": null,
        "受入対象者": null,
        "備考": ""
      }
    }
  ]
}