{
  "type": "FeatureCollection",
  "name": "364011",
  "features": [
    {
      "type": "Feature",
      "geometry": {
        "type": "Point",
        "coordinates": [
          134.581231,
          34.136398
        ]
      },
      "properties": {
        "NO": 66116,
        "共通ID": "E3640100004111",
        "都道府県名及び市町村名": "徳島県松茂町",
        "施設・場所名": "松茂町老人福祉センター",
        "住所": "徳島県松茂町広島字三番越2-2",
        "指定緊急避難場所との住所同一": "1",
        "その他市町村長が必要と認める事項": null,
        "受入対象者": null,
        "備考": ""
      }
    },
    {
      "type": "Feature",
      "geometry": {
        "type": "Point",
        "coordinates": [
          134.580899,
          34.136216
        ]
      },
      "properties": {
        "NO": 66117,
        "共通ID": "E3640100004112",
        "都道府県名及び市町村名": "徳島県松茂町",
        "施設・場所名": "松茂町保健相談センター",
        "住所": "徳島県松茂町広島字三番越2-2",
        "指定緊急避難場所との住所同一": "1",
        "その他市町村長が必要と認める事項": null,
        "受入対象者": null,
        "備考": ""
      }
    },
    {
      "type": "Feature",
      "geometry": {
        "type": "Point",
        "coordinates": [
          134.580802,
          34.13594
        ]
      },
      "properties": {
        "NO": 66118,
        "共通ID": "E3640100005111",
        "都道府県名及び市町村名": "徳島県松茂町",
        "施設・場所名": "松茂町地域子育て支援センター",
        "住所": "徳島県松茂町広島字三番越2-4",
        "指定緊急避難場所との住所同一": "1",
        "その他市町村長が必要と認める事項": null,
        "受入対象者": null,
        "備考": ""
      }
    },
    {
      "type": "Feature",
      "geometry": {
        "type": "Point",
        "coordinates": [
          134.58012,
          34.133927
        ]
      },
      "properties": {
        "NO": 66119,
        "共通ID": "E3640100006111",
        "都道府県名及び市町村名": "徳島県松茂町",
        "施設・場所名": "松茂町総合会館",
        "住所": "徳島県松茂町広島字東裏30",
        "指定緊急避難場所との住所同一": "1",
        "その他市町村長が必要と認める事項": null,
        "受入対象者": null,
        "備考": ""
      }
    },
    {
      "type": "Feature",
      "geometry": {
        "type": "Point",
        "coordinates": [
          134.580656,
          34.133759
        ]
      },
      "properties": {
        "NO": 66120,
        "共通ID": "E3640100006112",
        "都道府県名及び市町村名": "徳島県松茂町",
        "施設・場所名": "津波防災センター・中央庁舎",
        "住所": "徳島県松茂町広島字東裏30",
        "指定緊急避難場所との住所同一": "1",
        "その他市町村長が必要と認める事項": null,
        "受入対象者": null,
        "備考": ""
      }
    },
    {
      "type": "Feature",
      "geometry": {
        "type": "Point",
        "coordinates": [
          134.587833,
          34.130967
        ]
      },
      "properties": {
        "NO": 66121,
        "共通ID": "E3640100008111",
        "都道府県名及び市町村名": "徳島県松茂町",
        "施設・場所名": "松茂町中部学習センター",
        "住所": "徳島県松茂町笹木野字山下112",
        "指定緊急避難場所との住所同一": "",
        "その他市町村長が必要と認める事項": null,
        "受入対象者": null,
        "備考": ""
      }
    },
    {
      "type": "Feature",
      "geometry": {
        "type": "Point",
        "coordinates": [
          134.589914,
          34.129427
        ]
      },
      "properties": {
        "NO": 66122,
        "共通ID": "E3640100013111",
        "都道府県名及び市町村名": "徳島県松茂町",
        "施設・場所名": "松茂中学校",
        "住所": "徳島県松茂町笹木野字八山開拓186",
        "指定緊急避難場所との住所同一": "1",
        "その他市町村長が必要と認める事項": null,
        "受入対象者": null,
        "備考": ""
      }
    },
    {
      "type": "Feature",
      "geometry": {
        "type": "Point",
        "coordinates": [
          134.594464,
          34.142421
        ]
      },
      "properties": {
        "NO": 66123,
        "共通ID": "E3640100020111",
        "都道府県名及び市町村名": "徳島県松茂町",
        "施設・場所名": "松茂町東部学習センター",
        "住所": "徳島県松茂町笹木野字八北開拓222",
        "指定緊急避難場所との住所同一": "",
        "その他市町村長が必要と認める事項": null,
        "受入対象者": null,
        "備考": ""
      }
    },
    {
      "type": "Feature",
      "geometry": {
        "type": "Point",
        "coordinates": [
          134.590214,
          34.131572
        ]
      },
      "properties": {
        "NO": 66124,
        "共通ID": "E3640100025111",
        "都道府県名及び市町村名": "徳島県松茂町",
        "施設・場所名": "松茂小学校",
        "住所": "徳島県松茂町住吉字住吉開拓187",
        "指定緊急避難場所との住所同一": "1",
        "その他市町村長が必要と認める事項": null,
        "受入対象者": null,
        "備考": ""
      }
    },
    {
      "type": "Feature",
      "geometry": {
        "type": "Point",
        "coordinates": [
          134.588329,
          34.142114
        ]
      },
      "properties": {
        "NO": 66125,
        "共通ID": "E3640100032111",
        "都道府県名及び市町村名": "徳島県松茂町",
        "施設・場所名": "松茂町総合体育館",
        "住所": "徳島県松茂町中喜来字群恵225-3",
        "指定緊急避難場所との住所同一": "1",
        "その他市町村長が必要と認める事項": null,
        "受入対象者": null,
        "備考": ""
      }
    },
    {
      "type": "Feature",
      "geometry": {
        "type": "Point",
        "coordinates": [
          134.588828,
          34.142713
        ]
      },
      "properties": {
        "NO": 66126,
        "共通ID": "E3640100033111",
        "都道府県名及び市町村名": "徳島県松茂町",
        "施設・場所名": "松茂町第二体育館",
        "住所": "徳島県松茂町中喜来字群恵225-4",
        "指定緊急避難場所との住所同一": "",
        "その他市町村長が必要と認める事項": null,
        "受入対象者": null,
        "備考": ""
      }
    },
    {
      "type": "Feature",
      "geometry": {
        "type": "Point",
        "coordinates": [
          134.574087,
          34.142218
        ]
      },
      "properties": {
        "NO": 66127,
        "共通ID": "E3640100036111",
        "都道府県名及び市町村名": "徳島県松茂町",
        "施設・場所名": "喜来小学校",
        "住所": "徳島県松茂町中喜来字前原西一番越14",
        "指定緊急避難場所との住所同一": "1",
        "その他市町村長が必要と認める事項": null,
        "受入対象者": null,
        "備考": ""
      }
    },
    {
      "type": "Feature",
      "geometry": {
        "type": "Point",
        "coordinates": [
          134.573744,
          34.143177
        ]
      },
      "properties": {
        "NO": 66128,
        "共通ID": "E3640100039111",
        "都道府県名及び市町村名": "徳島県松茂町",
        "施設・場所名": "松茂町北部学習センター",
        "住所": "徳島県松茂町中喜来字中須69-3",
        "指定緊急避難場所との住所同一": "",
        "その他市町村長が必要と認める事項": null,
        "受入対象者": null,
        "備考": ""
      }
    },
    {
      "type": "Feature",
      "geometry": {
        "type": "Point",
        "coordinates": [
          134.602634,
          34.117503
        ]
      },
      "properties": {
        "NO": 66129,
        "共通ID": "E3640100046111",
        "都道府県名及び市町村名": "徳島県松茂町",
        "施設・場所名": "長原小学校",
        "住所": "徳島県松茂町長原530",
        "指定緊急避難場所との住所同一": "1",
        "その他市町村長が必要と認める事項": null,
        "受入対象者": null,
        "備考": ""
      }
    },
    {
      "type": "Feature",
      "geometry": {
        "type": "Point",
        "coordinates": [
          134.599008,
          34.117055
        ]
      },
      "properties": {
        "NO": 66130,
        "共通ID": "E3640100048111",
        "都道府県名及び市町村名": "徳島県松茂町",
        "施設・場所名": "松茂町津波防災センター",
        "住所": "徳島県松茂町豊岡字芦田鶴105-9",
        "指定緊急避難場所との住所同一": "1",
        "その他市町村長が必要と認める事項": null,
        "受入対象者": null,
        "備考": ""
      }
    }
  ]
}