{
  "type": "FeatureCollection",
  "name": "372081",
  "features": [
    {
      "type": "Feature",
      "geometry": {
        "type": "Point",
        "coordinates": [
          133.72389,
          34.180614
        ]
      },
      "properties": {
        "NO": 66718,
        "共通ID": "E3720800080111",
        "都道府県名及び市町村名": "香川県三豊市",
        "施設・場所名": "さぬき合掌殿高瀬",
        "住所": "香川県三豊市高瀬町下高瀬110-1",
        "指定緊急避難場所との住所同一": "",
        "その他市町村長が必要と認める事項": "",
        "受入対象者": "",
        "備考": ""
      }
    },
    {
      "type": "Feature",
      "geometry": {
        "type": "Point",
        "coordinates": [
          133.711468,
          34.177837
        ]
      },
      "properties": {
        "NO": 66719,
        "共通ID": "E3720800001111",
        "都道府県名及び市町村名": "香川県三豊市",
        "施設・場所名": "高瀬高等学校",
        "住所": "香川県三豊市高瀬町下勝間2093",
        "指定緊急避難場所との住所同一": "1",
        "その他市町村長が必要と認める事項": null,
        "受入対象者": null,
        "備考": ""
      }
    },
    {
      "type": "Feature",
      "geometry": {
        "type": "Point",
        "coordinates": [
          133.71382,
          34.182021
        ]
      },
      "properties": {
        "NO": 66720,
        "共通ID": "E3720800002111",
        "都道府県名及び市町村名": "香川県三豊市",
        "施設・場所名": "みとよ未来創造館",
        "住所": "香川県三豊市高瀬町下勝間2347-1",
        "指定緊急避難場所との住所同一": "1",
        "その他市町村長が必要と認める事項": null,
        "受入対象者": null,
        "備考": ""
      }
    },
    {
      "type": "Feature",
      "geometry": {
        "type": "Point",
        "coordinates": [
          133.7201,
          34.180302
        ]
      },
      "properties": {
        "NO": 66721,
        "共通ID": "E3720800003111",
        "都道府県名及び市町村名": "香川県三豊市",
        "施設・場所名": "高瀬町体育館",
        "住所": "香川県三豊市高瀬町下勝間2687-1",
        "指定緊急避難場所との住所同一": "1",
        "その他市町村長が必要と認める事項": "",
        "受入対象者": "",
        "備考": ""
      }
    },
    {
      "type": "Feature",
      "geometry": {
        "type": "Point",
        "coordinates": [
          133.720872,
          34.180264
        ]
      },
      "properties": {
        "NO": 66722,
        "共通ID": "E3720800004111",
        "都道府県名及び市町村名": "香川県三豊市",
        "施設・場所名": "高瀬中学校",
        "住所": "香川県三豊市高瀬町下勝間2725-1",
        "指定緊急避難場所との住所同一": "1",
        "その他市町村長が必要と認める事項": null,
        "受入対象者": null,
        "備考": ""
      }
    },
    {
      "type": "Feature",
      "geometry": {
        "type": "Point",
        "coordinates": [
          133.726684,
          34.174987
        ]
      },
      "properties": {
        "NO": 66723,
        "共通ID": "E3720800005111",
        "都道府県名及び市町村名": "香川県三豊市",
        "施設・場所名": "高瀬町公民館勝間分館",
        "住所": "香川県三豊市高瀬町下勝間350-2",
        "指定緊急避難場所との住所同一": "1",
        "その他市町村長が必要と認める事項": null,
        "受入対象者": null,
        "備考": ""
      }
    },
    {
      "type": "Feature",
      "geometry": {
        "type": "Point",
        "coordinates": [
          133.725783,
          34.174813
        ]
      },
      "properties": {
        "NO": 66724,
        "共通ID": "E3720800006111",
        "都道府県名及び市町村名": "香川県三豊市",
        "施設・場所名": "勝間小学校",
        "住所": "香川県三豊市高瀬町下勝間803-1",
        "指定緊急避難場所との住所同一": "1",
        "その他市町村長が必要と認める事項": null,
        "受入対象者": null,
        "備考": ""
      }
    },
    {
      "type": "Feature",
      "geometry": {
        "type": "Point",
        "coordinates": [
          133.767905,
          34.176419
        ]
      },
      "properties": {
        "NO": 66725,
        "共通ID": "E3720800007111",
        "都道府県名及び市町村名": "香川県三豊市",
        "施設・場所名": "麻地区農業構造改善センター",
        "住所": "香川県三豊市高瀬町下麻1210-5",
        "指定緊急避難場所との住所同一": "1",
        "その他市町村長が必要と認める事項": null,
        "受入対象者": null,
        "備考": ""
      }
    },
    {
      "type": "Feature",
      "geometry": {
        "type": "Point",
        "coordinates": [
          133.741199,
          34.159334
        ]
      },
      "properties": {
        "NO": 66726,
        "共通ID": "E3720800008111",
        "都道府県名及び市町村名": "香川県三豊市",
        "施設・場所名": "二ノ宮小学校",
        "住所": "香川県三豊市高瀬町佐股甲1497-1",
        "指定緊急避難場所との住所同一": "1",
        "その他市町村長が必要と認める事項": null,
        "受入対象者": null,
        "備考": ""
      }
    },
    {
      "type": "Feature",
      "geometry": {
        "type": "Point",
        "coordinates": [
          133.738444,
          34.160064
        ]
      },
      "properties": {
        "NO": 66727,
        "共通ID": "E3720800009111",
        "都道府県名及び市町村名": "香川県三豊市",
        "施設・場所名": "二ノ宮地区農業構造改善センター",
        "住所": "香川県三豊市高瀬町佐股甲3343-4",
        "指定緊急避難場所との住所同一": "1",
        "その他市町村長が必要と認める事項": null,
        "受入対象者": null,
        "備考": ""
      }
    },
    {
      "type": "Feature",
      "geometry": {
        "type": "Point",
        "coordinates": [
          133.727108,
          34.194057
        ]
      },
      "properties": {
        "NO": 66728,
        "共通ID": "E3720800010111",
        "都道府県名及び市町村名": "香川県三豊市",
        "施設・場所名": "三豊市総合体育館",
        "住所": "香川県三豊市高瀬町上高瀬751-24",
        "指定緊急避難場所との住所同一": "1",
        "その他市町村長が必要と認める事項": null,
        "受入対象者": null,
        "備考": ""
      }
    },
    {
      "type": "Feature",
      "geometry": {
        "type": "Point",
        "coordinates": [
          133.725787,
          34.192666
        ]
      },
      "properties": {
        "NO": 66729,
        "共通ID": "E3720800011111",
        "都道府県名及び市町村名": "香川県三豊市",
        "施設・場所名": "上高瀬小学校",
        "住所": "香川県三豊市高瀬町上高瀬783-2",
        "指定緊急避難場所との住所同一": "1",
        "その他市町村長が必要と認める事項": null,
        "受入対象者": null,
        "備考": ""
      }
    },
    {
      "type": "Feature",
      "geometry": {
        "type": "Point",
        "coordinates": [
          133.768166,
          34.17557
        ]
      },
      "properties": {
        "NO": 66730,
        "共通ID": "E3720800012111",
        "都道府県名及び市町村名": "香川県三豊市",
        "施設・場所名": "麻小学校",
        "住所": "香川県三豊市高瀬町上麻3868",
        "指定緊急避難場所との住所同一": "1",
        "その他市町村長が必要と認める事項": null,
        "受入対象者": null,
        "備考": ""
      }
    },
    {
      "type": "Feature",
      "geometry": {
        "type": "Point",
        "coordinates": [
          133.692818,
          34.17819
        ]
      },
      "properties": {
        "NO": 66731,
        "共通ID": "E3720800013111",
        "都道府県名及び市町村名": "香川県三豊市",
        "施設・場所名": "高瀬町公民館比地二分館",
        "住所": "香川県三豊市高瀬町比地186",
        "指定緊急避難場所との住所同一": "1",
        "その他市町村長が必要と認める事項": null,
        "受入対象者": null,
        "備考": ""
      }
    },
    {
      "type": "Feature",
      "geometry": {
        "type": "Point",
        "coordinates": [
          133.693218,
          34.179755
        ]
      },
      "properties": {
        "NO": 66732,
        "共通ID": "E3720800014111",
        "都道府県名及び市町村名": "香川県三豊市",
        "施設・場所名": "比地小学校",
        "住所": "香川県三豊市高瀬町比地93-1",
        "指定緊急避難場所との住所同一": "1",
        "その他市町村長が必要と認める事項": null,
        "受入対象者": null,
        "備考": ""
      }
    },
    {
      "type": "Feature",
      "geometry": {
        "type": "Point",
        "coordinates": [
          133.704077,
          34.173364
        ]
      },
      "properties": {
        "NO": 66733,
        "共通ID": "E3720800015111",
        "都道府県名及び市町村名": "香川県三豊市",
        "施設・場所名": "高瀬Ｂ＆Ｇ海洋センター",
        "住所": "香川県三豊市高瀬町比地中2986-2",
        "指定緊急避難場所との住所同一": "1",
        "その他市町村長が必要と認める事項": null,
        "受入対象者": null,
        "備考": ""
      }
    },
    {
      "type": "Feature",
      "geometry": {
        "type": "Point",
        "coordinates": [
          133.796217,
          34.108362
        ]
      },
      "properties": {
        "NO": 66734,
        "共通ID": "E3720800083111",
        "都道府県名及び市町村名": "香川県三豊市",
        "施設・場所名": "たからだの里",
        "住所": "香川県三豊市財田町財田上1110-8",
        "指定緊急避難場所との住所同一": "1",
        "その他市町村長が必要と認める事項": "",
        "受入対象者": "",
        "備考": ""
      }
    },
    {
      "type": "Feature",
      "geometry": {
        "type": "Point",
        "coordinates": [
          133.796485,
          34.106181
        ]
      },
      "properties": {
        "NO": 66735,
        "共通ID": "E3720800016111",
        "都道府県名及び市町村名": "香川県三豊市",
        "施設・場所名": "特別養護老人ホーム諶之丞の丘",
        "住所": "香川県三豊市財田町財田上1112-1",
        "指定緊急避難場所との住所同一": "1",
        "その他市町村長が必要と認める事項": "",
        "受入対象者": "",
        "備考": ""
      }
    },
    {
      "type": "Feature",
      "geometry": {
        "type": "Point",
        "coordinates": [
          133.779013,
          34.119471
        ]
      },
      "properties": {
        "NO": 66736,
        "共通ID": "E3720800017111",
        "都道府県名及び市町村名": "香川県三豊市",
        "施設・場所名": "財田町公民館",
        "住所": "香川県三豊市財田町財田上2171",
        "指定緊急避難場所との住所同一": "1",
        "その他市町村長が必要と認める事項": "",
        "受入対象者": "",
        "備考": ""
      }
    },
    {
      "type": "Feature",
      "geometry": {
        "type": "Point",
        "coordinates": [
          133.771156,
          34.116199
        ]
      },
      "properties": {
        "NO": 66737,
        "共通ID": "E3720800018111",
        "都道府県名及び市町村名": "香川県三豊市",
        "施設・場所名": "財田町総合運動公園",
        "住所": "香川県三豊市財田町財田上2350",
        "指定緊急避難場所との住所同一": "1",
        "その他市町村長が必要と認める事項": null,
        "受入対象者": null,
        "備考": ""
      }
    },
    {
      "type": "Feature",
      "geometry": {
        "type": "Point",
        "coordinates": [
          133.778064,
          34.124156
        ]
      },
      "properties": {
        "NO": 66738,
        "共通ID": "E3720800019111",
        "都道府県名及び市町村名": "香川県三豊市",
        "施設・場所名": "和光中学校",
        "住所": "香川県三豊市財田町財田上2790",
        "指定緊急避難場所との住所同一": "1",
        "その他市町村長が必要と認める事項": null,
        "受入対象者": null,
        "備考": ""
      }
    },
    {
      "type": "Feature",
      "geometry": {
        "type": "Point",
        "coordinates": [
          133.810939,
          34.121468
        ]
      },
      "properties": {
        "NO": 66739,
        "共通ID": "E3720800020111",
        "都道府県名及び市町村名": "香川県三豊市",
        "施設・場所名": "宝光寺",
        "住所": "香川県三豊市財田町財田上6986",
        "指定緊急避難場所との住所同一": "1",
        "その他市町村長が必要と認める事項": "",
        "受入対象者": "",
        "備考": ""
      }
    },
    {
      "type": "Feature",
      "geometry": {
        "type": "Point",
        "coordinates": [
          133.801256,
          34.118715
        ]
      },
      "properties": {
        "NO": 66740,
        "共通ID": "E3720800021111",
        "都道府県名及び市町村名": "香川県三豊市",
        "施設・場所名": "（旧）財田上小学校",
        "住所": "香川県三豊市財田町財田上726",
        "指定緊急避難場所との住所同一": "1",
        "その他市町村長が必要と認める事項": "",
        "受入対象者": "",
        "備考": ""
      }
    },
    {
      "type": "Feature",
      "geometry": {
        "type": "Point",
        "coordinates": [
          133.764075,
          34.11189
        ]
      },
      "properties": {
        "NO": 66741,
        "共通ID": "E3720800022111",
        "都道府県名及び市町村名": "香川県三豊市",
        "施設・場所名": "大野地公民館",
        "住所": "香川県三豊市財田町財田中4026-4",
        "指定緊急避難場所との住所同一": "1",
        "その他市町村長が必要と認める事項": "",
        "受入対象者": "",
        "備考": ""
      }
    },
    {
      "type": "Feature",
      "geometry": {
        "type": "Point",
        "coordinates": [
          133.769575,
          34.116733
        ]
      },
      "properties": {
        "NO": 66742,
        "共通ID": "E3720800023111",
        "都道府県名及び市町村名": "香川県三豊市",
        "施設・場所名": "財田小学校",
        "住所": "香川県三豊市財田町財田中5325-1",
        "指定緊急避難場所との住所同一": "1",
        "その他市町村長が必要と認める事項": null,
        "受入対象者": null,
        "備考": ""
      }
    },
    {
      "type": "Feature",
      "geometry": {
        "type": "Point",
        "coordinates": [
          133.761251,
          34.108285
        ]
      },
      "properties": {
        "NO": 66743,
        "共通ID": "E3720800025111",
        "都道府県名及び市町村名": "香川県三豊市",
        "施設・場所名": "三豊市財田町防災センター",
        "住所": "香川県三豊市財田町財田中598",
        "指定緊急避難場所との住所同一": "1",
        "その他市町村長が必要と認める事項": null,
        "受入対象者": null,
        "備考": ""
      }
    },
    {
      "type": "Feature",
      "geometry": {
        "type": "Point",
        "coordinates": [
          133.706221,
          34.202703
        ]
      },
      "properties": {
        "NO": 66744,
        "共通ID": "E3720800026111",
        "都道府県名及び市町村名": "香川県三豊市",
        "施設・場所名": "三野町生涯学習センター",
        "住所": "香川県三豊市三野町下高瀬568-1",
        "指定緊急避難場所との住所同一": "1",
        "その他市町村長が必要と認める事項": "",
        "受入対象者": "",
        "備考": ""
      }
    },
    {
      "type": "Feature",
      "geometry": {
        "type": "Point",
        "coordinates": [
          133.701184,
          34.205549
        ]
      },
      "properties": {
        "NO": 66745,
        "共通ID": "E3720800027111",
        "都道府県名及び市町村名": "香川県三豊市",
        "施設・場所名": "三野津中学校",
        "住所": "香川県三豊市三野町下高瀬720",
        "指定緊急避難場所との住所同一": "1",
        "その他市町村長が必要と認める事項": null,
        "受入対象者": null,
        "備考": ""
      }
    },
    {
      "type": "Feature",
      "geometry": {
        "type": "Point",
        "coordinates": [
          133.703248,
          34.202709
        ]
      },
      "properties": {
        "NO": 66746,
        "共通ID": "E3720800028111",
        "都道府県名及び市町村名": "香川県三豊市",
        "施設・場所名": "三野町体育センター",
        "住所": "香川県三豊市三野町下高瀬752-2",
        "指定緊急避難場所との住所同一": "1",
        "その他市町村長が必要と認める事項": "",
        "受入対象者": "",
        "備考": ""
      }
    },
    {
      "type": "Feature",
      "geometry": {
        "type": "Point",
        "coordinates": [
          133.703267,
          34.203321
        ]
      },
      "properties": {
        "NO": 66747,
        "共通ID": "E3720800029111",
        "都道府県名及び市町村名": "香川県三豊市",
        "施設・場所名": "下高瀬小学校",
        "住所": "香川県三豊市三野町下高瀬760-1",
        "指定緊急避難場所との住所同一": "1",
        "その他市町村長が必要と認める事項": null,
        "受入対象者": null,
        "備考": ""
      }
    },
    {
      "type": "Feature",
      "geometry": {
        "type": "Point",
        "coordinates": [
          133.682578,
          34.201516
        ]
      },
      "properties": {
        "NO": 66748,
        "共通ID": "E3720800030111",
        "都道府県名及び市町村名": "香川県三豊市",
        "施設・場所名": "吉津小学校",
        "住所": "香川県三豊市三野町吉津乙1485-1",
        "指定緊急避難場所との住所同一": "1",
        "その他市町村長が必要と認める事項": null,
        "受入対象者": null,
        "備考": ""
      }
    },
    {
      "type": "Feature",
      "geometry": {
        "type": "Point",
        "coordinates": [
          133.694775,
          34.202267
        ]
      },
      "properties": {
        "NO": 66749,
        "共通ID": "E3720800031111",
        "都道府県名及び市町村名": "香川県三豊市",
        "施設・場所名": "三野町保健センター",
        "住所": "香川県三豊市三野町吉津乙2030-1",
        "指定緊急避難場所との住所同一": "1",
        "その他市町村長が必要と認める事項": "",
        "受入対象者": "",
        "備考": ""
      }
    },
    {
      "type": "Feature",
      "geometry": {
        "type": "Point",
        "coordinates": [
          133.688367,
          34.198585
        ]
      },
      "properties": {
        "NO": 66750,
        "共通ID": "E3720800032111",
        "都道府県名及び市町村名": "香川県三豊市",
        "施設・場所名": "三野町公民館吉津分館",
        "住所": "香川県三豊市三野町吉津甲1073-1",
        "指定緊急避難場所との住所同一": "1",
        "その他市町村長が必要と認める事項": null,
        "受入対象者": null,
        "備考": ""
      }
    },
    {
      "type": "Feature",
      "geometry": {
        "type": "Point",
        "coordinates": [
          133.722535,
          34.226032
        ]
      },
      "properties": {
        "NO": 66751,
        "共通ID": "E3720800033111",
        "都道府県名及び市町村名": "香川県三豊市",
        "施設・場所名": "ふれあいパークみの",
        "住所": "香川県三豊市三野町大見乙74",
        "指定緊急避難場所との住所同一": "1",
        "その他市町村長が必要と認める事項": null,
        "受入対象者": null,
        "備考": ""
      }
    },
    {
      "type": "Feature",
      "geometry": {
        "type": "Point",
        "coordinates": [
          133.714997,
          34.217261
        ]
      },
      "properties": {
        "NO": 66752,
        "共通ID": "E3720800034111",
        "都道府県名及び市町村名": "香川県三豊市",
        "施設・場所名": "三野町はつらつセンター",
        "住所": "香川県三豊市三野町大見甲3034-1",
        "指定緊急避難場所との住所同一": "1",
        "その他市町村長が必要と認める事項": null,
        "受入対象者": null,
        "備考": ""
      }
    },
    {
      "type": "Feature",
      "geometry": {
        "type": "Point",
        "coordinates": [
          133.714553,
          34.216355
        ]
      },
      "properties": {
        "NO": 66753,
        "共通ID": "E3720800035111",
        "都道府県名及び市町村名": "香川県三豊市",
        "施設・場所名": "大見小学校",
        "住所": "香川県三豊市三野町大見甲3034-4",
        "指定緊急避難場所との住所同一": "1",
        "その他市町村長が必要と認める事項": null,
        "受入対象者": null,
        "備考": ""
      }
    },
    {
      "type": "Feature",
      "geometry": {
        "type": "Point",
        "coordinates": [
          133.713897,
          34.216979
        ]
      },
      "properties": {
        "NO": 66754,
        "共通ID": "E3720800076111",
        "都道府県名及び市町村名": "香川県三豊市",
        "施設・場所名": "三豊市地域交流館大見",
        "住所": "香川県三豊市三野町大見甲3078-4",
        "指定緊急避難場所との住所同一": "1",
        "その他市町村長が必要と認める事項": "",
        "受入対象者": "",
        "備考": ""
      }
    },
    {
      "type": "Feature",
      "geometry": {
        "type": "Point",
        "coordinates": [
          133.734761,
          34.09974
        ]
      },
      "properties": {
        "NO": 66755,
        "共通ID": "E3720800037111",
        "都道府県名及び市町村名": "香川県三豊市",
        "施設・場所名": "河内農村婦人の家",
        "住所": "香川県三豊市山本町河内1080-1",
        "指定緊急避難場所との住所同一": "1",
        "その他市町村長が必要と認める事項": null,
        "受入対象者": null,
        "備考": ""
      }
    },
    {
      "type": "Feature",
      "geometry": {
        "type": "Point",
        "coordinates": [
          133.735405,
          34.100667
        ]
      },
      "properties": {
        "NO": 66756,
        "共通ID": "E3720800038111",
        "都道府県名及び市町村名": "香川県三豊市",
        "施設・場所名": "（旧）河内小学校",
        "住所": "香川県三豊市山本町河内714",
        "指定緊急避難場所との住所同一": "1",
        "その他市町村長が必要と認める事項": "",
        "受入対象者": "",
        "備考": ""
      }
    },
    {
      "type": "Feature",
      "geometry": {
        "type": "Point",
        "coordinates": [
          133.725275,
          34.118695
        ]
      },
      "properties": {
        "NO": 66757,
        "共通ID": "E3720800039111",
        "都道府県名及び市町村名": "香川県三豊市",
        "施設・場所名": "山本町農村環境改善センター",
        "住所": "香川県三豊市山本町財田西375",
        "指定緊急避難場所との住所同一": "1",
        "その他市町村長が必要と認める事項": "",
        "受入対象者": "",
        "備考": ""
      }
    },
    {
      "type": "Feature",
      "geometry": {
        "type": "Point",
        "coordinates": [
          133.726042,
          34.118538
        ]
      },
      "properties": {
        "NO": 66758,
        "共通ID": "E3720800039112",
        "都道府県名及び市町村名": "香川県三豊市",
        "施設・場所名": "山本町保健センター",
        "住所": "香川県三豊市山本町財田西375",
        "指定緊急避難場所との住所同一": "1",
        "その他市町村長が必要と認める事項": "",
        "受入対象者": "",
        "備考": ""
      }
    },
    {
      "type": "Feature",
      "geometry": {
        "type": "Point",
        "coordinates": [
          133.770895,
          34.142181
        ]
      },
      "properties": {
        "NO": 66759,
        "共通ID": "E3720800040111",
        "都道府県名及び市町村名": "香川県三豊市",
        "施設・場所名": "神田定住促進センター",
        "住所": "香川県三豊市山本町神田1250-3",
        "指定緊急避難場所との住所同一": "1",
        "その他市町村長が必要と認める事項": null,
        "受入対象者": null,
        "備考": ""
      }
    },
    {
      "type": "Feature",
      "geometry": {
        "type": "Point",
        "coordinates": [
          133.769814,
          34.142245
        ]
      },
      "properties": {
        "NO": 66760,
        "共通ID": "E3720800041111",
        "都道府県名及び市町村名": "香川県三豊市",
        "施設・場所名": "（旧）神田小学校",
        "住所": "香川県三豊市山本町神田1259",
        "指定緊急避難場所との住所同一": "1",
        "その他市町村長が必要と認める事項": "",
        "受入対象者": "",
        "備考": ""
      }
    },
    {
      "type": "Feature",
      "geometry": {
        "type": "Point",
        "coordinates": [
          133.769815,
          34.127774
        ]
      },
      "properties": {
        "NO": 66761,
        "共通ID": "E3720800079111",
        "都道府県名及び市町村名": "香川県三豊市",
        "施設・場所名": "レクザム・カマタマーレ讃岐・クラブハウス",
        "住所": "香川県三豊市山本町神田乙500-1",
        "指定緊急避難場所との住所同一": "1",
        "その他市町村長が必要と認める事項": "",
        "受入対象者": "",
        "備考": ""
      }
    },
    {
      "type": "Feature",
      "geometry": {
        "type": "Point",
        "coordinates": [
          133.728005,
          34.121822
        ]
      },
      "properties": {
        "NO": 66762,
        "共通ID": "E3720800042111",
        "都道府県名及び市町村名": "香川県三豊市",
        "施設・場所名": "財田大野農業構造改善センター",
        "住所": "香川県三豊市山本町大野266-1",
        "指定緊急避難場所との住所同一": "1",
        "その他市町村長が必要と認める事項": null,
        "受入対象者": null,
        "備考": ""
      }
    },
    {
      "type": "Feature",
      "geometry": {
        "type": "Point",
        "coordinates": [
          133.733927,
          34.12215
        ]
      },
      "properties": {
        "NO": 66763,
        "共通ID": "E3720800043111",
        "都道府県名及び市町村名": "香川県三豊市",
        "施設・場所名": "山本小学校",
        "住所": "香川県三豊市山本町大野6-1",
        "指定緊急避難場所との住所同一": "1",
        "その他市町村長が必要と認める事項": null,
        "受入対象者": null,
        "備考": ""
      }
    },
    {
      "type": "Feature",
      "geometry": {
        "type": "Point",
        "coordinates": [
          133.71927,
          34.113774
        ]
      },
      "properties": {
        "NO": 66764,
        "共通ID": "E3720800044111",
        "都道府県名及び市町村名": "香川県三豊市",
        "施設・場所名": "山本町公民館辻分館",
        "住所": "香川県三豊市山本町辻1374-1",
        "指定緊急避難場所との住所同一": "1",
        "その他市町村長が必要と認める事項": null,
        "受入対象者": null,
        "備考": ""
      }
    },
    {
      "type": "Feature",
      "geometry": {
        "type": "Point",
        "coordinates": [
          133.718884,
          34.114145
        ]
      },
      "properties": {
        "NO": 66765,
        "共通ID": "E3720800045111",
        "都道府県名及び市町村名": "香川県三豊市",
        "施設・場所名": "（旧）辻小学校",
        "住所": "香川県三豊市山本町辻1375",
        "指定緊急避難場所との住所同一": "1",
        "その他市町村長が必要と認める事項": "",
        "受入対象者": "",
        "備考": ""
      }
    },
    {
      "type": "Feature",
      "geometry": {
        "type": "Point",
        "coordinates": [
          133.711843,
          34.122608
        ]
      },
      "properties": {
        "NO": 66766,
        "共通ID": "E3720800046111",
        "都道府県名及び市町村名": "香川県三豊市",
        "施設・場所名": "三豊中学校",
        "住所": "香川県三豊市山本町辻876",
        "指定緊急避難場所との住所同一": "1",
        "その他市町村長が必要と認める事項": null,
        "受入対象者": null,
        "備考": ""
      }
    },
    {
      "type": "Feature",
      "geometry": {
        "type": "Point",
        "coordinates": [
          133.630424,
          34.217568
        ]
      },
      "properties": {
        "NO": 66767,
        "共通ID": "E3720800047111",
        "都道府県名及び市町村名": "香川県三豊市",
        "施設・場所名": "円明院",
        "住所": "香川県三豊市仁尾町家の浦5",
        "指定緊急避難場所との住所同一": "1",
        "その他市町村長が必要と認める事項": "",
        "受入対象者": "",
        "備考": ""
      }
    },
    {
      "type": "Feature",
      "geometry": {
        "type": "Point",
        "coordinates": [
          133.651933,
          34.198599
        ]
      },
      "properties": {
        "NO": 66768,
        "共通ID": "E3720800048111",
        "都道府県名及び市町村名": "香川県三豊市",
        "施設・場所名": "八幡神社",
        "住所": "香川県三豊市仁尾町仁尾乙47-1",
        "指定緊急避難場所との住所同一": "1",
        "その他市町村長が必要と認める事項": "",
        "受入対象者": "",
        "備考": ""
      }
    },
    {
      "type": "Feature",
      "geometry": {
        "type": "Point",
        "coordinates": [
          133.651167,
          34.17435
        ]
      },
      "properties": {
        "NO": 66769,
        "共通ID": "E3720800049111",
        "都道府県名及び市町村名": "香川県三豊市",
        "施設・場所名": "曽保小学校",
        "住所": "香川県三豊市仁尾町仁尾甲1082",
        "指定緊急避難場所との住所同一": "1",
        "その他市町村長が必要と認める事項": null,
        "受入対象者": null,
        "備考": ""
      }
    },
    {
      "type": "Feature",
      "geometry": {
        "type": "Point",
        "coordinates": [
          133.6452,
          34.19781
        ]
      },
      "properties": {
        "NO": 66770,
        "共通ID": "E3720800050111",
        "都道府県名及び市町村名": "香川県三豊市",
        "施設・場所名": "仁尾町体育センター",
        "住所": "香川県三豊市仁尾町仁尾辛34-1",
        "指定緊急避難場所との住所同一": "1",
        "その他市町村長が必要と認める事項": "",
        "受入対象者": "",
        "備考": ""
      }
    },
    {
      "type": "Feature",
      "geometry": {
        "type": "Point",
        "coordinates": [
          133.646101,
          34.196327
        ]
      },
      "properties": {
        "NO": 66771,
        "共通ID": "E3720800051111",
        "都道府県名及び市町村名": "香川県三豊市",
        "施設・場所名": "仁尾中学校",
        "住所": "香川県三豊市仁尾町仁尾辛38-2",
        "指定緊急避難場所との住所同一": "1",
        "その他市町村長が必要と認める事項": null,
        "受入対象者": null,
        "備考": ""
      }
    },
    {
      "type": "Feature",
      "geometry": {
        "type": "Point",
        "coordinates": [
          133.646265,
          34.200683
        ]
      },
      "properties": {
        "NO": 66772,
        "共通ID": "E3720800052111",
        "都道府県名及び市町村名": "香川県三豊市",
        "施設・場所名": "仁尾町文化会館",
        "住所": "香川県三豊市仁尾町仁尾丁296-1",
        "指定緊急避難場所との住所同一": "1",
        "その他市町村長が必要と認める事項": null,
        "受入対象者": null,
        "備考": ""
      }
    },
    {
      "type": "Feature",
      "geometry": {
        "type": "Point",
        "coordinates": [
          133.646357,
          34.203009
        ]
      },
      "properties": {
        "NO": 66773,
        "共通ID": "E3720800053111",
        "都道府県名及び市町村名": "香川県三豊市",
        "施設・場所名": "常徳寺",
        "住所": "香川県三豊市仁尾町仁尾丁930",
        "指定緊急避難場所との住所同一": "1",
        "その他市町村長が必要と認める事項": "",
        "受入対象者": "",
        "備考": ""
      }
    },
    {
      "type": "Feature",
      "geometry": {
        "type": "Point",
        "coordinates": [
          133.651737,
          34.202995
        ]
      },
      "properties": {
        "NO": 66774,
        "共通ID": "E3720800054111",
        "都道府県名及び市町村名": "香川県三豊市",
        "施設・場所名": "仁尾小学校",
        "住所": "香川県三豊市仁尾町仁尾丙1736",
        "指定緊急避難場所との住所同一": "1",
        "その他市町村長が必要と認める事項": null,
        "受入対象者": null,
        "備考": ""
      }
    },
    {
      "type": "Feature",
      "geometry": {
        "type": "Point",
        "coordinates": [
          133.681587,
          34.154228
        ]
      },
      "properties": {
        "NO": 66775,
        "共通ID": "E3720800055111",
        "都道府県名及び市町村名": "香川県三豊市",
        "施設・場所名": "桑山小学校",
        "住所": "香川県三豊市豊中町岡本188-1",
        "指定緊急避難場所との住所同一": "1",
        "その他市町村長が必要と認める事項": null,
        "受入対象者": null,
        "備考": ""
      }
    },
    {
      "type": "Feature",
      "geometry": {
        "type": "Point",
        "coordinates": [
          133.706579,
          34.15783
        ]
      },
      "properties": {
        "NO": 66776,
        "共通ID": "E3720800056111",
        "都道府県名及び市町村名": "香川県三豊市",
        "施設・場所名": "笠田小学校",
        "住所": "香川県三豊市豊中町笠田笠岡2192-1",
        "指定緊急避難場所との住所同一": "1",
        "その他市町村長が必要と認める事項": null,
        "受入対象者": null,
        "備考": ""
      }
    },
    {
      "type": "Feature",
      "geometry": {
        "type": "Point",
        "coordinates": [
          133.7081,
          34.15979
        ]
      },
      "properties": {
        "NO": 66777,
        "共通ID": "E3720800082111",
        "都道府県名及び市町村名": "香川県三豊市",
        "施設・場所名": "さぬき合掌殿豊中",
        "住所": "香川県三豊市豊中町笠田笠岡2311-1",
        "指定緊急避難場所との住所同一": "1",
        "その他市町村長が必要と認める事項": "",
        "受入対象者": "",
        "備考": ""
      }
    },
    {
      "type": "Feature",
      "geometry": {
        "type": "Point",
        "coordinates": [
          133.699815,
          34.15169
        ]
      },
      "properties": {
        "NO": 66778,
        "共通ID": "E3720800057111",
        "都道府県名及び市町村名": "香川県三豊市",
        "施設・場所名": "笠田高等学校",
        "住所": "香川県三豊市豊中町笠田竹田251",
        "指定緊急避難場所との住所同一": "1",
        "その他市町村長が必要と認める事項": null,
        "受入対象者": null,
        "備考": ""
      }
    },
    {
      "type": "Feature",
      "geometry": {
        "type": "Point",
        "coordinates": [
          133.706568,
          34.144276
        ]
      },
      "properties": {
        "NO": 66779,
        "共通ID": "E3720800058111",
        "都道府県名及び市町村名": "香川県三豊市",
        "施設・場所名": "上高野小学校",
        "住所": "香川県三豊市豊中町上高野2384",
        "指定緊急避難場所との住所同一": "1",
        "その他市町村長が必要と認める事項": null,
        "受入対象者": null,
        "備考": ""
      }
    },
    {
      "type": "Feature",
      "geometry": {
        "type": "Point",
        "coordinates": [
          133.689176,
          34.167227
        ]
      },
      "properties": {
        "NO": 66780,
        "共通ID": "E3720800059111",
        "都道府県名及び市町村名": "香川県三豊市",
        "施設・場所名": "比地大小学校",
        "住所": "香川県三豊市豊中町比地大2514-1",
        "指定緊急避難場所との住所同一": "1",
        "その他市町村長が必要と認める事項": null,
        "受入対象者": null,
        "備考": ""
      }
    },
    {
      "type": "Feature",
      "geometry": {
        "type": "Point",
        "coordinates": [
          133.696064,
          34.146126
        ]
      },
      "properties": {
        "NO": 66781,
        "共通ID": "E3720800060111",
        "都道府県名及び市町村名": "香川県三豊市",
        "施設・場所名": "豊中中学校",
        "住所": "香川県三豊市豊中町本山甲148-1",
        "指定緊急避難場所との住所同一": "1",
        "その他市町村長が必要と認める事項": null,
        "受入対象者": null,
        "備考": ""
      }
    },
    {
      "type": "Feature",
      "geometry": {
        "type": "Point",
        "coordinates": [
          133.696107,
          34.14742
        ]
      },
      "properties": {
        "NO": 66782,
        "共通ID": "E3720800061112",
        "都道府県名及び市町村名": "香川県三豊市",
        "施設・場所名": "豊中町農村環境改善センター",
        "住所": "香川県三豊市豊中町本山甲160-1",
        "指定緊急避難場所との住所同一": "1",
        "その他市町村長が必要と認める事項": "",
        "受入対象者": "",
        "備考": ""
      }
    },
    {
      "type": "Feature",
      "geometry": {
        "type": "Point",
        "coordinates": [
          133.696001,
          34.147596
        ]
      },
      "properties": {
        "NO": 66783,
        "共通ID": "E3720800061111",
        "都道府県名及び市町村名": "香川県三豊市",
        "施設・場所名": "三豊市市民交流センター",
        "住所": "香川県三豊市豊中町本山甲160-1",
        "指定緊急避難場所との住所同一": "1",
        "その他市町村長が必要と認める事項": "",
        "受入対象者": "",
        "備考": ""
      }
    },
    {
      "type": "Feature",
      "geometry": {
        "type": "Point",
        "coordinates": [
          133.699284,
          34.140239
        ]
      },
      "properties": {
        "NO": 66784,
        "共通ID": "E3720800062111",
        "都道府県名及び市町村名": "香川県三豊市",
        "施設・場所名": "本山小学校",
        "住所": "香川県三豊市豊中町本山甲1893-1",
        "指定緊急避難場所との住所同一": "1",
        "その他市町村長が必要と認める事項": null,
        "受入対象者": null,
        "備考": ""
      }
    },
    {
      "type": "Feature",
      "geometry": {
        "type": "Point",
        "coordinates": [
          133.630029,
          34.270043
        ]
      },
      "properties": {
        "NO": 66785,
        "共通ID": "E3720800063111",
        "都道府県名及び市町村名": "香川県三豊市",
        "施設・場所名": "（旧）粟島小学校",
        "住所": "香川県三豊市詫間町粟島1506-2",
        "指定緊急避難場所との住所同一": "1",
        "その他市町村長が必要と認める事項": "",
        "受入対象者": "",
        "備考": ""
      }
    },
    {
      "type": "Feature",
      "geometry": {
        "type": "Point",
        "coordinates": [
          133.633941,
          34.269372
        ]
      },
      "properties": {
        "NO": 66786,
        "共通ID": "E3720800064111",
        "都道府県名及び市町村名": "香川県三豊市",
        "施設・場所名": "粟島開発総合センター",
        "住所": "香川県三豊市詫間町粟島861-17",
        "指定緊急避難場所との住所同一": "1",
        "その他市町村長が必要と認める事項": null,
        "受入対象者": null,
        "備考": ""
      }
    },
    {
      "type": "Feature",
      "geometry": {
        "type": "Point",
        "coordinates": [
          133.635616,
          34.234785
        ]
      },
      "properties": {
        "NO": 66787,
        "共通ID": "E3720800065111",
        "都道府県名及び市町村名": "香川県三豊市",
        "施設・場所名": "香川高等専門学校詫間キャンパス",
        "住所": "香川県三豊市詫間町香田551",
        "指定緊急避難場所との住所同一": "1",
        "その他市町村長が必要と認める事項": "",
        "受入対象者": "",
        "備考": ""
      }
    },
    {
      "type": "Feature",
      "geometry": {
        "type": "Point",
        "coordinates": [
          133.681184,
          34.269897
        ]
      },
      "properties": {
        "NO": 66788,
        "共通ID": "E3720800066111",
        "都道府県名及び市町村名": "香川県三豊市",
        "施設・場所名": "志々島老人いこいの家",
        "住所": "香川県三豊市詫間町志々島394-2",
        "指定緊急避難場所との住所同一": "1",
        "その他市町村長が必要と認める事項": null,
        "受入対象者": null,
        "備考": ""
      }
    },
    {
      "type": "Feature",
      "geometry": {
        "type": "Point",
        "coordinates": [
          133.693286,
          34.221054
        ]
      },
      "properties": {
        "NO": 66789,
        "共通ID": "E3720800067111",
        "都道府県名及び市町村名": "香川県三豊市",
        "施設・場所名": "松崎コミュニティセンター",
        "住所": "香川県三豊市詫間町松崎717-1",
        "指定緊急避難場所との住所同一": "1",
        "その他市町村長が必要と認める事項": null,
        "受入対象者": null,
        "備考": ""
      }
    },
    {
      "type": "Feature",
      "geometry": {
        "type": "Point",
        "coordinates": [
          133.694237,
          34.221165
        ]
      },
      "properties": {
        "NO": 66790,
        "共通ID": "E3720800068111",
        "都道府県名及び市町村名": "香川県三豊市",
        "施設・場所名": "松崎小学校",
        "住所": "香川県三豊市詫間町松崎722",
        "指定緊急避難場所との住所同一": "1",
        "その他市町村長が必要と認める事項": null,
        "受入対象者": null,
        "備考": ""
      }
    },
    {
      "type": "Feature",
      "geometry": {
        "type": "Point",
        "coordinates": [
          133.616619,
          34.235586
        ]
      },
      "properties": {
        "NO": 66791,
        "共通ID": "E3720800077111",
        "都道府県名及び市町村名": "香川県三豊市",
        "施設・場所名": "三豊市地域交流館荘内",
        "住所": "香川県三豊市詫間町大浜甲1633-36",
        "指定緊急避難場所との住所同一": "1",
        "その他市町村長が必要と認める事項": "",
        "受入対象者": "",
        "備考": ""
      }
    },
    {
      "type": "Feature",
      "geometry": {
        "type": "Point",
        "coordinates": [
          133.586848,
          34.254968
        ]
      },
      "properties": {
        "NO": 66792,
        "共通ID": "E3720800071112",
        "都道府県名及び市町村名": "香川県三豊市",
        "施設・場所名": "（旧）箱浦小学校",
        "住所": "香川県三豊市詫間町箱551-1",
        "指定緊急避難場所との住所同一": "1",
        "その他市町村長が必要と認める事項": "",
        "受入対象者": "",
        "備考": ""
      }
    },
    {
      "type": "Feature",
      "geometry": {
        "type": "Point",
        "coordinates": [
          133.588823,
          34.258289
        ]
      },
      "properties": {
        "NO": 66793,
        "共通ID": "E3720800078111",
        "都道府県名及び市町村名": "香川県三豊市",
        "施設・場所名": "箱浦ビジターハウス",
        "住所": "香川県三豊市詫間町箱859-29",
        "指定緊急避難場所との住所同一": "1",
        "その他市町村長が必要と認める事項": "",
        "受入対象者": "",
        "備考": ""
      }
    },
    {
      "type": "Feature",
      "geometry": {
        "type": "Point",
        "coordinates": [
          133.66695,
          34.22542
        ]
      },
      "properties": {
        "NO": 66794,
        "共通ID": "E3720800073111",
        "都道府県名及び市町村名": "香川県三豊市",
        "施設・場所名": "詫間小学校",
        "住所": "香川県三豊市詫間町詫間2158",
        "指定緊急避難場所との住所同一": "1",
        "その他市町村長が必要と認める事項": null,
        "受入対象者": null,
        "備考": ""
      }
    },
    {
      "type": "Feature",
      "geometry": {
        "type": "Point",
        "coordinates": [
          133.657442,
          34.233902
        ]
      },
      "properties": {
        "NO": 66795,
        "共通ID": "E3720800074111",
        "都道府県名及び市町村名": "香川県三豊市",
        "施設・場所名": "詫間中学校",
        "住所": "香川県三豊市詫間町詫間5796-1",
        "指定緊急避難場所との住所同一": "1",
        "その他市町村長が必要と認める事項": null,
        "受入対象者": null,
        "備考": ""
      }
    }
  ]
}