{
  "type": "FeatureCollection",
  "name": "372056",
  "features": [
    {
      "type": "Feature",
      "geometry": {
        "type": "Point",
        "coordinates": [
          133.700862,
          34.095509
        ]
      },
      "properties": {
        "NO": 66570,
        "共通ID": "E3720500001111",
        "都道府県名及び市町村名": "香川県観音寺市",
        "施設・場所名": "粟井小学校（体育館）",
        "住所": "香川県観音寺市粟井町1452",
        "指定緊急避難場所との住所同一": "1",
        "その他市町村長が必要と認める事項": null,
        "受入対象者": null,
        "備考": ""
      }
    },
    {
      "type": "Feature",
      "geometry": {
        "type": "Point",
        "coordinates": [
          133.700985,
          34.094945
        ]
      },
      "properties": {
        "NO": 66571,
        "共通ID": "E3720500002111",
        "都道府県名及び市町村名": "香川県観音寺市",
        "施設・場所名": "粟井公民館",
        "住所": "香川県観音寺市粟井町1516",
        "指定緊急避難場所との住所同一": "1",
        "その他市町村長が必要と認める事項": null,
        "受入対象者": null,
        "備考": ""
      }
    },
    {
      "type": "Feature",
      "geometry": {
        "type": "Point",
        "coordinates": [
          133.533068,
          34.128004
        ]
      },
      "properties": {
        "NO": 66572,
        "共通ID": "E3720500004111",
        "都道府県名及び市町村名": "香川県観音寺市",
        "施設・場所名": "伊吹支所",
        "住所": "香川県観音寺市伊吹町209-2",
        "指定緊急避難場所との住所同一": "1",
        "その他市町村長が必要と認める事項": null,
        "受入対象者": null,
        "備考": ""
      }
    },
    {
      "type": "Feature",
      "geometry": {
        "type": "Point",
        "coordinates": [
          133.534735,
          34.128288
        ]
      },
      "properties": {
        "NO": 66573,
        "共通ID": "E3720500005111",
        "都道府県名及び市町村名": "香川県観音寺市",
        "施設・場所名": "伊吹公民館",
        "住所": "香川県観音寺市伊吹町263",
        "指定緊急避難場所との住所同一": "",
        "その他市町村長が必要と認める事項": null,
        "受入対象者": null,
        "備考": ""
      }
    },
    {
      "type": "Feature",
      "geometry": {
        "type": "Point",
        "coordinates": [
          133.537763,
          34.128243
        ]
      },
      "properties": {
        "NO": 66574,
        "共通ID": "E3720500006111",
        "都道府県名及び市町村名": "香川県観音寺市",
        "施設・場所名": "伊吹保育所",
        "住所": "香川県観音寺市伊吹町486-1",
        "指定緊急避難場所との住所同一": "",
        "その他市町村長が必要と認める事項": null,
        "受入対象者": null,
        "備考": ""
      }
    },
    {
      "type": "Feature",
      "geometry": {
        "type": "Point",
        "coordinates": [
          133.539352,
          34.129096
        ]
      },
      "properties": {
        "NO": 66575,
        "共通ID": "E3720500007111",
        "都道府県名及び市町村名": "香川県観音寺市",
        "施設・場所名": "伊吹中学校・小学校（体育館）",
        "住所": "香川県観音寺市伊吹町549",
        "指定緊急避難場所との住所同一": "1",
        "その他市町村長が必要と認める事項": null,
        "受入対象者": null,
        "備考": ""
      }
    },
    {
      "type": "Feature",
      "geometry": {
        "type": "Point",
        "coordinates": [
          133.648668,
          34.126535
        ]
      },
      "properties": {
        "NO": 66576,
        "共通ID": "E3720500009111",
        "都道府県名及び市町村名": "香川県観音寺市",
        "施設・場所名": "観音寺小学校（体育館）",
        "住所": "香川県観音寺市観音寺町甲2558-1",
        "指定緊急避難場所との住所同一": "1",
        "その他市町村長が必要と認める事項": null,
        "受入対象者": null,
        "備考": ""
      }
    },
    {
      "type": "Feature",
      "geometry": {
        "type": "Point",
        "coordinates": [
          133.649193,
          34.125414
        ]
      },
      "properties": {
        "NO": 66577,
        "共通ID": "E3720500010111",
        "都道府県名及び市町村名": "香川県観音寺市",
        "施設・場所名": "観音寺こども園",
        "住所": "香川県観音寺市観音寺町甲2558-2",
        "指定緊急避難場所との住所同一": "",
        "その他市町村長が必要と認める事項": "",
        "受入対象者": "",
        "備考": ""
      }
    },
    {
      "type": "Feature",
      "geometry": {
        "type": "Point",
        "coordinates": [
          133.650864,
          34.126365
        ]
      },
      "properties": {
        "NO": 66578,
        "共通ID": "E3720500012111",
        "都道府県名及び市町村名": "香川県観音寺市",
        "施設・場所名": "観音寺南公民館",
        "住所": "香川県観音寺市観音寺町甲2942-1",
        "指定緊急避難場所との住所同一": "",
        "その他市町村長が必要と認める事項": null,
        "受入対象者": null,
        "備考": ""
      }
    },
    {
      "type": "Feature",
      "geometry": {
        "type": "Point",
        "coordinates": [
          133.651224,
          34.126077
        ]
      },
      "properties": {
        "NO": 66579,
        "共通ID": "E3720500013121",
        "都道府県名及び市町村名": "香川県観音寺市",
        "施設・場所名": "鶴亀ハウス",
        "住所": "香川県観音寺市観音寺町甲2972-7",
        "指定緊急避難場所との住所同一": "1",
        "その他市町村長が必要と認める事項": null,
        "受入対象者": null,
        "備考": ""
      }
    },
    {
      "type": "Feature",
      "geometry": {
        "type": "Point",
        "coordinates": [
          133.692908,
          34.10633
        ]
      },
      "properties": {
        "NO": 66580,
        "共通ID": "E3720500015121",
        "都道府県名及び市町村名": "香川県観音寺市",
        "施設・場所名": "介護老人保健施設はがみ苑",
        "住所": "香川県観音寺市原町1273-3",
        "指定緊急避難場所との住所同一": "",
        "その他市町村長が必要と認める事項": null,
        "受入対象者": null,
        "備考": ""
      }
    },
    {
      "type": "Feature",
      "geometry": {
        "type": "Point",
        "coordinates": [
          133.702552,
          34.110586
        ]
      },
      "properties": {
        "NO": 66581,
        "共通ID": "E3720500016111",
        "都道府県名及び市町村名": "香川県観音寺市",
        "施設・場所名": "豊田公民館",
        "住所": "香川県観音寺市原町270-1",
        "指定緊急避難場所との住所同一": "1",
        "その他市町村長が必要と認める事項": null,
        "受入対象者": null,
        "備考": ""
      }
    },
    {
      "type": "Feature",
      "geometry": {
        "type": "Point",
        "coordinates": [
          133.697784,
          34.129247
        ]
      },
      "properties": {
        "NO": 66582,
        "共通ID": "E3720500017111",
        "都道府県名及び市町村名": "香川県観音寺市",
        "施設・場所名": "一ノ谷小学校（体育館）",
        "住所": "香川県観音寺市古川町102-1",
        "指定緊急避難場所との住所同一": "1",
        "その他市町村長が必要と認める事項": null,
        "受入対象者": null,
        "備考": ""
      }
    },
    {
      "type": "Feature",
      "geometry": {
        "type": "Point",
        "coordinates": [
          133.698259,
          34.130089
        ]
      },
      "properties": {
        "NO": 66583,
        "共通ID": "E3720500018111",
        "都道府県名及び市町村名": "香川県観音寺市",
        "施設・場所名": "旧一ノ谷幼稚園",
        "住所": "香川県観音寺市古川町117-1",
        "指定緊急避難場所との住所同一": "",
        "その他市町村長が必要と認める事項": null,
        "受入対象者": null,
        "備考": ""
      }
    },
    {
      "type": "Feature",
      "geometry": {
        "type": "Point",
        "coordinates": [
          133.698881,
          34.129724
        ]
      },
      "properties": {
        "NO": 66584,
        "共通ID": "E3720500019111",
        "都道府県名及び市町村名": "香川県観音寺市",
        "施設・場所名": "一ノ谷公民館",
        "住所": "香川県観音寺市古川町85-1",
        "指定緊急避難場所との住所同一": "1",
        "その他市町村長が必要と認める事項": null,
        "受入対象者": null,
        "備考": ""
      }
    },
    {
      "type": "Feature",
      "geometry": {
        "type": "Point",
        "coordinates": [
          133.654548,
          34.146773
        ]
      },
      "properties": {
        "NO": 66585,
        "共通ID": "E3720500020111",
        "都道府県名及び市町村名": "香川県観音寺市",
        "施設・場所名": "高室小学校（体育館）",
        "住所": "香川県観音寺市高屋町1877-1",
        "指定緊急避難場所との住所同一": "1",
        "その他市町村長が必要と認める事項": null,
        "受入対象者": null,
        "備考": ""
      }
    },
    {
      "type": "Feature",
      "geometry": {
        "type": "Point",
        "coordinates": [
          133.655612,
          34.146717
        ]
      },
      "properties": {
        "NO": 66586,
        "共通ID": "E3720500021111",
        "都道府県名及び市町村名": "香川県観音寺市",
        "施設・場所名": "旧高室幼稚園",
        "住所": "香川県観音寺市高屋町1895",
        "指定緊急避難場所との住所同一": "",
        "その他市町村長が必要と認める事項": null,
        "受入対象者": null,
        "備考": ""
      }
    },
    {
      "type": "Feature",
      "geometry": {
        "type": "Point",
        "coordinates": [
          133.654285,
          34.145788
        ]
      },
      "properties": {
        "NO": 66587,
        "共通ID": "E3720500022111",
        "都道府県名及び市町村名": "香川県観音寺市",
        "施設・場所名": "高室公民館",
        "住所": "香川県観音寺市高屋町884",
        "指定緊急避難場所との住所同一": "1",
        "その他市町村長が必要と認める事項": null,
        "受入対象者": null,
        "備考": ""
      }
    },
    {
      "type": "Feature",
      "geometry": {
        "type": "Point",
        "coordinates": [
          133.661975,
          34.127688
        ]
      },
      "properties": {
        "NO": 66588,
        "共通ID": "E3720500023112",
        "都道府県名及び市町村名": "香川県観音寺市",
        "施設・場所名": "共同福祉施設",
        "住所": "香川県観音寺市坂本町1-1-1",
        "指定緊急避難場所との住所同一": "",
        "その他市町村長が必要と認める事項": null,
        "受入対象者": null,
        "備考": ""
      }
    },
    {
      "type": "Feature",
      "geometry": {
        "type": "Point",
        "coordinates": [
          133.661893,
          34.129106
        ]
      },
      "properties": {
        "NO": 66589,
        "共通ID": "E3720500023113",
        "都道府県名及び市町村名": "香川県観音寺市",
        "施設・場所名": "観音寺中央図書館",
        "住所": "香川県観音寺市坂本町1-1-1",
        "指定緊急避難場所との住所同一": "",
        "その他市町村長が必要と認める事項": null,
        "受入対象者": null,
        "備考": ""
      }
    },
    {
      "type": "Feature",
      "geometry": {
        "type": "Point",
        "coordinates": [
          133.66223,
          34.127863
        ]
      },
      "properties": {
        "NO": 66590,
        "共通ID": "E3720500023111",
        "都道府県名及び市町村名": "香川県観音寺市",
        "施設・場所名": "働く婦人の家",
        "住所": "香川県観音寺市坂本町1-1-1",
        "指定緊急避難場所との住所同一": "",
        "その他市町村長が必要と認める事項": null,
        "受入対象者": null,
        "備考": ""
      }
    },
    {
      "type": "Feature",
      "geometry": {
        "type": "Point",
        "coordinates": [
          133.661898,
          34.129422
        ]
      },
      "properties": {
        "NO": 66591,
        "共通ID": "E3720500024111",
        "都道府県名及び市町村名": "香川県観音寺市",
        "施設・場所名": "観音寺商工会議所",
        "住所": "香川県観音寺市坂本町1-1-25",
        "指定緊急避難場所との住所同一": "1",
        "その他市町村長が必要と認める事項": null,
        "受入対象者": null,
        "備考": ""
      }
    },
    {
      "type": "Feature",
      "geometry": {
        "type": "Point",
        "coordinates": [
          133.658855,
          34.126482
        ]
      },
      "properties": {
        "NO": 66592,
        "共通ID": "E3720500026111",
        "都道府県名及び市町村名": "香川県観音寺市",
        "施設・場所名": "ふれあい文化センター",
        "住所": "香川県観音寺市坂本町7-14-77",
        "指定緊急避難場所との住所同一": "",
        "その他市町村長が必要と認める事項": null,
        "受入対象者": null,
        "備考": ""
      }
    },
    {
      "type": "Feature",
      "geometry": {
        "type": "Point",
        "coordinates": [
          133.645628,
          34.153744
        ]
      },
      "properties": {
        "NO": 66593,
        "共通ID": "E3720500029111",
        "都道府県名及び市町村名": "香川県観音寺市",
        "施設・場所名": "室本公民館",
        "住所": "香川県観音寺市室本町311-3",
        "指定緊急避難場所との住所同一": "",
        "その他市町村長が必要と認める事項": null,
        "受入対象者": null,
        "備考": ""
      }
    },
    {
      "type": "Feature",
      "geometry": {
        "type": "Point",
        "coordinates": [
          133.677216,
          34.113395
        ]
      },
      "properties": {
        "NO": 66594,
        "共通ID": "E3720500031121",
        "都道府県名及び市町村名": "香川県観音寺市",
        "施設・場所名": "香川西部養護学校",
        "住所": "香川県観音寺市出作町712",
        "指定緊急避難場所との住所同一": "",
        "その他市町村長が必要と認める事項": null,
        "受入対象者": null,
        "備考": ""
      }
    },
    {
      "type": "Feature",
      "geometry": {
        "type": "Point",
        "coordinates": [
          133.67583,
          34.120913
        ]
      },
      "properties": {
        "NO": 66595,
        "共通ID": "E3720500032111",
        "都道府県名及び市町村名": "香川県観音寺市",
        "施設・場所名": "観音寺中部こども園",
        "住所": "香川県観音寺市植田町1217-3",
        "指定緊急避難場所との住所同一": "",
        "その他市町村長が必要と認める事項": "",
        "受入対象者": "",
        "備考": ""
      }
    },
    {
      "type": "Feature",
      "geometry": {
        "type": "Point",
        "coordinates": [
          133.675971,
          34.127027
        ]
      },
      "properties": {
        "NO": 66596,
        "共通ID": "E3720500033111",
        "都道府県名及び市町村名": "香川県観音寺市",
        "施設・場所名": "常磐小学校（体育館）",
        "住所": "香川県観音寺市植田町365",
        "指定緊急避難場所との住所同一": "1",
        "その他市町村長が必要と認める事項": null,
        "受入対象者": null,
        "備考": ""
      }
    },
    {
      "type": "Feature",
      "geometry": {
        "type": "Point",
        "coordinates": [
          133.676096,
          34.124551
        ]
      },
      "properties": {
        "NO": 66597,
        "共通ID": "E3720500034111",
        "都道府県名及び市町村名": "香川県観音寺市",
        "施設・場所名": "常磐公民館",
        "住所": "香川県観音寺市植田町458-3",
        "指定緊急避難場所との住所同一": "",
        "その他市町村長が必要と認める事項": null,
        "受入対象者": null,
        "備考": ""
      }
    },
    {
      "type": "Feature",
      "geometry": {
        "type": "Point",
        "coordinates": [
          133.701926,
          34.108842
        ]
      },
      "properties": {
        "NO": 66598,
        "共通ID": "E3720500102112",
        "都道府県名及び市町村名": "香川県観音寺市",
        "施設・場所名": "笑いの家とよた",
        "住所": "香川県観音寺市新田町1385-4",
        "指定緊急避難場所との住所同一": "",
        "その他市町村長が必要と認める事項": "",
        "受入対象者": "",
        "備考": ""
      }
    },
    {
      "type": "Feature",
      "geometry": {
        "type": "Point",
        "coordinates": [
          133.702245,
          34.109776
        ]
      },
      "properties": {
        "NO": 66599,
        "共通ID": "E3720500035111",
        "都道府県名及び市町村名": "香川県観音寺市",
        "施設・場所名": "豊田小学校（体育館）",
        "住所": "香川県観音寺市新田町1413",
        "指定緊急避難場所との住所同一": "1",
        "その他市町村長が必要と認める事項": null,
        "受入対象者": null,
        "備考": ""
      }
    },
    {
      "type": "Feature",
      "geometry": {
        "type": "Point",
        "coordinates": [
          133.637984,
          34.118671
        ]
      },
      "properties": {
        "NO": 66600,
        "共通ID": "E3720500036111",
        "都道府県名及び市町村名": "香川県観音寺市",
        "施設・場所名": "株式会社総合開発リネンサプライ事業",
        "住所": "香川県観音寺市瀬戸町4-1-7",
        "指定緊急避難場所との住所同一": "1",
        "その他市町村長が必要と認める事項": null,
        "受入対象者": null,
        "備考": ""
      }
    },
    {
      "type": "Feature",
      "geometry": {
        "type": "Point",
        "coordinates": [
          133.666135,
          34.132984
        ]
      },
      "properties": {
        "NO": 66601,
        "共通ID": "E3720500038121",
        "都道府県名及び市町村名": "香川県観音寺市",
        "施設・場所名": "介護老人保健施設観音寺ケアセンター",
        "住所": "香川県観音寺市村黒町739",
        "指定緊急避難場所との住所同一": "",
        "その他市町村長が必要と認める事項": null,
        "受入対象者": null,
        "備考": ""
      }
    },
    {
      "type": "Feature",
      "geometry": {
        "type": "Point",
        "coordinates": [
          133.659396,
          34.08469
        ]
      },
      "properties": {
        "NO": 66602,
        "共通ID": "E3720500103111",
        "都道府県名及び市町村名": "香川県観音寺市",
        "施設・場所名": "大野原こども園",
        "住所": "香川県観音寺市大野原町1675-1",
        "指定緊急避難場所との住所同一": "",
        "その他市町村長が必要と認める事項": "",
        "受入対象者": "",
        "備考": ""
      }
    },
    {
      "type": "Feature",
      "geometry": {
        "type": "Point",
        "coordinates": [
          133.686688,
          34.061457
        ]
      },
      "properties": {
        "NO": 66603,
        "共通ID": "E3720500039111",
        "都道府県名及び市町村名": "香川県観音寺市",
        "施設・場所名": "天理教西香川分教会",
        "住所": "香川県観音寺市大野原町井関687-1",
        "指定緊急避難場所との住所同一": "1",
        "その他市町村長が必要と認める事項": null,
        "受入対象者": null,
        "備考": ""
      }
    },
    {
      "type": "Feature",
      "geometry": {
        "type": "Point",
        "coordinates": [
          133.647371,
          34.095397
        ]
      },
      "properties": {
        "NO": 66604,
        "共通ID": "E3720500040111",
        "都道府県名及び市町村名": "香川県観音寺市",
        "施設・場所名": "花稲研修センター",
        "住所": "香川県観音寺市大野原町花稲890-1",
        "指定緊急避難場所との住所同一": "",
        "その他市町村長が必要と認める事項": null,
        "受入対象者": null,
        "備考": ""
      }
    },
    {
      "type": "Feature",
      "geometry": {
        "type": "Point",
        "coordinates": [
          133.698743,
          34.089889
        ]
      },
      "properties": {
        "NO": 66605,
        "共通ID": "E3720500041111",
        "都道府県名及び市町村名": "香川県観音寺市",
        "施設・場所名": "燧望苑",
        "住所": "香川県観音寺市大野原町丸井1183",
        "指定緊急避難場所との住所同一": "1",
        "その他市町村長が必要と認める事項": null,
        "受入対象者": null,
        "備考": ""
      }
    },
    {
      "type": "Feature",
      "geometry": {
        "type": "Point",
        "coordinates": [
          133.690458,
          34.093852
        ]
      },
      "properties": {
        "NO": 66606,
        "共通ID": "E3720500042111",
        "都道府県名及び市町村名": "香川県観音寺市",
        "施設・場所名": "旧紀伊小学校（体育館）",
        "住所": "香川県観音寺市大野原町丸井313",
        "指定緊急避難場所との住所同一": "1",
        "その他市町村長が必要と認める事項": null,
        "受入対象者": null,
        "備考": ""
      }
    },
    {
      "type": "Feature",
      "geometry": {
        "type": "Point",
        "coordinates": [
          133.664198,
          34.084286
        ]
      },
      "properties": {
        "NO": 66607,
        "共通ID": "E3720500043111",
        "都道府県名及び市町村名": "香川県観音寺市",
        "施設・場所名": "大野原中央公民館",
        "住所": "香川県観音寺市大野原町大野原1260-1",
        "指定緊急避難場所との住所同一": "",
        "その他市町村長が必要と認める事項": null,
        "受入対象者": null,
        "備考": ""
      }
    },
    {
      "type": "Feature",
      "geometry": {
        "type": "Point",
        "coordinates": [
          133.664724,
          34.084185
        ]
      },
      "properties": {
        "NO": 66608,
        "共通ID": "E3720500044111",
        "都道府県名及び市町村名": "香川県観音寺市",
        "施設・場所名": "大野原いきいきセンター",
        "住所": "香川県観音寺市大野原町大野原1265",
        "指定緊急避難場所との住所同一": "",
        "その他市町村長が必要と認める事項": null,
        "受入対象者": null,
        "備考": ""
      }
    },
    {
      "type": "Feature",
      "geometry": {
        "type": "Point",
        "coordinates": [
          133.664862,
          34.083839
        ]
      },
      "properties": {
        "NO": 66609,
        "共通ID": "E3720500045111",
        "都道府県名及び市町村名": "香川県観音寺市",
        "施設・場所名": "大野原交流センター",
        "住所": "香川県観音寺市大野原町大野原1267-1",
        "指定緊急避難場所との住所同一": "",
        "その他市町村長が必要と認める事項": null,
        "受入対象者": null,
        "備考": ""
      }
    },
    {
      "type": "Feature",
      "geometry": {
        "type": "Point",
        "coordinates": [
          133.664145,
          34.083319
        ]
      },
      "properties": {
        "NO": 66610,
        "共通ID": "E3720500046111",
        "都道府県名及び市町村名": "香川県観音寺市",
        "施設・場所名": "大野原中央集会場",
        "住所": "香川県観音寺市大野原町大野原1349",
        "指定緊急避難場所との住所同一": "",
        "その他市町村長が必要と認める事項": null,
        "受入対象者": null,
        "備考": ""
      }
    },
    {
      "type": "Feature",
      "geometry": {
        "type": "Point",
        "coordinates": [
          133.663589,
          34.083731
        ]
      },
      "properties": {
        "NO": 66611,
        "共通ID": "E3720500047111",
        "都道府県名及び市町村名": "香川県観音寺市",
        "施設・場所名": "大野原勤労青少年ホーム",
        "住所": "香川県観音寺市大野原町大野原1368-1",
        "指定緊急避難場所との住所同一": "",
        "その他市町村長が必要と認める事項": null,
        "受入対象者": null,
        "備考": ""
      }
    },
    {
      "type": "Feature",
      "geometry": {
        "type": "Point",
        "coordinates": [
          133.658699,
          34.08366
        ]
      },
      "properties": {
        "NO": 66612,
        "共通ID": "E3720500048111",
        "都道府県名及び市町村名": "香川県観音寺市",
        "施設・場所名": "萩の湯",
        "住所": "香川県観音寺市大野原町大野原1509",
        "指定緊急避難場所との住所同一": "",
        "その他市町村長が必要と認める事項": null,
        "受入対象者": null,
        "備考": ""
      }
    },
    {
      "type": "Feature",
      "geometry": {
        "type": "Point",
        "coordinates": [
          133.664219,
          34.086197
        ]
      },
      "properties": {
        "NO": 66613,
        "共通ID": "E3720500052111",
        "都道府県名及び市町村名": "香川県観音寺市",
        "施設・場所名": "大野原農業者トレーニングセンター",
        "住所": "香川県観音寺市大野原町大野原1994",
        "指定緊急避難場所との住所同一": "1",
        "その他市町村長が必要と認める事項": null,
        "受入対象者": null,
        "備考": ""
      }
    },
    {
      "type": "Feature",
      "geometry": {
        "type": "Point",
        "coordinates": [
          133.664998,
          34.073315
        ]
      },
      "properties": {
        "NO": 66614,
        "共通ID": "E3720500053121",
        "都道府県名及び市町村名": "香川県観音寺市",
        "施設・場所名": "特別養護老人ホームおおとよ荘",
        "住所": "香川県観音寺市大野原町大野原7010",
        "指定緊急避難場所との住所同一": "",
        "その他市町村長が必要と認める事項": null,
        "受入対象者": null,
        "備考": ""
      }
    },
    {
      "type": "Feature",
      "geometry": {
        "type": "Point",
        "coordinates": [
          133.668922,
          34.087307
        ]
      },
      "properties": {
        "NO": 66615,
        "共通ID": "E3720500054111",
        "都道府県名及び市町村名": "香川県観音寺市",
        "施設・場所名": "大野原中学校（武道場）",
        "住所": "香川県観音寺市大野原町中姫1189-3",
        "指定緊急避難場所との住所同一": "1",
        "その他市町村長が必要と認める事項": null,
        "受入対象者": null,
        "備考": ""
      }
    },
    {
      "type": "Feature",
      "geometry": {
        "type": "Point",
        "coordinates": [
          133.668474,
          34.087569
        ]
      },
      "properties": {
        "NO": 66616,
        "共通ID": "E3720500054112",
        "都道府県名及び市町村名": "香川県観音寺市",
        "施設・場所名": "大野原中学校（体育館）",
        "住所": "香川県観音寺市大野原町中姫1189-3",
        "指定緊急避難場所との住所同一": "1",
        "その他市町村長が必要と認める事項": null,
        "受入対象者": null,
        "備考": ""
      }
    },
    {
      "type": "Feature",
      "geometry": {
        "type": "Point",
        "coordinates": [
          133.666989,
          34.088771
        ]
      },
      "properties": {
        "NO": 66617,
        "共通ID": "E3720500055111",
        "都道府県名及び市町村名": "香川県観音寺市",
        "施設・場所名": "大野原会館",
        "住所": "香川県観音寺市大野原町中姫1247",
        "指定緊急避難場所との住所同一": "",
        "その他市町村長が必要と認める事項": null,
        "受入対象者": null,
        "備考": ""
      }
    },
    {
      "type": "Feature",
      "geometry": {
        "type": "Point",
        "coordinates": [
          133.672657,
          34.087322
        ]
      },
      "properties": {
        "NO": 66618,
        "共通ID": "E3720500056111",
        "都道府県名及び市町村名": "香川県観音寺市",
        "施設・場所名": "中姫中央ふれあい会館",
        "住所": "香川県観音寺市大野原町中姫946",
        "指定緊急避難場所との住所同一": "",
        "その他市町村長が必要と認める事項": null,
        "受入対象者": null,
        "備考": ""
      }
    },
    {
      "type": "Feature",
      "geometry": {
        "type": "Point",
        "coordinates": [
          133.659261,
          34.040499
        ]
      },
      "properties": {
        "NO": 66619,
        "共通ID": "E3720500057111",
        "都道府県名及び市町村名": "香川県観音寺市",
        "施設・場所名": "田野々自治会館",
        "住所": "香川県観音寺市大野原町田野々743-1",
        "指定緊急避難場所との住所同一": "1",
        "その他市町村長が必要と認める事項": null,
        "受入対象者": null,
        "備考": ""
      }
    },
    {
      "type": "Feature",
      "geometry": {
        "type": "Point",
        "coordinates": [
          133.700662,
          34.060047
        ]
      },
      "properties": {
        "NO": 66620,
        "共通ID": "E3720500058121",
        "都道府県名及び市町村名": "香川県観音寺市",
        "施設・場所名": "介護老人保健施設ひうち荘",
        "住所": "香川県観音寺市大野原町内野々394-1",
        "指定緊急避難場所との住所同一": "",
        "その他市町村長が必要と認める事項": null,
        "受入対象者": null,
        "備考": ""
      }
    },
    {
      "type": "Feature",
      "geometry": {
        "type": "Point",
        "coordinates": [
          133.699847,
          34.060505
        ]
      },
      "properties": {
        "NO": 66621,
        "共通ID": "E3720500059121",
        "都道府県名及び市町村名": "香川県観音寺市",
        "施設・場所名": "特別養護老人ホームひうち",
        "住所": "香川県観音寺市大野原町内野々597",
        "指定緊急避難場所との住所同一": "",
        "その他市町村長が必要と認める事項": null,
        "受入対象者": null,
        "備考": ""
      }
    },
    {
      "type": "Feature",
      "geometry": {
        "type": "Point",
        "coordinates": [
          133.680045,
          34.077225
        ]
      },
      "properties": {
        "NO": 66622,
        "共通ID": "E3720500060111",
        "都道府県名及び市町村名": "香川県観音寺市",
        "施設・場所名": "旧萩原小学校（体育館）",
        "住所": "香川県観音寺市大野原町萩原2354",
        "指定緊急避難場所との住所同一": "1",
        "その他市町村長が必要と認める事項": null,
        "受入対象者": null,
        "備考": ""
      }
    },
    {
      "type": "Feature",
      "geometry": {
        "type": "Point",
        "coordinates": [
          133.679285,
          34.077608
        ]
      },
      "properties": {
        "NO": 66623,
        "共通ID": "E3720500061111",
        "都道府県名及び市町村名": "香川県観音寺市",
        "施設・場所名": "萩のふるさと会館",
        "住所": "香川県観音寺市大野原町萩原2363-1",
        "指定緊急避難場所との住所同一": "",
        "その他市町村長が必要と認める事項": null,
        "受入対象者": null,
        "備考": ""
      }
    },
    {
      "type": "Feature",
      "geometry": {
        "type": "Point",
        "coordinates": [
          133.685291,
          34.077575
        ]
      },
      "properties": {
        "NO": 66624,
        "共通ID": "E3720500062111",
        "都道府県名及び市町村名": "香川県観音寺市",
        "施設・場所名": "大野原福祉会館",
        "住所": "香川県観音寺市大野原町萩原乙139-1",
        "指定緊急避難場所との住所同一": "",
        "その他市町村長が必要と認める事項": null,
        "受入対象者": null,
        "備考": ""
      }
    },
    {
      "type": "Feature",
      "geometry": {
        "type": "Point",
        "coordinates": [
          133.686201,
          34.108784
        ]
      },
      "properties": {
        "NO": 66625,
        "共通ID": "E3720500063111",
        "都道府県名及び市町村名": "香川県観音寺市",
        "施設・場所名": "市立総合体育館",
        "住所": "香川県観音寺市池之尻町1071",
        "指定緊急避難場所との住所同一": "1",
        "その他市町村長が必要と認める事項": null,
        "受入対象者": null,
        "備考": ""
      }
    },
    {
      "type": "Feature",
      "geometry": {
        "type": "Point",
        "coordinates": [
          133.660544,
          34.128575
        ]
      },
      "properties": {
        "NO": 66626,
        "共通ID": "E3720500065111",
        "都道府県名及び市町村名": "香川県観音寺市",
        "施設・場所名": "観音寺総合高等学校",
        "住所": "香川県観音寺市天神町1-1-15",
        "指定緊急避難場所との住所同一": "",
        "その他市町村長が必要と認める事項": null,
        "受入対象者": null,
        "備考": ""
      }
    },
    {
      "type": "Feature",
      "geometry": {
        "type": "Point",
        "coordinates": [
          133.645383,
          34.136093
        ]
      },
      "properties": {
        "NO": 66627,
        "共通ID": "E3720500068111",
        "都道府県名及び市町村名": "香川県観音寺市",
        "施設・場所名": "観音寺中学校（武道場）",
        "住所": "香川県観音寺市八幡町2-10-7",
        "指定緊急避難場所との住所同一": "1",
        "その他市町村長が必要と認める事項": null,
        "受入対象者": null,
        "備考": ""
      }
    },
    {
      "type": "Feature",
      "geometry": {
        "type": "Point",
        "coordinates": [
          133.646115,
          34.136631
        ]
      },
      "properties": {
        "NO": 66628,
        "共通ID": "E3720500068112",
        "都道府県名及び市町村名": "香川県観音寺市",
        "施設・場所名": "観音寺中学校（体育館）",
        "住所": "香川県観音寺市八幡町2-10-7",
        "指定緊急避難場所との住所同一": "1",
        "その他市町村長が必要と認める事項": null,
        "受入対象者": null,
        "備考": ""
      }
    },
    {
      "type": "Feature",
      "geometry": {
        "type": "Point",
        "coordinates": [
          133.642028,
          34.081105
        ]
      },
      "properties": {
        "NO": 66629,
        "共通ID": "E3720500070121",
        "都道府県名及び市町村名": "香川県観音寺市",
        "施設・場所名": "介護老人保健施設わたつみ苑",
        "住所": "香川県観音寺市豊浜町姫浜1260-1",
        "指定緊急避難場所との住所同一": "",
        "その他市町村長が必要と認める事項": null,
        "受入対象者": null,
        "備考": ""
      }
    },
    {
      "type": "Feature",
      "geometry": {
        "type": "Point",
        "coordinates": [
          133.638159,
          34.088041
        ]
      },
      "properties": {
        "NO": 66630,
        "共通ID": "E3720500071121",
        "都道府県名及び市町村名": "香川県観音寺市",
        "施設・場所名": "特別養護老人ホームネムの木",
        "住所": "香川県観音寺市豊浜町姫浜41-1",
        "指定緊急避難場所との住所同一": "",
        "その他市町村長が必要と認める事項": null,
        "受入対象者": null,
        "備考": ""
      }
    },
    {
      "type": "Feature",
      "geometry": {
        "type": "Point",
        "coordinates": [
          133.64013,
          34.077122
        ]
      },
      "properties": {
        "NO": 66631,
        "共通ID": "E3720500072111",
        "都道府県名及び市町村名": "香川県観音寺市",
        "施設・場所名": "豊浜公会堂",
        "住所": "香川県観音寺市豊浜町姫浜453-2",
        "指定緊急避難場所との住所同一": "",
        "その他市町村長が必要と認める事項": null,
        "受入対象者": null,
        "備考": ""
      }
    },
    {
      "type": "Feature",
      "geometry": {
        "type": "Point",
        "coordinates": [
          133.638833,
          34.086691
        ]
      },
      "properties": {
        "NO": 66632,
        "共通ID": "E3720500073111",
        "都道府県名及び市町村名": "香川県観音寺市",
        "施設・場所名": "海の家（豊浜コミュニティセンター）",
        "住所": "香川県観音寺市豊浜町姫浜55-2",
        "指定緊急避難場所との住所同一": "",
        "その他市町村長が必要と認める事項": null,
        "受入対象者": null,
        "備考": ""
      }
    },
    {
      "type": "Feature",
      "geometry": {
        "type": "Point",
        "coordinates": [
          133.631318,
          34.056344
        ]
      },
      "properties": {
        "NO": 66633,
        "共通ID": "E3720500074111",
        "都道府県名及び市町村名": "香川県観音寺市",
        "施設・場所名": "豊浜西部集会所",
        "住所": "香川県観音寺市豊浜町箕浦甲1935-9",
        "指定緊急避難場所との住所同一": "",
        "その他市町村長が必要と認める事項": null,
        "受入対象者": null,
        "備考": ""
      }
    },
    {
      "type": "Feature",
      "geometry": {
        "type": "Point",
        "coordinates": [
          133.647663,
          34.067521
        ]
      },
      "properties": {
        "NO": 66634,
        "共通ID": "E3720500076111",
        "都道府県名及び市町村名": "香川県観音寺市",
        "施設・場所名": "豊浜南部集会所",
        "住所": "香川県観音寺市豊浜町和田甲493-1",
        "指定緊急避難場所との住所同一": "",
        "その他市町村長が必要と認める事項": null,
        "受入対象者": null,
        "備考": ""
      }
    },
    {
      "type": "Feature",
      "geometry": {
        "type": "Point",
        "coordinates": [
          133.643137,
          34.072451
        ]
      },
      "properties": {
        "NO": 66635,
        "共通ID": "E3720500077112",
        "都道府県名及び市町村名": "香川県観音寺市",
        "施設・場所名": "豊浜小学校（体育館）",
        "住所": "香川県観音寺市豊浜町和田浜1000",
        "指定緊急避難場所との住所同一": "1",
        "その他市町村長が必要と認める事項": null,
        "受入対象者": null,
        "備考": ""
      }
    },
    {
      "type": "Feature",
      "geometry": {
        "type": "Point",
        "coordinates": [
          133.644393,
          34.071514
        ]
      },
      "properties": {
        "NO": 66636,
        "共通ID": "E3720500077111",
        "都道府県名及び市町村名": "香川県観音寺市",
        "施設・場所名": "豊浜こども園",
        "住所": "香川県観音寺市豊浜町和田浜1000",
        "指定緊急避難場所との住所同一": "1",
        "その他市町村長が必要と認める事項": "",
        "受入対象者": "",
        "備考": ""
      }
    },
    {
      "type": "Feature",
      "geometry": {
        "type": "Point",
        "coordinates": [
          133.640193,
          34.071186
        ]
      },
      "properties": {
        "NO": 66637,
        "共通ID": "E3720500078111",
        "都道府県名及び市町村名": "香川県観音寺市",
        "施設・場所名": "豊浜保育所",
        "住所": "香川県観音寺市豊浜町和田浜1124-1",
        "指定緊急避難場所との住所同一": "",
        "その他市町村長が必要と認める事項": null,
        "受入対象者": null,
        "備考": ""
      }
    },
    {
      "type": "Feature",
      "geometry": {
        "type": "Point",
        "coordinates": [
          133.636086,
          34.074545
        ]
      },
      "properties": {
        "NO": 66638,
        "共通ID": "E3720500079112",
        "都道府県名及び市町村名": "香川県観音寺市",
        "施設・場所名": "豊浜コミュニティ消防センター",
        "住所": "香川県観音寺市豊浜町和田浜1531-1",
        "指定緊急避難場所との住所同一": "",
        "その他市町村長が必要と認める事項": null,
        "受入対象者": null,
        "備考": ""
      }
    },
    {
      "type": "Feature",
      "geometry": {
        "type": "Point",
        "coordinates": [
          133.63614,
          34.073951
        ]
      },
      "properties": {
        "NO": 66639,
        "共通ID": "E3720500079111",
        "都道府県名及び市町村名": "香川県観音寺市",
        "施設・場所名": "豊浜中央公民館",
        "住所": "香川県観音寺市豊浜町和田浜1531-1",
        "指定緊急避難場所との住所同一": "",
        "その他市町村長が必要と認める事項": null,
        "受入対象者": null,
        "備考": ""
      }
    },
    {
      "type": "Feature",
      "geometry": {
        "type": "Point",
        "coordinates": [
          133.637613,
          34.073563
        ]
      },
      "properties": {
        "NO": 66640,
        "共通ID": "E3720500080111",
        "都道府県名及び市町村名": "香川県観音寺市",
        "施設・場所名": "豊浜福祉会館",
        "住所": "香川県観音寺市豊浜町和田浜1544-1",
        "指定緊急避難場所との住所同一": "",
        "その他市町村長が必要と認める事項": null,
        "受入対象者": null,
        "備考": ""
      }
    },
    {
      "type": "Feature",
      "geometry": {
        "type": "Point",
        "coordinates": [
          133.636707,
          34.071141
        ]
      },
      "properties": {
        "NO": 66641,
        "共通ID": "E3720500081121",
        "都道府県名及び市町村名": "香川県観音寺市",
        "施設・場所名": "特別養護老人ホームとよはま荘",
        "住所": "香川県観音寺市豊浜町和田浜1575-1",
        "指定緊急避難場所との住所同一": "",
        "その他市町村長が必要と認める事項": null,
        "受入対象者": null,
        "備考": ""
      }
    },
    {
      "type": "Feature",
      "geometry": {
        "type": "Point",
        "coordinates": [
          133.6434,
          34.077301
        ]
      },
      "properties": {
        "NO": 66642,
        "共通ID": "E3720500082111",
        "都道府県名及び市町村名": "香川県観音寺市",
        "施設・場所名": "豊浜中学校（武道場）",
        "住所": "香川県観音寺市豊浜町和田浜717",
        "指定緊急避難場所との住所同一": "1",
        "その他市町村長が必要と認める事項": null,
        "受入対象者": null,
        "備考": ""
      }
    },
    {
      "type": "Feature",
      "geometry": {
        "type": "Point",
        "coordinates": [
          133.643417,
          34.077398
        ]
      },
      "properties": {
        "NO": 66643,
        "共通ID": "E3720500082112",
        "都道府県名及び市町村名": "香川県観音寺市",
        "施設・場所名": "豊浜中学校（体育館）",
        "住所": "香川県観音寺市豊浜町和田浜717",
        "指定緊急避難場所との住所同一": "1",
        "その他市町村長が必要と認める事項": null,
        "受入対象者": null,
        "備考": ""
      }
    },
    {
      "type": "Feature",
      "geometry": {
        "type": "Point",
        "coordinates": [
          133.6422,
          34.074798
        ]
      },
      "properties": {
        "NO": 66644,
        "共通ID": "E3720500083111",
        "都道府県名及び市町村名": "香川県観音寺市",
        "施設・場所名": "豊浜総合体育館（すぽっシュＴＯＹＯＨＡＭＡ）",
        "住所": "香川県観音寺市豊浜町和田浜784-1",
        "指定緊急避難場所との住所同一": "1",
        "その他市町村長が必要と認める事項": null,
        "受入対象者": null,
        "備考": ""
      }
    },
    {
      "type": "Feature",
      "geometry": {
        "type": "Point",
        "coordinates": [
          133.65701,
          34.131571
        ]
      },
      "properties": {
        "NO": 66645,
        "共通ID": "E3720500084112",
        "都道府県名及び市町村名": "香川県観音寺市",
        "施設・場所名": "観音寺東公民館体育館",
        "住所": "香川県観音寺市茂西町1-1-28",
        "指定緊急避難場所との住所同一": "",
        "その他市町村長が必要と認める事項": "",
        "受入対象者": "",
        "備考": ""
      }
    },
    {
      "type": "Feature",
      "geometry": {
        "type": "Point",
        "coordinates": [
          133.656626,
          34.131751
        ]
      },
      "properties": {
        "NO": 66646,
        "共通ID": "E3720500084111",
        "都道府県名及び市町村名": "香川県観音寺市",
        "施設・場所名": "観音寺東公民館",
        "住所": "香川県観音寺市茂西町1-1-28",
        "指定緊急避難場所との住所同一": "",
        "その他市町村長が必要と認める事項": null,
        "受入対象者": null,
        "備考": ""
      }
    },
    {
      "type": "Feature",
      "geometry": {
        "type": "Point",
        "coordinates": [
          133.658981,
          34.132742
        ]
      },
      "properties": {
        "NO": 66647,
        "共通ID": "E3720500085111",
        "都道府県名及び市町村名": "香川県観音寺市",
        "施設・場所名": "観音寺第一高等学校",
        "住所": "香川県観音寺市茂木町4-2-38",
        "指定緊急避難場所との住所同一": "",
        "その他市町村長が必要と認める事項": null,
        "受入対象者": null,
        "備考": ""
      }
    },
    {
      "type": "Feature",
      "geometry": {
        "type": "Point",
        "coordinates": [
          133.660088,
          34.132802
        ]
      },
      "properties": {
        "NO": 66648,
        "共通ID": "E3720500086121",
        "都道府県名及び市町村名": "香川県観音寺市",
        "施設・場所名": "特別養護老人ホーム豊恩荘",
        "住所": "香川県観音寺市茂木町4-6-2",
        "指定緊急避難場所との住所同一": "",
        "その他市町村長が必要と認める事項": null,
        "受入対象者": null,
        "備考": ""
      }
    },
    {
      "type": "Feature",
      "geometry": {
        "type": "Point",
        "coordinates": [
          133.675847,
          34.10107
        ]
      },
      "properties": {
        "NO": 66649,
        "共通ID": "E3720500087111",
        "都道府県名及び市町村名": "香川県観音寺市",
        "施設・場所名": "百々宮会館",
        "住所": "香川県観音寺市木之郷町1639-1",
        "指定緊急避難場所との住所同一": "",
        "その他市町村長が必要と認める事項": null,
        "受入対象者": null,
        "備考": ""
      }
    },
    {
      "type": "Feature",
      "geometry": {
        "type": "Point",
        "coordinates": [
          133.692015,
          34.10637
        ]
      },
      "properties": {
        "NO": 66650,
        "共通ID": "E3720500088121",
        "都道府県名及び市町村名": "香川県観音寺市",
        "施設・場所名": "特別養護老人ホーム長寿苑",
        "住所": "香川県観音寺市木之郷町499-62",
        "指定緊急避難場所との住所同一": "",
        "その他市町村長が必要と認める事項": null,
        "受入対象者": null,
        "備考": ""
      }
    },
    {
      "type": "Feature",
      "geometry": {
        "type": "Point",
        "coordinates": [
          133.683469,
          34.103202
        ]
      },
      "properties": {
        "NO": 66651,
        "共通ID": "E3720500089111",
        "都道府県名及び市町村名": "香川県観音寺市",
        "施設・場所名": "木之郷公民館",
        "住所": "香川県観音寺市木之郷町795",
        "指定緊急避難場所との住所同一": "",
        "その他市町村長が必要と認める事項": null,
        "受入対象者": null,
        "備考": ""
      }
    },
    {
      "type": "Feature",
      "geometry": {
        "type": "Point",
        "coordinates": [
          133.672812,
          34.137382
        ]
      },
      "properties": {
        "NO": 66652,
        "共通ID": "E3720500090111",
        "都道府県名及び市町村名": "香川県観音寺市",
        "施設・場所名": "コミュニティ防災センター",
        "住所": "香川県観音寺市流岡町475",
        "指定緊急避難場所との住所同一": "1",
        "その他市町村長が必要と認める事項": null,
        "受入対象者": null,
        "備考": ""
      }
    },
    {
      "type": "Feature",
      "geometry": {
        "type": "Point",
        "coordinates": [
          133.679168,
          34.137268
        ]
      },
      "properties": {
        "NO": 66653,
        "共通ID": "E3720500091121",
        "都道府県名及び市町村名": "香川県観音寺市",
        "施設・場所名": "地域支援センターまるやま",
        "住所": "香川県観音寺市流岡町750-1",
        "指定緊急避難場所との住所同一": "",
        "その他市町村長が必要と認める事項": null,
        "受入対象者": null,
        "備考": ""
      }
    },
    {
      "type": "Feature",
      "geometry": {
        "type": "Point",
        "coordinates": [
          133.677869,
          34.135358
        ]
      },
      "properties": {
        "NO": 66654,
        "共通ID": "E3720500092111",
        "都道府県名及び市町村名": "香川県観音寺市",
        "施設・場所名": "流岡公民館",
        "住所": "香川県観音寺市流岡町820-1",
        "指定緊急避難場所との住所同一": "",
        "その他市町村長が必要と認める事項": null,
        "受入対象者": null,
        "備考": ""
      }
    },
    {
      "type": "Feature",
      "geometry": {
        "type": "Point",
        "coordinates": [
          133.660277,
          34.109442
        ]
      },
      "properties": {
        "NO": 66655,
        "共通ID": "E3720500093111",
        "都道府県名及び市町村名": "香川県観音寺市",
        "施設・場所名": "柞田小学校（体育館）",
        "住所": "香川県観音寺市柞田町乙1000-1",
        "指定緊急避難場所との住所同一": "1",
        "その他市町村長が必要と認める事項": null,
        "受入対象者": null,
        "備考": ""
      }
    },
    {
      "type": "Feature",
      "geometry": {
        "type": "Point",
        "coordinates": [
          133.665246,
          34.119572
        ]
      },
      "properties": {
        "NO": 66656,
        "共通ID": "E3720500094111",
        "都道府県名及び市町村名": "香川県観音寺市",
        "施設・場所名": "中部中学校（武道場）",
        "住所": "香川県観音寺市柞田町甲1237",
        "指定緊急避難場所との住所同一": "1",
        "その他市町村長が必要と認める事項": null,
        "受入対象者": null,
        "備考": ""
      }
    },
    {
      "type": "Feature",
      "geometry": {
        "type": "Point",
        "coordinates": [
          133.665866,
          34.119227
        ]
      },
      "properties": {
        "NO": 66657,
        "共通ID": "E3720500094112",
        "都道府県名及び市町村名": "香川県観音寺市",
        "施設・場所名": "中部中学校（体育館）",
        "住所": "香川県観音寺市柞田町甲1237",
        "指定緊急避難場所との住所同一": "1",
        "その他市町村長が必要と認める事項": null,
        "受入対象者": null,
        "備考": ""
      }
    },
    {
      "type": "Feature",
      "geometry": {
        "type": "Point",
        "coordinates": [
          133.660067,
          34.11829
        ]
      },
      "properties": {
        "NO": 66658,
        "共通ID": "E3720500095121",
        "都道府県名及び市町村名": "香川県観音寺市",
        "施設・場所名": "特別養護老人ホーム楽陽荘",
        "住所": "香川県観音寺市柞田町甲1936",
        "指定緊急避難場所との住所同一": "",
        "その他市町村長が必要と認める事項": null,
        "受入対象者": null,
        "備考": ""
      }
    },
    {
      "type": "Feature",
      "geometry": {
        "type": "Point",
        "coordinates": [
          133.66579,
          34.105102
        ]
      },
      "properties": {
        "NO": 66659,
        "共通ID": "E3720500096121",
        "都道府県名及び市町村名": "香川県観音寺市",
        "施設・場所名": "就労継続支援Ａ型・短期入所施設リール",
        "住所": "香川県観音寺市柞田町丙1060-1",
        "指定緊急避難場所との住所同一": "",
        "その他市町村長が必要と認める事項": null,
        "受入対象者": null,
        "備考": ""
      }
    },
    {
      "type": "Feature",
      "geometry": {
        "type": "Point",
        "coordinates": [
          133.660956,
          34.109109
        ]
      },
      "properties": {
        "NO": 66660,
        "共通ID": "E3720500097111",
        "都道府県名及び市町村名": "香川県観音寺市",
        "施設・場所名": "柞田公民館",
        "住所": "香川県観音寺市柞田町丙1537",
        "指定緊急避難場所との住所同一": "",
        "その他市町村長が必要と認める事項": null,
        "受入対象者": null,
        "備考": ""
      }
    },
    {
      "type": "Feature",
      "geometry": {
        "type": "Point",
        "coordinates": [
          133.66201,
          34.10853
        ]
      },
      "properties": {
        "NO": 66661,
        "共通ID": "E3720500098111",
        "都道府県名及び市町村名": "香川県観音寺市",
        "施設・場所名": "観音寺中央幼稚園",
        "住所": "香川県観音寺市柞田町丙1566",
        "指定緊急避難場所との住所同一": "1",
        "その他市町村長が必要と認める事項": null,
        "受入対象者": null,
        "備考": ""
      }
    },
    {
      "type": "Feature",
      "geometry": {
        "type": "Point",
        "coordinates": [
          133.736649,
          34.149938
        ]
      },
      "properties": {
        "NO": 66662,
        "共通ID": "E3720500099121",
        "都道府県名及び市町村名": "香川県観音寺市",
        "施設・場所名": "障害者支援施設高瀬荘",
        "住所": "香川県三豊市高瀬町佐股乙425-3",
        "指定緊急避難場所との住所同一": "",
        "その他市町村長が必要と認める事項": null,
        "受入対象者": null,
        "備考": ""
      }
    },
    {
      "type": "Feature",
      "geometry": {
        "type": "Point",
        "coordinates": [
          133.737827,
          34.149588
        ]
      },
      "properties": {
        "NO": 66663,
        "共通ID": "E3720500100121",
        "都道府県名及び市町村名": "香川県観音寺市",
        "施設・場所名": "障害者支援施設みとよ荘",
        "住所": "香川県三豊市高瀬町佐股乙443-1",
        "指定緊急避難場所との住所同一": "",
        "その他市町村長が必要と認める事項": null,
        "受入対象者": null,
        "備考": ""
      }
    },
    {
      "type": "Feature",
      "geometry": {
        "type": "Point",
        "coordinates": [
          133.720487,
          34.226401
        ]
      },
      "properties": {
        "NO": 66664,
        "共通ID": "E3720500101121",
        "都道府県名及び市町村名": "香川県観音寺市",
        "施設・場所名": "介護老人保健施設みの荘",
        "住所": "香川県三豊市三野町大見乙91-8",
        "指定緊急避難場所との住所同一": "",
        "その他市町村長が必要と認める事項": null,
        "受入対象者": null,
        "備考": ""
      }
    }
  ]
}