{
  "type": "FeatureCollection",
  "name": "373877",
  "features": [
    {
      "type": "Feature",
      "geometry": {
        "type": "Point",
        "coordinates": [
          133.905712,
          34.235337
        ]
      },
      "properties": {
        "NO": 66887,
        "共通ID": "E3738700001111",
        "都道府県名及び市町村名": "香川県綾川町",
        "施設・場所名": "羽床小学校",
        "住所": "香川県綾川町羽床下2256",
        "指定緊急避難場所との住所同一": "1",
        "その他市町村長が必要と認める事項": null,
        "受入対象者": null,
        "備考": ""
      }
    },
    {
      "type": "Feature",
      "geometry": {
        "type": "Point",
        "coordinates": [
          133.905718,
          34.234493
        ]
      },
      "properties": {
        "NO": 66888,
        "共通ID": "E3738700003111",
        "都道府県名及び市町村名": "香川県綾川町",
        "施設・場所名": "羽床公民館",
        "住所": "香川県綾川町羽床下2259-2",
        "指定緊急避難場所との住所同一": "1",
        "その他市町村長が必要と認める事項": null,
        "受入対象者": null,
        "備考": ""
      }
    },
    {
      "type": "Feature",
      "geometry": {
        "type": "Point",
        "coordinates": [
          133.929293,
          34.224924
        ]
      },
      "properties": {
        "NO": 66889,
        "共通ID": "E3738700005111",
        "都道府県名及び市町村名": "香川県綾川町",
        "施設・場所名": "羽床上体育館施設（旧羽床上小学校）",
        "住所": "香川県綾川町羽床上788-1",
        "指定緊急避難場所との住所同一": "1",
        "その他市町村長が必要と認める事項": "",
        "受入対象者": "",
        "備考": ""
      }
    },
    {
      "type": "Feature",
      "geometry": {
        "type": "Point",
        "coordinates": [
          133.929095,
          34.224181
        ]
      },
      "properties": {
        "NO": 66890,
        "共通ID": "E3738700006111",
        "都道府県名及び市町村名": "香川県綾川町",
        "施設・場所名": "羽床上公民館",
        "住所": "香川県綾川町羽床上797",
        "指定緊急避難場所との住所同一": "1",
        "その他市町村長が必要と認める事項": null,
        "受入対象者": null,
        "備考": ""
      }
    },
    {
      "type": "Feature",
      "geometry": {
        "type": "Point",
        "coordinates": [
          133.950117,
          34.22618
        ]
      },
      "properties": {
        "NO": 66891,
        "共通ID": "E3738700008111",
        "都道府県名及び市町村名": "香川県綾川町",
        "施設・場所名": "綾上農村環境改善センター",
        "住所": "香川県綾川町山田下3300",
        "指定緊急避難場所との住所同一": "1",
        "その他市町村長が必要と認める事項": null,
        "受入対象者": null,
        "備考": ""
      }
    },
    {
      "type": "Feature",
      "geometry": {
        "type": "Point",
        "coordinates": [
          133.94997,
          34.225203
        ]
      },
      "properties": {
        "NO": 66892,
        "共通ID": "E3738700009111",
        "都道府県名及び市町村名": "香川県綾川町",
        "施設・場所名": "国保総合保健施設いきいきセンター",
        "住所": "香川県綾川町山田下3352-1",
        "指定緊急避難場所との住所同一": "1",
        "その他市町村長が必要と認める事項": null,
        "受入対象者": null,
        "備考": ""
      }
    },
    {
      "type": "Feature",
      "geometry": {
        "type": "Point",
        "coordinates": [
          133.94923,
          34.217623
        ]
      },
      "properties": {
        "NO": 66893,
        "共通ID": "E3738700010111",
        "都道府県名及び市町村名": "香川県綾川町",
        "施設・場所名": "Ｂ＆Ｇ綾上海洋センター",
        "住所": "香川県綾川町山田下3694-1",
        "指定緊急避難場所との住所同一": "1",
        "その他市町村長が必要と認める事項": null,
        "受入対象者": null,
        "備考": ""
      }
    },
    {
      "type": "Feature",
      "geometry": {
        "type": "Point",
        "coordinates": [
          133.964324,
          34.221727
        ]
      },
      "properties": {
        "NO": 66894,
        "共通ID": "E3738700012111",
        "都道府県名及び市町村名": "香川県綾川町",
        "施設・場所名": "山田公民館",
        "住所": "香川県綾川町山田上甲1313-1",
        "指定緊急避難場所との住所同一": "1",
        "その他市町村長が必要と認める事項": null,
        "受入対象者": null,
        "備考": ""
      }
    },
    {
      "type": "Feature",
      "geometry": {
        "type": "Point",
        "coordinates": [
          133.969909,
          34.217849
        ]
      },
      "properties": {
        "NO": 66895,
        "共通ID": "E3738700014111",
        "都道府県名及び市町村名": "香川県綾川町",
        "施設・場所名": "綾上小学校",
        "住所": "香川県綾川町山田上甲1494-1",
        "指定緊急避難場所との住所同一": "1",
        "その他市町村長が必要と認める事項": null,
        "受入対象者": null,
        "備考": ""
      }
    },
    {
      "type": "Feature",
      "geometry": {
        "type": "Point",
        "coordinates": [
          133.951303,
          34.205276
        ]
      },
      "properties": {
        "NO": 66896,
        "共通ID": "E3738700015111",
        "都道府県名及び市町村名": "香川県綾川町",
        "施設・場所名": "西分公民館",
        "住所": "香川県綾川町西分1377",
        "指定緊急避難場所との住所同一": "1",
        "その他市町村長が必要と認める事項": null,
        "受入対象者": null,
        "備考": ""
      }
    },
    {
      "type": "Feature",
      "geometry": {
        "type": "Point",
        "coordinates": [
          133.922321,
          34.245474
        ]
      },
      "properties": {
        "NO": 66897,
        "共通ID": "E3738700018111",
        "都道府県名及び市町村名": "香川県綾川町",
        "施設・場所名": "滝宮小学校",
        "住所": "香川県綾川町滝宮1095-1",
        "指定緊急避難場所との住所同一": "1",
        "その他市町村長が必要と認める事項": null,
        "受入対象者": null,
        "備考": ""
      }
    },
    {
      "type": "Feature",
      "geometry": {
        "type": "Point",
        "coordinates": [
          133.921627,
          34.249992
        ]
      },
      "properties": {
        "NO": 66898,
        "共通ID": "E3738700021111",
        "都道府県名及び市町村名": "香川県綾川町",
        "施設・場所名": "滝宮公民館",
        "住所": "香川県綾川町滝宮297-6",
        "指定緊急避難場所との住所同一": "1",
        "その他市町村長が必要と認める事項": null,
        "受入対象者": null,
        "備考": ""
      }
    },
    {
      "type": "Feature",
      "geometry": {
        "type": "Point",
        "coordinates": [
          133.923207,
          34.249238
        ]
      },
      "properties": {
        "NO": 66899,
        "共通ID": "E3738700022111",
        "都道府県名及び市町村名": "香川県綾川町",
        "施設・場所名": "綾南農村環境改善センター",
        "住所": "香川県綾川町滝宮299",
        "指定緊急避難場所との住所同一": "1",
        "その他市町村長が必要と認める事項": null,
        "受入対象者": null,
        "備考": ""
      }
    },
    {
      "type": "Feature",
      "geometry": {
        "type": "Point",
        "coordinates": [
          133.943582,
          34.259412
        ]
      },
      "properties": {
        "NO": 66900,
        "共通ID": "E3738700025111",
        "都道府県名及び市町村名": "香川県綾川町",
        "施設・場所名": "国保総合保健施設えがお",
        "住所": "香川県綾川町陶1720-1",
        "指定緊急避難場所との住所同一": "1",
        "その他市町村長が必要と認める事項": null,
        "受入対象者": null,
        "備考": ""
      }
    },
    {
      "type": "Feature",
      "geometry": {
        "type": "Point",
        "coordinates": [
          133.950047,
          34.252819
        ]
      },
      "properties": {
        "NO": 66901,
        "共通ID": "E3738700028111",
        "都道府県名及び市町村名": "香川県綾川町",
        "施設・場所名": "陶公民館",
        "住所": "香川県綾川町陶5866-1",
        "指定緊急避難場所との住所同一": "1",
        "その他市町村長が必要と認める事項": null,
        "受入対象者": null,
        "備考": ""
      }
    },
    {
      "type": "Feature",
      "geometry": {
        "type": "Point",
        "coordinates": [
          133.951306,
          34.253422
        ]
      },
      "properties": {
        "NO": 66902,
        "共通ID": "E3738700029111",
        "都道府県名及び市町村名": "香川県綾川町",
        "施設・場所名": "陶小学校",
        "住所": "香川県綾川町陶5878-1",
        "指定緊急避難場所との住所同一": "1",
        "その他市町村長が必要と認める事項": null,
        "受入対象者": null,
        "備考": ""
      }
    },
    {
      "type": "Feature",
      "geometry": {
        "type": "Point",
        "coordinates": [
          133.979428,
          34.247002
        ]
      },
      "properties": {
        "NO": 66903,
        "共通ID": "E3738700030111",
        "都道府県名及び市町村名": "香川県綾川町",
        "施設・場所名": "昭和小学校",
        "住所": "香川県綾川町畑田2373-1",
        "指定緊急避難場所との住所同一": "1",
        "その他市町村長が必要と認める事項": null,
        "受入対象者": null,
        "備考": ""
      }
    },
    {
      "type": "Feature",
      "geometry": {
        "type": "Point",
        "coordinates": [
          133.978275,
          34.247154
        ]
      },
      "properties": {
        "NO": 66904,
        "共通ID": "E3738700031111",
        "都道府県名及び市町村名": "香川県綾川町",
        "施設・場所名": "昭和公民館",
        "住所": "香川県綾川町畑田2390-8",
        "指定緊急避難場所との住所同一": "1",
        "その他市町村長が必要と認める事項": null,
        "受入対象者": null,
        "備考": ""
      }
    },
    {
      "type": "Feature",
      "geometry": {
        "type": "Point",
        "coordinates": [
          133.994797,
          34.197098
        ]
      },
      "properties": {
        "NO": 66905,
        "共通ID": "E3738700035111",
        "都道府県名及び市町村名": "香川県綾川町",
        "施設・場所名": "枌所体育館施設（旧枌所小学校）",
        "住所": "香川県綾川町枌所西甲2060",
        "指定緊急避難場所との住所同一": "1",
        "その他市町村長が必要と認める事項": "",
        "受入対象者": "",
        "備考": ""
      }
    },
    {
      "type": "Feature",
      "geometry": {
        "type": "Point",
        "coordinates": [
          133.99511,
          34.197884
        ]
      },
      "properties": {
        "NO": 66906,
        "共通ID": "E3738700036111",
        "都道府県名及び市町村名": "香川県綾川町",
        "施設・場所名": "枌所公民館",
        "住所": "香川県綾川町枌所西甲2087-1",
        "指定緊急避難場所との住所同一": "1",
        "その他市町村長が必要と認める事項": null,
        "受入対象者": null,
        "備考": ""
      }
    }
  ]
}