{
  "type": "FeatureCollection",
  "name": "374041",
  "features": [
    {
      "type": "Feature",
      "geometry": {
        "type": "Point",
        "coordinates": [
          133.754678,
          34.272311
        ]
      },
      "properties": {
        "NO": 66925,
        "共通ID": "E3740400001111",
        "都道府県名及び市町村名": "香川県多度津町",
        "施設・場所名": "県立多度津高等学校",
        "住所": "香川県多度津町栄町1-1-82",
        "指定緊急避難場所との住所同一": "1",
        "その他市町村長が必要と認める事項": null,
        "受入対象者": null,
        "備考": ""
      }
    },
    {
      "type": "Feature",
      "geometry": {
        "type": "Point",
        "coordinates": [
          133.753737,
          34.271132
        ]
      },
      "properties": {
        "NO": 66926,
        "共通ID": "E3740400002111",
        "都道府県名及び市町村名": "香川県多度津町",
        "施設・場所名": "多度津小学校",
        "住所": "香川県多度津町栄町3-1-9",
        "指定緊急避難場所との住所同一": "1",
        "その他市町村長が必要と認める事項": null,
        "受入対象者": null,
        "備考": ""
      }
    },
    {
      "type": "Feature",
      "geometry": {
        "type": "Point",
        "coordinates": [
          133.731856,
          34.250534
        ]
      },
      "properties": {
        "NO": 66927,
        "共通ID": "E3740400003111",
        "都道府県名及び市町村名": "香川県多度津町",
        "施設・場所名": "白方小学校",
        "住所": "香川県多度津町奥白方1142",
        "指定緊急避難場所との住所同一": "1",
        "その他市町村長が必要と認める事項": null,
        "受入対象者": null,
        "備考": ""
      }
    },
    {
      "type": "Feature",
      "geometry": {
        "type": "Point",
        "coordinates": [
          133.765613,
          34.264148
        ]
      },
      "properties": {
        "NO": 66928,
        "共通ID": "E3740400005111",
        "都道府県名及び市町村名": "香川県多度津町",
        "施設・場所名": "豊原幼稚園",
        "住所": "香川県多度津町葛原835-1",
        "指定緊急避難場所との住所同一": "1",
        "その他市町村長が必要と認める事項": null,
        "受入対象者": null,
        "備考": ""
      }
    },
    {
      "type": "Feature",
      "geometry": {
        "type": "Point",
        "coordinates": [
          133.681574,
          34.310885
        ]
      },
      "properties": {
        "NO": 66929,
        "共通ID": "E3740400007111",
        "都道府県名及び市町村名": "香川県多度津町",
        "施設・場所名": "高見島研修センター（旧高見小学校）",
        "住所": "香川県多度津町高見1723",
        "指定緊急避難場所との住所同一": "1",
        "その他市町村長が必要と認める事項": null,
        "受入対象者": null,
        "備考": ""
      }
    },
    {
      "type": "Feature",
      "geometry": {
        "type": "Point",
        "coordinates": [
          133.621927,
          34.351885
        ]
      },
      "properties": {
        "NO": 66930,
        "共通ID": "E3740400010111",
        "都道府県名及び市町村名": "香川県多度津町",
        "施設・場所名": "佐柳いこいの家",
        "住所": "香川県多度津町佐柳2638-1",
        "指定緊急避難場所との住所同一": "1",
        "その他市町村長が必要と認める事項": null,
        "受入対象者": null,
        "備考": ""
      }
    },
    {
      "type": "Feature",
      "geometry": {
        "type": "Point",
        "coordinates": [
          133.628585,
          34.335419
        ]
      },
      "properties": {
        "NO": 66931,
        "共通ID": "E3740400012111",
        "都道府県名及び市町村名": "香川県多度津町",
        "施設・場所名": "佐柳本浦住民会館",
        "住所": "香川県多度津町佐柳846-7",
        "指定緊急避難場所との住所同一": "1",
        "その他市町村長が必要と認める事項": null,
        "受入対象者": null,
        "備考": ""
      }
    },
    {
      "type": "Feature",
      "geometry": {
        "type": "Point",
        "coordinates": [
          133.753312,
          34.252351
        ]
      },
      "properties": {
        "NO": 66932,
        "共通ID": "E3740400014111",
        "都道府県名及び市町村名": "香川県多度津町",
        "施設・場所名": "四箇小学校",
        "住所": "香川県多度津町三井433-1",
        "指定緊急避難場所との住所同一": "1",
        "その他市町村長が必要と認める事項": null,
        "受入対象者": null,
        "備考": ""
      }
    },
    {
      "type": "Feature",
      "geometry": {
        "type": "Point",
        "coordinates": [
          133.737987,
          34.265166
        ]
      },
      "properties": {
        "NO": 66933,
        "共通ID": "E3740400016111",
        "都道府県名及び市町村名": "香川県多度津町",
        "施設・場所名": "町民健康センター",
        "住所": "香川県多度津町西港町127-1",
        "指定緊急避難場所との住所同一": "1",
        "その他市町村長が必要と認める事項": null,
        "受入対象者": null,
        "備考": ""
      }
    },
    {
      "type": "Feature",
      "geometry": {
        "type": "Point",
        "coordinates": [
          133.737987,
          34.265166
        ]
      },
      "properties": {
        "NO": 66934,
        "共通ID": "E3740400016121",
        "都道府県名及び市町村名": "香川県多度津町",
        "施設・場所名": "町民健康センター",
        "住所": "香川県多度津町西港町127-1",
        "指定緊急避難場所との住所同一": "1",
        "その他市町村長が必要と認める事項": null,
        "受入対象者": null,
        "備考": ""
      }
    },
    {
      "type": "Feature",
      "geometry": {
        "type": "Point",
        "coordinates": [
          133.74522,
          34.266255
        ]
      },
      "properties": {
        "NO": 66935,
        "共通ID": "E3740400039111",
        "都道府県名及び市町村名": "香川県多度津町",
        "施設・場所名": "多度津町リサイクルプラザ",
        "住所": "香川県多度津町桃山13-1",
        "指定緊急避難場所との住所同一": "1",
        "その他市町村長が必要と認める事項": null,
        "受入対象者": null,
        "備考": ""
      }
    },
    {
      "type": "Feature",
      "geometry": {
        "type": "Point",
        "coordinates": [
          133.765333,
          34.266642
        ]
      },
      "properties": {
        "NO": 66936,
        "共通ID": "E3740400040111",
        "都道府県名及び市町村名": "香川県多度津町",
        "施設・場所名": "豊原小学校",
        "住所": "香川県多度津町南鴨704",
        "指定緊急避難場所との住所同一": "1",
        "その他市町村長が必要と認める事項": null,
        "受入対象者": null,
        "備考": ""
      }
    },
    {
      "type": "Feature",
      "geometry": {
        "type": "Point",
        "coordinates": [
          133.750724,
          34.263903
        ]
      },
      "properties": {
        "NO": 66937,
        "共通ID": "E3740400046111",
        "都道府県名及び市町村名": "香川県多度津町",
        "施設・場所名": "多度津中学校",
        "住所": "香川県多度津町本通2-11-55",
        "指定緊急避難場所との住所同一": "1",
        "その他市町村長が必要と認める事項": null,
        "受入対象者": null,
        "備考": ""
      }
    }
  ]
}