{
  "type": "FeatureCollection",
  "name": "393878",
  "features": [
    {
      "type": "Feature",
      "geometry": {
        "type": "Point",
        "coordinates": [
          133.109305,
          33.564704
        ]
      },
      "properties": {
        "NO": 70479,
        "共通ID": "E3938700001111",
        "都道府県名及び市町村名": "高知県仁淀川町",
        "施設・場所名": "下名野川地域集会所",
        "住所": "高知県仁淀川町下名野川368-4",
        "指定緊急避難場所との住所同一": "",
        "その他市町村長が必要と認める事項": null,
        "受入対象者": null,
        "備考": ""
      }
    },
    {
      "type": "Feature",
      "geometry": {
        "type": "Point",
        "coordinates": [
          133.183553,
          33.569543
        ]
      },
      "properties": {
        "NO": 70480,
        "共通ID": "E3938700002111",
        "都道府県名及び市町村名": "高知県仁淀川町",
        "施設・場所名": "加枝集会所",
        "住所": "高知県仁淀川町加枝1233",
        "指定緊急避難場所との住所同一": "1",
        "その他市町村長が必要と認める事項": null,
        "受入対象者": null,
        "備考": ""
      }
    },
    {
      "type": "Feature",
      "geometry": {
        "type": "Point",
        "coordinates": [
          133.163452,
          33.564558
        ]
      },
      "properties": {
        "NO": 70481,
        "共通ID": "E3938700003111",
        "都道府県名及び市町村名": "高知県仁淀川町",
        "施設・場所名": "久喜集会所",
        "住所": "高知県仁淀川町久喜2748-1",
        "指定緊急避難場所との住所同一": "1",
        "その他市町村長が必要と認める事項": null,
        "受入対象者": null,
        "備考": ""
      }
    },
    {
      "type": "Feature",
      "geometry": {
        "type": "Point",
        "coordinates": [
          133.11439,
          33.54228
        ]
      },
      "properties": {
        "NO": 70482,
        "共通ID": "E3938700004111",
        "都道府県名及び市町村名": "高知県仁淀川町",
        "施設・場所名": "秋葉の宿及び宿泊施設",
        "住所": "高知県仁淀川町高瀬3869",
        "指定緊急避難場所との住所同一": "",
        "その他市町村長が必要と認める事項": null,
        "受入対象者": null,
        "備考": ""
      }
    },
    {
      "type": "Feature",
      "geometry": {
        "type": "Point",
        "coordinates": [
          133.143112,
          33.605182
        ]
      },
      "properties": {
        "NO": 70483,
        "共通ID": "E3938700006111",
        "都道府県名及び市町村名": "高知県仁淀川町",
        "施設・場所名": "坂本地区多目的集会施設",
        "住所": "高知県仁淀川町坂本536-1",
        "指定緊急避難場所との住所同一": "",
        "その他市町村長が必要と認める事項": null,
        "受入対象者": null,
        "備考": ""
      }
    },
    {
      "type": "Feature",
      "geometry": {
        "type": "Point",
        "coordinates": [
          133.195637,
          33.577287
        ]
      },
      "properties": {
        "NO": 70484,
        "共通ID": "E3938700008111",
        "都道府県名及び市町村名": "高知県仁淀川町",
        "施設・場所名": "寺村地域集会所",
        "住所": "高知県仁淀川町寺村1240-2",
        "指定緊急避難場所との住所同一": "",
        "その他市町村長が必要と認める事項": null,
        "受入対象者": null,
        "備考": ""
      }
    },
    {
      "type": "Feature",
      "geometry": {
        "type": "Point",
        "coordinates": [
          133.194973,
          33.574488
        ]
      },
      "properties": {
        "NO": 70485,
        "共通ID": "E3938700009111",
        "都道府県名及び市町村名": "高知県仁淀川町",
        "施設・場所名": "寺村分団屯所",
        "住所": "高知県仁淀川町寺村1558-1",
        "指定緊急避難場所との住所同一": "",
        "その他市町村長が必要と認める事項": "",
        "受入対象者": "",
        "備考": ""
      }
    },
    {
      "type": "Feature",
      "geometry": {
        "type": "Point",
        "coordinates": [
          133.145912,
          33.59148
        ]
      },
      "properties": {
        "NO": 70486,
        "共通ID": "E3938700010111",
        "都道府県名及び市町村名": "高知県仁淀川町",
        "施設・場所名": "宗津集会所",
        "住所": "高知県仁淀川町宗津401-4",
        "指定緊急避難場所との住所同一": "",
        "その他市町村長が必要と認める事項": null,
        "受入対象者": null,
        "備考": ""
      }
    },
    {
      "type": "Feature",
      "geometry": {
        "type": "Point",
        "coordinates": [
          133.128996,
          33.536999
        ]
      },
      "properties": {
        "NO": 70487,
        "共通ID": "E3938700011111",
        "都道府県名及び市町村名": "高知県仁淀川町",
        "施設・場所名": "別府小学校及び体育館",
        "住所": "高知県仁淀川町森2457",
        "指定緊急避難場所との住所同一": "1",
        "その他市町村長が必要と認める事項": null,
        "受入対象者": null,
        "備考": ""
      }
    },
    {
      "type": "Feature",
      "geometry": {
        "type": "Point",
        "coordinates": [
          133.129991,
          33.535814
        ]
      },
      "properties": {
        "NO": 70488,
        "共通ID": "E3938700013111",
        "都道府県名及び市町村名": "高知県仁淀川町",
        "施設・場所名": "仁淀多目的研修集会施設",
        "住所": "高知県仁淀川町森2572-1",
        "指定緊急避難場所との住所同一": "",
        "その他市町村長が必要と認める事項": null,
        "受入対象者": null,
        "備考": ""
      }
    },
    {
      "type": "Feature",
      "geometry": {
        "type": "Point",
        "coordinates": [
          133.131254,
          33.536587
        ]
      },
      "properties": {
        "NO": 70489,
        "共通ID": "E3938700014111",
        "都道府県名及び市町村名": "高知県仁淀川町",
        "施設・場所名": "農業者トレーニングセンター",
        "住所": "高知県仁淀川町森4231",
        "指定緊急避難場所との住所同一": "",
        "その他市町村長が必要と認める事項": null,
        "受入対象者": null,
        "備考": ""
      }
    },
    {
      "type": "Feature",
      "geometry": {
        "type": "Point",
        "coordinates": [
          133.131909,
          33.536901
        ]
      },
      "properties": {
        "NO": 70490,
        "共通ID": "E3938700015111",
        "都道府県名及び市町村名": "高知県仁淀川町",
        "施設・場所名": "ふたば保育所",
        "住所": "高知県仁淀川町森4279-1",
        "指定緊急避難場所との住所同一": "",
        "その他市町村長が必要と認める事項": null,
        "受入対象者": null,
        "備考": ""
      }
    },
    {
      "type": "Feature",
      "geometry": {
        "type": "Point",
        "coordinates": [
          133.132036,
          33.537216
        ]
      },
      "properties": {
        "NO": 70491,
        "共通ID": "E3938700016121",
        "都道府県名及び市町村名": "高知県仁淀川町",
        "施設・場所名": "仁淀川町デイサービスセンター「ひなた荘」",
        "住所": "高知県仁淀川町森4287",
        "指定緊急避難場所との住所同一": "",
        "その他市町村長が必要と認める事項": null,
        "受入対象者": null,
        "備考": ""
      }
    },
    {
      "type": "Feature",
      "geometry": {
        "type": "Point",
        "coordinates": [
          133.104578,
          33.545997
        ]
      },
      "properties": {
        "NO": 70492,
        "共通ID": "E3938700017111",
        "都道府県名及び市町村名": "高知県仁淀川町",
        "施設・場所名": "森山地域集会所",
        "住所": "高知県仁淀川町森山201-2",
        "指定緊急避難場所との住所同一": "",
        "その他市町村長が必要と認める事項": null,
        "受入対象者": null,
        "備考": ""
      }
    },
    {
      "type": "Feature",
      "geometry": {
        "type": "Point",
        "coordinates": [
          133.165642,
          33.574797
        ]
      },
      "properties": {
        "NO": 70493,
        "共通ID": "E3938700019111",
        "都道府県名及び市町村名": "高知県仁淀川町",
        "施設・場所名": "川口地区集会所",
        "住所": "高知県仁淀川町川口25-1",
        "指定緊急避難場所との住所同一": "",
        "その他市町村長が必要と認める事項": null,
        "受入対象者": null,
        "備考": ""
      }
    },
    {
      "type": "Feature",
      "geometry": {
        "type": "Point",
        "coordinates": [
          133.128016,
          33.528276
        ]
      },
      "properties": {
        "NO": 70494,
        "共通ID": "E3938700021111",
        "都道府県名及び市町村名": "高知県仁淀川町",
        "施設・場所名": "仁淀中学校及び体育館",
        "住所": "高知県仁淀川町川渡214",
        "指定緊急避難場所との住所同一": "1",
        "その他市町村長が必要と認める事項": null,
        "受入対象者": null,
        "備考": ""
      }
    },
    {
      "type": "Feature",
      "geometry": {
        "type": "Point",
        "coordinates": [
          133.129661,
          33.528531
        ]
      },
      "properties": {
        "NO": 70495,
        "共通ID": "E3938700022111",
        "都道府県名及び市町村名": "高知県仁淀川町",
        "施設・場所名": "川渡コミュニティーセンター",
        "住所": "高知県仁淀川町川渡95",
        "指定緊急避難場所との住所同一": "",
        "その他市町村長が必要と認める事項": null,
        "受入対象者": null,
        "備考": ""
      }
    },
    {
      "type": "Feature",
      "geometry": {
        "type": "Point",
        "coordinates": [
          133.170288,
          33.575693
        ]
      },
      "properties": {
        "NO": 70496,
        "共通ID": "E3938700025111",
        "都道府県名及び市町村名": "高知県仁淀川町",
        "施設・場所名": "大崎地域集会所",
        "住所": "高知県仁淀川町大崎158",
        "指定緊急避難場所との住所同一": "",
        "その他市町村長が必要と認める事項": null,
        "受入対象者": null,
        "備考": ""
      }
    },
    {
      "type": "Feature",
      "geometry": {
        "type": "Point",
        "coordinates": [
          133.172798,
          33.575298
        ]
      },
      "properties": {
        "NO": 70497,
        "共通ID": "E3938700026121",
        "都道府県名及び市町村名": "高知県仁淀川町",
        "施設・場所名": "仁淀川町テイサービスセンター「とちの木園」",
        "住所": "高知県仁淀川町大崎264-8",
        "指定緊急避難場所との住所同一": "",
        "その他市町村長が必要と認める事項": null,
        "受入対象者": null,
        "備考": ""
      }
    },
    {
      "type": "Feature",
      "geometry": {
        "type": "Point",
        "coordinates": [
          133.170984,
          33.573269
        ]
      },
      "properties": {
        "NO": 70498,
        "共通ID": "E3938700027111",
        "都道府県名及び市町村名": "高知県仁淀川町",
        "施設・場所名": "旧吾川中学校体育館",
        "住所": "高知県仁淀川町大崎300",
        "指定緊急避難場所との住所同一": "1",
        "その他市町村長が必要と認める事項": null,
        "受入対象者": null,
        "備考": ""
      }
    },
    {
      "type": "Feature",
      "geometry": {
        "type": "Point",
        "coordinates": [
          133.103974,
          33.489146
        ]
      },
      "properties": {
        "NO": 70499,
        "共通ID": "E3938700029111",
        "都道府県名及び市町村名": "高知県仁淀川町",
        "施設・場所名": "泉川多目的集会施設",
        "住所": "高知県仁淀川町大植2988-2",
        "指定緊急避難場所との住所同一": "",
        "その他市町村長が必要と認める事項": null,
        "受入対象者": null,
        "備考": ""
      }
    },
    {
      "type": "Feature",
      "geometry": {
        "type": "Point",
        "coordinates": [
          133.162579,
          33.635065
        ]
      },
      "properties": {
        "NO": 70500,
        "共通ID": "E3938700030111",
        "都道府県名及び市町村名": "高知県仁淀川町",
        "施設・場所名": "大西地区多目的集会施設",
        "住所": "高知県仁淀川町大西784-1",
        "指定緊急避難場所との住所同一": "",
        "その他市町村長が必要と認める事項": null,
        "受入対象者": null,
        "備考": ""
      }
    },
    {
      "type": "Feature",
      "geometry": {
        "type": "Point",
        "coordinates": [
          133.12788,
          33.541752
        ]
      },
      "properties": {
        "NO": 70501,
        "共通ID": "E3938700031111",
        "都道府県名及び市町村名": "高知県仁淀川町",
        "施設・場所名": "大渡コミュニティセンター",
        "住所": "高知県仁淀川町大渡184-1",
        "指定緊急避難場所との住所同一": "",
        "その他市町村長が必要と認める事項": null,
        "受入対象者": null,
        "備考": ""
      }
    },
    {
      "type": "Feature",
      "geometry": {
        "type": "Point",
        "coordinates": [
          133.144444,
          33.647477
        ]
      },
      "properties": {
        "NO": 70502,
        "共通ID": "E3938700032111",
        "都道府県名及び市町村名": "高知県仁淀川町",
        "施設・場所名": "大野地区コミュニティセンター",
        "住所": "高知県仁淀川町大野685-1",
        "指定緊急避難場所との住所同一": "1",
        "その他市町村長が必要と認める事項": null,
        "受入対象者": null,
        "備考": ""
      }
    },
    {
      "type": "Feature",
      "geometry": {
        "type": "Point",
        "coordinates": [
          133.151955,
          33.604014
        ]
      },
      "properties": {
        "NO": 70503,
        "共通ID": "E3938700033111",
        "都道府県名及び市町村名": "高知県仁淀川町",
        "施設・場所名": "相ノ谷集会所",
        "住所": "高知県仁淀川町竹ノ谷543-2",
        "指定緊急避難場所との住所同一": "",
        "その他市町村長が必要と認める事項": null,
        "受入対象者": null,
        "備考": ""
      }
    },
    {
      "type": "Feature",
      "geometry": {
        "type": "Point",
        "coordinates": [
          133.16848,
          33.609092
        ]
      },
      "properties": {
        "NO": 70504,
        "共通ID": "E3938700035111",
        "都道府県名及び市町村名": "高知県仁淀川町",
        "施設・場所名": "池川中学校",
        "住所": "高知県仁淀川町竹ノ谷940",
        "指定緊急避難場所との住所同一": "",
        "その他市町村長が必要と認める事項": null,
        "受入対象者": null,
        "備考": ""
      }
    },
    {
      "type": "Feature",
      "geometry": {
        "type": "Point",
        "coordinates": [
          133.134284,
          33.501391
        ]
      },
      "properties": {
        "NO": 70505,
        "共通ID": "E3938700036111",
        "都道府県名及び市町村名": "高知県仁淀川町",
        "施設・場所名": "長者保育所",
        "住所": "高知県仁淀川町長者乙2502-2",
        "指定緊急避難場所との住所同一": "",
        "その他市町村長が必要と認める事項": "",
        "受入対象者": "",
        "備考": ""
      }
    },
    {
      "type": "Feature",
      "geometry": {
        "type": "Point",
        "coordinates": [
          133.134515,
          33.501158
        ]
      },
      "properties": {
        "NO": 70506,
        "共通ID": "E3938700037111",
        "都道府県名及び市町村名": "高知県仁淀川町",
        "施設・場所名": "長者複合集会施設",
        "住所": "高知県仁淀川町長者乙2502-4",
        "指定緊急避難場所との住所同一": "",
        "その他市町村長が必要と認める事項": "",
        "受入対象者": "",
        "備考": ""
      }
    },
    {
      "type": "Feature",
      "geometry": {
        "type": "Point",
        "coordinates": [
          133.133933,
          33.501896
        ]
      },
      "properties": {
        "NO": 70507,
        "共通ID": "E3938700038111",
        "都道府県名及び市町村名": "高知県仁淀川町",
        "施設・場所名": "長者小学校及び体育館",
        "住所": "高知県仁淀川町長者乙2506",
        "指定緊急避難場所との住所同一": "1",
        "その他市町村長が必要と認める事項": null,
        "受入対象者": null,
        "備考": ""
      }
    },
    {
      "type": "Feature",
      "geometry": {
        "type": "Point",
        "coordinates": [
          133.160003,
          33.590449
        ]
      },
      "properties": {
        "NO": 70508,
        "共通ID": "E3938700041111",
        "都道府県名及び市町村名": "高知県仁淀川町",
        "施設・場所名": "田村集会所",
        "住所": "高知県仁淀川町田村124",
        "指定緊急避難場所との住所同一": "",
        "その他市町村長が必要と認める事項": null,
        "受入対象者": null,
        "備考": ""
      }
    },
    {
      "type": "Feature",
      "geometry": {
        "type": "Point",
        "coordinates": [
          133.197451,
          33.64105
        ]
      },
      "properties": {
        "NO": 70509,
        "共通ID": "E3938700043111",
        "都道府県名及び市町村名": "高知県仁淀川町",
        "施設・場所名": "安居地区多目的集会施設",
        "住所": "高知県仁淀川町土居88-4",
        "指定緊急避難場所との住所同一": "",
        "その他市町村長が必要と認める事項": null,
        "受入対象者": null,
        "備考": ""
      }
    },
    {
      "type": "Feature",
      "geometry": {
        "type": "Point",
        "coordinates": [
          133.169094,
          33.608803
        ]
      },
      "properties": {
        "NO": 70510,
        "共通ID": "E3938700046111",
        "都道府県名及び市町村名": "高知県仁淀川町",
        "施設・場所名": "池川体育館",
        "住所": "高知県仁淀川町土居甲839",
        "指定緊急避難場所との住所同一": "",
        "その他市町村長が必要と認める事項": null,
        "受入対象者": null,
        "備考": ""
      }
    },
    {
      "type": "Feature",
      "geometry": {
        "type": "Point",
        "coordinates": [
          133.169703,
          33.608042
        ]
      },
      "properties": {
        "NO": 70511,
        "共通ID": "E3938700048111",
        "都道府県名及び市町村名": "高知県仁淀川町",
        "施設・場所名": "池川コミュニティセンター",
        "住所": "高知県仁淀川町土居甲916-3",
        "指定緊急避難場所との住所同一": "",
        "その他市町村長が必要と認める事項": null,
        "受入対象者": null,
        "備考": ""
      }
    },
    {
      "type": "Feature",
      "geometry": {
        "type": "Point",
        "coordinates": [
          133.170182,
          33.608206
        ]
      },
      "properties": {
        "NO": 70512,
        "共通ID": "E3938700049121",
        "都道府県名及び市町村名": "高知県仁淀川町",
        "施設・場所名": "仁淀川町テイサービスセンター「池川」",
        "住所": "高知県仁淀川町土居甲921-1",
        "指定緊急避難場所との住所同一": "",
        "その他市町村長が必要と認める事項": null,
        "受入対象者": null,
        "備考": ""
      }
    },
    {
      "type": "Feature",
      "geometry": {
        "type": "Point",
        "coordinates": [
          133.195743,
          33.61356
        ]
      },
      "properties": {
        "NO": 70513,
        "共通ID": "E3938700061111",
        "都道府県名及び市町村名": "高知県仁淀川町",
        "施設・場所名": "高齢者向住宅月美荘",
        "住所": "高知県仁淀川町日浦185-1",
        "指定緊急避難場所との住所同一": "",
        "その他市町村長が必要と認める事項": "",
        "受入対象者": "",
        "備考": ""
      }
    },
    {
      "type": "Feature",
      "geometry": {
        "type": "Point",
        "coordinates": [
          133.195965,
          33.61347
        ]
      },
      "properties": {
        "NO": 70514,
        "共通ID": "E3938700051111",
        "都道府県名及び市町村名": "高知県仁淀川町",
        "施設・場所名": "狩山地区多目的集会施設",
        "住所": "高知県仁淀川町日浦187-2",
        "指定緊急避難場所との住所同一": "",
        "その他市町村長が必要と認める事項": null,
        "受入対象者": null,
        "備考": ""
      }
    },
    {
      "type": "Feature",
      "geometry": {
        "type": "Point",
        "coordinates": [
          133.053134,
          33.513845
        ]
      },
      "properties": {
        "NO": 70515,
        "共通ID": "E3938700052111",
        "都道府県名及び市町村名": "高知県仁淀川町",
        "施設・場所名": "別枝上区多目的集会施設",
        "住所": "高知県仁淀川町別枝1771",
        "指定緊急避難場所との住所同一": "",
        "その他市町村長が必要と認める事項": null,
        "受入対象者": null,
        "備考": ""
      }
    },
    {
      "type": "Feature",
      "geometry": {
        "type": "Point",
        "coordinates": [
          133.076456,
          33.538149
        ]
      },
      "properties": {
        "NO": 70516,
        "共通ID": "E3938700054111",
        "都道府県名及び市町村名": "高知県仁淀川町",
        "施設・場所名": "沢渡多目的集会施設",
        "住所": "高知県仁淀川町別枝2504-14",
        "指定緊急避難場所との住所同一": "1",
        "その他市町村長が必要と認める事項": "",
        "受入対象者": "",
        "備考": ""
      }
    },
    {
      "type": "Feature",
      "geometry": {
        "type": "Point",
        "coordinates": [
          133.13234,
          33.558079
        ]
      },
      "properties": {
        "NO": 70517,
        "共通ID": "E3938700062111",
        "都道府県名及び市町村名": "高知県仁淀川町",
        "施設・場所名": "名野川自然環境活用センター",
        "住所": "高知県仁淀川町名野川440",
        "指定緊急避難場所との住所同一": "",
        "その他市町村長が必要と認める事項": "",
        "受入対象者": "",
        "備考": ""
      }
    },
    {
      "type": "Feature",
      "geometry": {
        "type": "Point",
        "coordinates": [
          133.131558,
          33.560698
        ]
      },
      "properties": {
        "NO": 70518,
        "共通ID": "E3938700057111",
        "都道府県名及び市町村名": "高知県仁淀川町",
        "施設・場所名": "旧名野川小学校及び体育館",
        "住所": "高知県仁淀川町名野川450",
        "指定緊急避難場所との住所同一": "",
        "その他市町村長が必要と認める事項": null,
        "受入対象者": null,
        "備考": ""
      }
    },
    {
      "type": "Feature",
      "geometry": {
        "type": "Point",
        "coordinates": [
          133.126535,
          33.640074
        ]
      },
      "properties": {
        "NO": 70519,
        "共通ID": "E3938700059111",
        "都道府県名及び市町村名": "高知県仁淀川町",
        "施設・場所名": "高齢者総合福祉施設「用居集いの館」",
        "住所": "高知県仁淀川町用居甲361-1",
        "指定緊急避難場所との住所同一": "1",
        "その他市町村長が必要と認める事項": null,
        "受入対象者": null,
        "備考": ""
      }
    }
  ]
}