{
  "type": "FeatureCollection",
  "name": "394033",
  "features": [
    {
      "type": "Feature",
      "geometry": {
        "type": "Point",
        "coordinates": [
          133.25303,
          33.530748
        ]
      },
      "properties": {
        "NO": 70594,
        "共通ID": "E3940300003121",
        "都道府県名及び市町村名": "高知県越知町",
        "施設・場所名": "老人保健施設　ライブリーハウス輝",
        "住所": "高知県越知町越知甲1667-3",
        "指定緊急避難場所との住所同一": "",
        "その他市町村長が必要と認める事項": null,
        "受入対象者": "高齢者（要介護認定者）、身体障害者（児）、難病患者（内部障害など）",
        "備考": ""
      }
    },
    {
      "type": "Feature",
      "geometry": {
        "type": "Point",
        "coordinates": [
          133.252296,
          33.534386
        ]
      },
      "properties": {
        "NO": 70595,
        "共通ID": "E3940300004111",
        "都道府県名及び市町村名": "高知県越知町",
        "施設・場所名": "越知中学校",
        "住所": "高知県越知町越知甲1915",
        "指定緊急避難場所との住所同一": "",
        "その他市町村長が必要と認める事項": "",
        "受入対象者": "",
        "備考": ""
      }
    },
    {
      "type": "Feature",
      "geometry": {
        "type": "Point",
        "coordinates": [
          133.252393,
          33.533461
        ]
      },
      "properties": {
        "NO": 70596,
        "共通ID": "E3940300005111",
        "都道府県名及び市町村名": "高知県越知町",
        "施設・場所名": "越知小学校",
        "住所": "高知県越知町越知甲1963-1",
        "指定緊急避難場所との住所同一": "1",
        "その他市町村長が必要と認める事項": null,
        "受入対象者": null,
        "備考": ""
      }
    },
    {
      "type": "Feature",
      "geometry": {
        "type": "Point",
        "coordinates": [
          133.252986,
          33.526644
        ]
      },
      "properties": {
        "NO": 70597,
        "共通ID": "E3940300009111",
        "都道府県名及び市町村名": "高知県越知町",
        "施設・場所名": "越知町民会館",
        "住所": "高知県越知町越知甲2562",
        "指定緊急避難場所との住所同一": "",
        "その他市町村長が必要と認める事項": "",
        "受入対象者": "",
        "備考": ""
      }
    },
    {
      "type": "Feature",
      "geometry": {
        "type": "Point",
        "coordinates": [
          133.257777,
          33.533211
        ]
      },
      "properties": {
        "NO": 70598,
        "共通ID": "E3940300011121",
        "都道府県名及び市町村名": "高知県越知町",
        "施設・場所名": "デイサービスセンター　コスモス荘",
        "住所": "高知県越知町越知甲918-1",
        "指定緊急避難場所との住所同一": "",
        "その他市町村長が必要と認める事項": null,
        "受入対象者": "精神障害者（児）、知的障害者（児）、幼児（未就学児）、難病患者（内部障害など）、発達障害者（児）、妊産婦（乳児含む）",
        "備考": ""
      }
    },
    {
      "type": "Feature",
      "geometry": {
        "type": "Point",
        "coordinates": [
          133.258401,
          33.532815
        ]
      },
      "properties": {
        "NO": 70599,
        "共通ID": "E3940300012121",
        "都道府県名及び市町村名": "高知県越知町",
        "施設・場所名": "特別養護老人ホーム五葉荘",
        "住所": "高知県越知町越知甲946",
        "指定緊急避難場所との住所同一": "",
        "その他市町村長が必要と認める事項": null,
        "受入対象者": "高齢者（要介護認定者）、身体障害者（児）",
        "備考": ""
      }
    },
    {
      "type": "Feature",
      "geometry": {
        "type": "Point",
        "coordinates": [
          133.227934,
          33.56621
        ]
      },
      "properties": {
        "NO": 70600,
        "共通ID": "E3940300017111",
        "都道府県名及び市町村名": "高知県越知町",
        "施設・場所名": "横畠西部集落活動センター",
        "住所": "高知県越知町横畠中1847",
        "指定緊急避難場所との住所同一": "1",
        "その他市町村長が必要と認める事項": "",
        "受入対象者": "",
        "備考": ""
      }
    },
    {
      "type": "Feature",
      "geometry": {
        "type": "Point",
        "coordinates": [
          133.251953,
          33.570229
        ]
      },
      "properties": {
        "NO": 70601,
        "共通ID": "E3940300034111",
        "都道府県名及び市町村名": "高知県越知町",
        "施設・場所名": "明治西部公民館",
        "住所": "高知県越知町鎌井田本村8720-1",
        "指定緊急避難場所との住所同一": "1",
        "その他市町村長が必要と認める事項": "",
        "受入対象者": "",
        "備考": ""
      }
    },
    {
      "type": "Feature",
      "geometry": {
        "type": "Point",
        "coordinates": [
          133.16577,
          33.506407
        ]
      },
      "properties": {
        "NO": 70602,
        "共通ID": "E3940300040111",
        "都道府県名及び市町村名": "高知県越知町",
        "施設・場所名": "桐見川公民館",
        "住所": "高知県越知町桐見川866",
        "指定緊急避難場所との住所同一": "1",
        "その他市町村長が必要と認める事項": "",
        "受入対象者": "",
        "備考": ""
      }
    },
    {
      "type": "Feature",
      "geometry": {
        "type": "Point",
        "coordinates": [
          133.285079,
          33.572725
        ]
      },
      "properties": {
        "NO": 70603,
        "共通ID": "E3940300057111",
        "都道府県名及び市町村名": "高知県越知町",
        "施設・場所名": "明治東部公民館",
        "住所": "高知県越知町片岡1217",
        "指定緊急避難場所との住所同一": "1",
        "その他市町村長が必要と認める事項": null,
        "受入対象者": null,
        "備考": ""
      }
    },
    {
      "type": "Feature",
      "geometry": {
        "type": "Point",
        "coordinates": [
          133.209403,
          33.55991
        ]
      },
      "properties": {
        "NO": 70604,
        "共通ID": "E3940300061111",
        "都道府県名及び市町村名": "高知県越知町",
        "施設・場所名": "野老山公民館",
        "住所": "高知県越知町野老山2033",
        "指定緊急避難場所との住所同一": "1",
        "その他市町村長が必要と認める事項": null,
        "受入対象者": null,
        "備考": ""
      }
    }
  ]
}