{
  "type": "FeatureCollection",
  "name": "401307",
  "features": [
    {
      "type": "Feature",
      "geometry": {
        "type": "Point",
        "coordinates": [
          130.358503,
          33.55461
        ]
      },
      "properties": {
        "NO": 71519,
        "共通ID": "E4013000001111",
        "都道府県名及び市町村名": "福岡県福岡市",
        "施設・場所名": "福岡市立七隈小学校",
        "住所": "福岡県福岡市城南区七隈4-25-8",
        "指定緊急避難場所との住所同一": "1",
        "その他市町村長が必要と認める事項": null,
        "受入対象者": null,
        "備考": ""
      }
    },
    {
      "type": "Feature",
      "geometry": {
        "type": "Point",
        "coordinates": [
          130.359447,
          33.55443
        ]
      },
      "properties": {
        "NO": 71520,
        "共通ID": "E4013000002111",
        "都道府県名及び市町村名": "福岡県福岡市",
        "施設・場所名": "福岡市七隈公民館",
        "住所": "福岡県福岡市城南区七隈4-26-38",
        "指定緊急避難場所との住所同一": "1",
        "その他市町村長が必要と認める事項": null,
        "受入対象者": null,
        "備考": ""
      }
    },
    {
      "type": "Feature",
      "geometry": {
        "type": "Point",
        "coordinates": [
          130.367728,
          33.556593
        ]
      },
      "properties": {
        "NO": 71521,
        "共通ID": "E4013000006111",
        "都道府県名及び市町村名": "福岡県福岡市",
        "施設・場所名": "福岡市立金山小学校",
        "住所": "福岡県福岡市城南区松山1-20-56",
        "指定緊急避難場所との住所同一": "1",
        "その他市町村長が必要と認める事項": null,
        "受入対象者": null,
        "備考": ""
      }
    },
    {
      "type": "Feature",
      "geometry": {
        "type": "Point",
        "coordinates": [
          130.360074,
          33.569341
        ]
      },
      "properties": {
        "NO": 71522,
        "共通ID": "E4013000008111",
        "都道府県名及び市町村名": "福岡県福岡市",
        "施設・場所名": "福岡市立城南中学校",
        "住所": "福岡県福岡市城南区茶山6-19-1",
        "指定緊急避難場所との住所同一": "1",
        "その他市町村長が必要と認める事項": null,
        "受入対象者": null,
        "備考": ""
      }
    },
    {
      "type": "Feature",
      "geometry": {
        "type": "Point",
        "coordinates": [
          130.361363,
          33.567538
        ]
      },
      "properties": {
        "NO": 71523,
        "共通ID": "E4013000009111",
        "都道府県名及び市町村名": "福岡県福岡市",
        "施設・場所名": "福岡市立城南小学校",
        "住所": "福岡県福岡市城南区茶山6-20-1",
        "指定緊急避難場所との住所同一": "1",
        "その他市町村長が必要と認める事項": null,
        "受入対象者": null,
        "備考": ""
      }
    },
    {
      "type": "Feature",
      "geometry": {
        "type": "Point",
        "coordinates": [
          130.361615,
          33.565763
        ]
      },
      "properties": {
        "NO": 71524,
        "共通ID": "E4013000010111",
        "都道府県名及び市町村名": "福岡県福岡市",
        "施設・場所名": "城南高等学校体育館",
        "住所": "福岡県福岡市城南区茶山6-21-1",
        "指定緊急避難場所との住所同一": "1",
        "その他市町村長が必要と認める事項": null,
        "受入対象者": null,
        "備考": ""
      }
    },
    {
      "type": "Feature",
      "geometry": {
        "type": "Point",
        "coordinates": [
          130.361061,
          33.567162
        ]
      },
      "properties": {
        "NO": 71525,
        "共通ID": "E4013000011111",
        "都道府県名及び市町村名": "福岡県福岡市",
        "施設・場所名": "福岡市城南公民館",
        "住所": "福岡県福岡市城南区茶山6-21-5",
        "指定緊急避難場所との住所同一": "1",
        "その他市町村長が必要と認める事項": null,
        "受入対象者": null,
        "備考": ""
      }
    },
    {
      "type": "Feature",
      "geometry": {
        "type": "Point",
        "coordinates": [
          130.381712,
          33.557849
        ]
      },
      "properties": {
        "NO": 71526,
        "共通ID": "E4013000012111",
        "都道府県名及び市町村名": "福岡県福岡市",
        "施設・場所名": "福岡市長尾公民館",
        "住所": "福岡県福岡市城南区長尾1-3-14",
        "指定緊急避難場所との住所同一": "1",
        "その他市町村長が必要と認める事項": null,
        "受入対象者": null,
        "備考": ""
      }
    },
    {
      "type": "Feature",
      "geometry": {
        "type": "Point",
        "coordinates": [
          130.381265,
          33.55732
        ]
      },
      "properties": {
        "NO": 71527,
        "共通ID": "E4013000014111",
        "都道府県名及び市町村名": "福岡県福岡市",
        "施設・場所名": "福岡市立長尾小学校",
        "住所": "福岡県福岡市城南区長尾5-1-1",
        "指定緊急避難場所との住所同一": "1",
        "その他市町村長が必要と認める事項": null,
        "受入対象者": null,
        "備考": ""
      }
    },
    {
      "type": "Feature",
      "geometry": {
        "type": "Point",
        "coordinates": [
          130.366407,
          33.578818
        ]
      },
      "properties": {
        "NO": 71528,
        "共通ID": "E4013000015111",
        "都道府県名及び市町村名": "福岡県福岡市",
        "施設・場所名": "福岡市鳥飼公民館",
        "住所": "福岡県福岡市城南区鳥飼4-13-1",
        "指定緊急避難場所との住所同一": "1",
        "その他市町村長が必要と認める事項": null,
        "受入対象者": null,
        "備考": ""
      }
    },
    {
      "type": "Feature",
      "geometry": {
        "type": "Point",
        "coordinates": [
          130.365773,
          33.579727
        ]
      },
      "properties": {
        "NO": 71529,
        "共通ID": "E4013000016111",
        "都道府県名及び市町村名": "福岡県福岡市",
        "施設・場所名": "福岡市立鳥飼小学校",
        "住所": "福岡県福岡市城南区鳥飼4-13-2",
        "指定緊急避難場所との住所同一": "1",
        "その他市町村長が必要と認める事項": null,
        "受入対象者": null,
        "備考": ""
      }
    },
    {
      "type": "Feature",
      "geometry": {
        "type": "Point",
        "coordinates": [
          130.366921,
          33.576922
        ]
      },
      "properties": {
        "NO": 71530,
        "共通ID": "E4013000017111",
        "都道府県名及び市町村名": "福岡県福岡市",
        "施設・場所名": "福岡市立城西中学校",
        "住所": "福岡県福岡市城南区鳥飼6-4-1",
        "指定緊急避難場所との住所同一": "1",
        "その他市町村長が必要と認める事項": null,
        "受入対象者": null,
        "備考": ""
      }
    },
    {
      "type": "Feature",
      "geometry": {
        "type": "Point",
        "coordinates": [
          130.379393,
          33.54561
        ]
      },
      "properties": {
        "NO": 71531,
        "共通ID": "E4013000019111",
        "都道府県名及び市町村名": "福岡県福岡市",
        "施設・場所名": "福岡市立堤丘小学校",
        "住所": "福岡県福岡市城南区堤1-16-1",
        "指定緊急避難場所との住所同一": "1",
        "その他市町村長が必要と認める事項": null,
        "受入対象者": null,
        "備考": ""
      }
    },
    {
      "type": "Feature",
      "geometry": {
        "type": "Point",
        "coordinates": [
          130.380138,
          33.547254
        ]
      },
      "properties": {
        "NO": 71532,
        "共通ID": "E4013000020111",
        "都道府県名及び市町村名": "福岡県福岡市",
        "施設・場所名": "福岡市堤丘公民館",
        "住所": "福岡県福岡市城南区堤1-20-2",
        "指定緊急避難場所との住所同一": "1",
        "その他市町村長が必要と認める事項": null,
        "受入対象者": null,
        "備考": ""
      }
    },
    {
      "type": "Feature",
      "geometry": {
        "type": "Point",
        "coordinates": [
          130.36863,
          33.564662
        ]
      },
      "properties": {
        "NO": 71533,
        "共通ID": "E4013000021111",
        "都道府県名及び市町村名": "福岡県福岡市",
        "施設・場所名": "福岡市立田島小学校",
        "住所": "福岡県福岡市城南区田島3-20-1",
        "指定緊急避難場所との住所同一": "1",
        "その他市町村長が必要と認める事項": null,
        "受入対象者": null,
        "備考": ""
      }
    },
    {
      "type": "Feature",
      "geometry": {
        "type": "Point",
        "coordinates": [
          130.369549,
          33.56634
        ]
      },
      "properties": {
        "NO": 71534,
        "共通ID": "E4013000022111",
        "都道府県名及び市町村名": "福岡県福岡市",
        "施設・場所名": "福岡市田島公民館",
        "住所": "福岡県福岡市城南区田島3-7-29",
        "指定緊急避難場所との住所同一": "1",
        "その他市町村長が必要と認める事項": null,
        "受入対象者": null,
        "備考": ""
      }
    },
    {
      "type": "Feature",
      "geometry": {
        "type": "Point",
        "coordinates": [
          130.375739,
          33.532268
        ]
      },
      "properties": {
        "NO": 71535,
        "共通ID": "E4013000024111",
        "都道府県名及び市町村名": "福岡県福岡市",
        "施設・場所名": "福岡市立博多工業高等学校",
        "住所": "福岡県福岡市城南区東油山4-20-1",
        "指定緊急避難場所との住所同一": "1",
        "その他市町村長が必要と認める事項": null,
        "受入対象者": null,
        "備考": ""
      }
    },
    {
      "type": "Feature",
      "geometry": {
        "type": "Point",
        "coordinates": [
          130.374965,
          33.541618
        ]
      },
      "properties": {
        "NO": 71536,
        "共通ID": "E4013000026111",
        "都道府県名及び市町村名": "福岡県福岡市",
        "施設・場所名": "福岡市南片江公民館",
        "住所": "福岡県福岡市城南区南片江1-24-21",
        "指定緊急避難場所との住所同一": "1",
        "その他市町村長が必要と認める事項": null,
        "受入対象者": null,
        "備考": ""
      }
    },
    {
      "type": "Feature",
      "geometry": {
        "type": "Point",
        "coordinates": [
          130.374575,
          33.543959
        ]
      },
      "properties": {
        "NO": 71537,
        "共通ID": "E4013000027111",
        "都道府県名及び市町村名": "福岡県福岡市",
        "施設・場所名": "福岡市立南片江小学校",
        "住所": "福岡県福岡市城南区南片江2-9-1",
        "指定緊急避難場所との住所同一": "1",
        "その他市町村長が必要と認める事項": null,
        "受入対象者": null,
        "備考": ""
      }
    },
    {
      "type": "Feature",
      "geometry": {
        "type": "Point",
        "coordinates": [
          130.368883,
          33.541675
        ]
      },
      "properties": {
        "NO": 71538,
        "共通ID": "E4013000029111",
        "都道府県名及び市町村名": "福岡県福岡市",
        "施設・場所名": "福岡市立片江中学校",
        "住所": "福岡県福岡市城南区南片江6-27-1",
        "指定緊急避難場所との住所同一": "1",
        "その他市町村長が必要と認める事項": null,
        "受入対象者": null,
        "備考": ""
      }
    },
    {
      "type": "Feature",
      "geometry": {
        "type": "Point",
        "coordinates": [
          130.355697,
          33.547296
        ]
      },
      "properties": {
        "NO": 71539,
        "共通ID": "E4013000030111",
        "都道府県名及び市町村名": "福岡県福岡市",
        "施設・場所名": "福岡市立梅林中学校",
        "住所": "福岡県福岡市城南区梅林3-6-1",
        "指定緊急避難場所との住所同一": "1",
        "その他市町村長が必要と認める事項": null,
        "受入対象者": null,
        "備考": ""
      }
    },
    {
      "type": "Feature",
      "geometry": {
        "type": "Point",
        "coordinates": [
          130.385768,
          33.54888
        ]
      },
      "properties": {
        "NO": 71540,
        "共通ID": "E4013000032111",
        "都道府県名及び市町村名": "福岡県福岡市",
        "施設・場所名": "福岡市立長尾中学校",
        "住所": "福岡県福岡市城南区樋井川4-13-1",
        "指定緊急避難場所との住所同一": "1",
        "その他市町村長が必要と認める事項": null,
        "受入対象者": null,
        "備考": ""
      }
    },
    {
      "type": "Feature",
      "geometry": {
        "type": "Point",
        "coordinates": [
          130.384382,
          33.541766
        ]
      },
      "properties": {
        "NO": 71541,
        "共通ID": "E4013000033111",
        "都道府県名及び市町村名": "福岡県福岡市",
        "施設・場所名": "福岡市立堤小学校",
        "住所": "福岡県福岡市城南区樋井川6-27-56",
        "指定緊急避難場所との住所同一": "1",
        "その他市町村長が必要と認める事項": null,
        "受入対象者": null,
        "備考": ""
      }
    },
    {
      "type": "Feature",
      "geometry": {
        "type": "Point",
        "coordinates": [
          130.383338,
          33.539031
        ]
      },
      "properties": {
        "NO": 71542,
        "共通ID": "E4013000034111",
        "都道府県名及び市町村名": "福岡県福岡市",
        "施設・場所名": "福岡市堤公民館",
        "住所": "福岡県福岡市城南区樋井川7-21-1",
        "指定緊急避難場所との住所同一": "1",
        "その他市町村長が必要と認める事項": null,
        "受入対象者": null,
        "備考": ""
      }
    },
    {
      "type": "Feature",
      "geometry": {
        "type": "Point",
        "coordinates": [
          130.371425,
          33.573347
        ]
      },
      "properties": {
        "NO": 71543,
        "共通ID": "E4013000035111",
        "都道府県名及び市町村名": "福岡県福岡市",
        "施設・場所名": "福岡市別府公民館",
        "住所": "福岡県福岡市城南区別府1-15-19",
        "指定緊急避難場所との住所同一": "1",
        "その他市町村長が必要と認める事項": null,
        "受入対象者": null,
        "備考": ""
      }
    },
    {
      "type": "Feature",
      "geometry": {
        "type": "Point",
        "coordinates": [
          130.364971,
          33.567051
        ]
      },
      "properties": {
        "NO": 71544,
        "共通ID": "E4013000038111",
        "都道府県名及び市町村名": "福岡県福岡市",
        "施設・場所名": "福岡市立城南体育館",
        "住所": "福岡県福岡市城南区別府6-14-22",
        "指定緊急避難場所との住所同一": "1",
        "その他市町村長が必要と認める事項": null,
        "受入対象者": null,
        "備考": ""
      }
    },
    {
      "type": "Feature",
      "geometry": {
        "type": "Point",
        "coordinates": [
          130.366505,
          33.569766
        ]
      },
      "properties": {
        "NO": 71545,
        "共通ID": "E4013000039111",
        "都道府県名及び市町村名": "福岡県福岡市",
        "施設・場所名": "福岡市立別府小学校",
        "住所": "福岡県福岡市城南区別府6-9-1",
        "指定緊急避難場所との住所同一": "1",
        "その他市町村長が必要と認める事項": null,
        "受入対象者": null,
        "備考": ""
      }
    },
    {
      "type": "Feature",
      "geometry": {
        "type": "Point",
        "coordinates": [
          130.372066,
          33.551377
        ]
      },
      "properties": {
        "NO": 71546,
        "共通ID": "E4013000040111",
        "都道府県名及び市町村名": "福岡県福岡市",
        "施設・場所名": "福岡市立片江小学校",
        "住所": "福岡県福岡市城南区片江4-5-1",
        "指定緊急避難場所との住所同一": "1",
        "その他市町村長が必要と認める事項": null,
        "受入対象者": null,
        "備考": ""
      }
    },
    {
      "type": "Feature",
      "geometry": {
        "type": "Point",
        "coordinates": [
          130.367769,
          33.551378
        ]
      },
      "properties": {
        "NO": 71547,
        "共通ID": "E4013000041111",
        "都道府県名及び市町村名": "福岡県福岡市",
        "施設・場所名": "福岡市立城南市民センター",
        "住所": "福岡県福岡市城南区片江5-3-25",
        "指定緊急避難場所との住所同一": "1",
        "その他市町村長が必要と認める事項": null,
        "受入対象者": null,
        "備考": ""
      }
    },
    {
      "type": "Feature",
      "geometry": {
        "type": "Point",
        "coordinates": [
          130.370419,
          33.549675
        ]
      },
      "properties": {
        "NO": 71548,
        "共通ID": "E4013000042111",
        "都道府県名及び市町村名": "福岡県福岡市",
        "施設・場所名": "福岡市片江公民館",
        "住所": "福岡県福岡市城南区片江5-35-20",
        "指定緊急避難場所との住所同一": "1",
        "その他市町村長が必要と認める事項": null,
        "受入対象者": null,
        "備考": ""
      }
    },
    {
      "type": "Feature",
      "geometry": {
        "type": "Point",
        "coordinates": [
          130.367877,
          33.556915
        ]
      },
      "properties": {
        "NO": 71549,
        "共通ID": "E4013000044111",
        "都道府県名及び市町村名": "福岡県福岡市",
        "施設・場所名": "福岡市金山公民館",
        "住所": "福岡県福岡市城南区友丘6-9-36",
        "指定緊急避難場所との住所同一": "1",
        "その他市町村長が必要と認める事項": null,
        "受入対象者": null,
        "備考": ""
      }
    },
    {
      "type": "Feature",
      "geometry": {
        "type": "Point",
        "coordinates": [
          130.340831,
          33.587113
        ]
      },
      "properties": {
        "NO": 71550,
        "共通ID": "E4013000045111",
        "都道府県名及び市町村名": "福岡県福岡市",
        "施設・場所名": "福岡市愛宕公民館",
        "住所": "福岡県福岡市西区愛宕4-11-11",
        "指定緊急避難場所との住所同一": "1",
        "その他市町村長が必要と認める事項": null,
        "受入対象者": null,
        "備考": ""
      }
    },
    {
      "type": "Feature",
      "geometry": {
        "type": "Point",
        "coordinates": [
          130.339518,
          33.58725
        ]
      },
      "properties": {
        "NO": 71551,
        "共通ID": "E4013000046111",
        "都道府県名及び市町村名": "福岡県福岡市",
        "施設・場所名": "福岡市立愛宕小学校",
        "住所": "福岡県福岡市西区愛宕4-15-1",
        "指定緊急避難場所との住所同一": "1",
        "その他市町村長が必要と認める事項": null,
        "受入対象者": null,
        "備考": ""
      }
    },
    {
      "type": "Feature",
      "geometry": {
        "type": "Point",
        "coordinates": [
          130.336217,
          33.594088
        ]
      },
      "properties": {
        "NO": 71552,
        "共通ID": "E4013000047111",
        "都道府県名及び市町村名": "福岡県福岡市",
        "施設・場所名": "福岡市立姪浜中学校",
        "住所": "福岡県福岡市西区愛宕浜1-32-1",
        "指定緊急避難場所との住所同一": "1",
        "その他市町村長が必要と認める事項": null,
        "受入対象者": null,
        "備考": ""
      }
    },
    {
      "type": "Feature",
      "geometry": {
        "type": "Point",
        "coordinates": [
          130.3297,
          33.596673
        ]
      },
      "properties": {
        "NO": 71553,
        "共通ID": "E4013000050111",
        "都道府県名及び市町村名": "福岡県福岡市",
        "施設・場所名": "福岡市立福岡女子高等学校",
        "住所": "福岡県福岡市西区愛宕浜3-2-2",
        "指定緊急避難場所との住所同一": "1",
        "その他市町村長が必要と認める事項": null,
        "受入対象者": null,
        "備考": ""
      }
    },
    {
      "type": "Feature",
      "geometry": {
        "type": "Point",
        "coordinates": [
          130.329226,
          33.594491
        ]
      },
      "properties": {
        "NO": 71554,
        "共通ID": "E4013000051111",
        "都道府県名及び市町村名": "福岡県福岡市",
        "施設・場所名": "福岡市愛宕浜公民館",
        "住所": "福岡県福岡市西区愛宕浜4-41-10",
        "指定緊急避難場所との住所同一": "1",
        "その他市町村長が必要と認める事項": null,
        "受入対象者": null,
        "備考": ""
      }
    },
    {
      "type": "Feature",
      "geometry": {
        "type": "Point",
        "coordinates": [
          130.329973,
          33.595459
        ]
      },
      "properties": {
        "NO": 71555,
        "共通ID": "E4013000052111",
        "都道府県名及び市町村名": "福岡県福岡市",
        "施設・場所名": "福岡市立愛宕浜小学校",
        "住所": "福岡県福岡市西区愛宕浜4-42-1",
        "指定緊急避難場所との住所同一": "1",
        "その他市町村長が必要と認める事項": null,
        "受入対象者": null,
        "備考": ""
      }
    },
    {
      "type": "Feature",
      "geometry": {
        "type": "Point",
        "coordinates": [
          130.268293,
          33.585151
        ]
      },
      "properties": {
        "NO": 71556,
        "共通ID": "E4013000053111",
        "都道府県名及び市町村名": "福岡県福岡市",
        "施設・場所名": "福岡市玄洋公民館",
        "住所": "福岡県福岡市西区横浜1-2-1",
        "指定緊急避難場所との住所同一": "1",
        "その他市町村長が必要と認める事項": null,
        "受入対象者": null,
        "備考": ""
      }
    },
    {
      "type": "Feature",
      "geometry": {
        "type": "Point",
        "coordinates": [
          130.260538,
          33.587852
        ]
      },
      "properties": {
        "NO": 71557,
        "共通ID": "E4013000054111",
        "都道府県名及び市町村名": "福岡県福岡市",
        "施設・場所名": "福岡市立玄洋中学校",
        "住所": "福岡県福岡市西区横浜2-34-1",
        "指定緊急避難場所との住所同一": "1",
        "その他市町村長が必要と認める事項": null,
        "受入対象者": null,
        "備考": ""
      }
    },
    {
      "type": "Feature",
      "geometry": {
        "type": "Point",
        "coordinates": [
          130.313685,
          33.579021
        ]
      },
      "properties": {
        "NO": 71558,
        "共通ID": "E4013000055111",
        "都道府県名及び市町村名": "福岡県福岡市",
        "施設・場所名": "福岡市立下山門中学校",
        "住所": "福岡県福岡市西区下山門3-12-1",
        "指定緊急避難場所との住所同一": "1",
        "その他市町村長が必要と認める事項": null,
        "受入対象者": null,
        "備考": ""
      }
    },
    {
      "type": "Feature",
      "geometry": {
        "type": "Point",
        "coordinates": [
          130.309253,
          33.57737
        ]
      },
      "properties": {
        "NO": 71559,
        "共通ID": "E4013000056111",
        "都道府県名及び市町村名": "福岡県福岡市",
        "施設・場所名": "福岡市下山門公民館",
        "住所": "福岡県福岡市西区下山門4-14-38",
        "指定緊急避難場所との住所同一": "1",
        "その他市町村長が必要と認める事項": null,
        "受入対象者": null,
        "備考": ""
      }
    },
    {
      "type": "Feature",
      "geometry": {
        "type": "Point",
        "coordinates": [
          130.31014,
          33.57634
        ]
      },
      "properties": {
        "NO": 71560,
        "共通ID": "E4013000057111",
        "都道府県名及び市町村名": "福岡県福岡市",
        "施設・場所名": "福岡市立下山門小学校",
        "住所": "福岡県福岡市西区下山門4-15-1",
        "指定緊急避難場所との住所同一": "1",
        "その他市町村長が必要と認める事項": null,
        "受入対象者": null,
        "備考": ""
      }
    },
    {
      "type": "Feature",
      "geometry": {
        "type": "Point",
        "coordinates": [
          130.317759,
          33.562499
        ]
      },
      "properties": {
        "NO": 71561,
        "共通ID": "E4013000058111",
        "都道府県名及び市町村名": "福岡県福岡市",
        "施設・場所名": "福岡市立壱岐東小学校",
        "住所": "福岡県福岡市西区橋本1-14-1",
        "指定緊急避難場所との住所同一": "1",
        "その他市町村長が必要と認める事項": null,
        "受入対象者": null,
        "備考": ""
      }
    },
    {
      "type": "Feature",
      "geometry": {
        "type": "Point",
        "coordinates": [
          130.317425,
          33.561707
        ]
      },
      "properties": {
        "NO": 71562,
        "共通ID": "E4013000059111",
        "都道府県名及び市町村名": "福岡県福岡市",
        "施設・場所名": "福岡市壱岐東公民館",
        "住所": "福岡県福岡市西区橋本1-14-2",
        "指定緊急避難場所との住所同一": "1",
        "その他市町村長が必要と認める事項": null,
        "受入対象者": null,
        "備考": ""
      }
    },
    {
      "type": "Feature",
      "geometry": {
        "type": "Point",
        "coordinates": [
          130.314579,
          33.554053
        ]
      },
      "properties": {
        "NO": 71563,
        "共通ID": "E4013000061111",
        "都道府県名及び市町村名": "福岡県福岡市",
        "施設・場所名": "福岡市立壱岐南小学校",
        "住所": "福岡県福岡市西区戸切2-17-1",
        "指定緊急避難場所との住所同一": "1",
        "その他市町村長が必要と認める事項": null,
        "受入対象者": null,
        "備考": ""
      }
    },
    {
      "type": "Feature",
      "geometry": {
        "type": "Point",
        "coordinates": [
          130.313726,
          33.553881
        ]
      },
      "properties": {
        "NO": 71564,
        "共通ID": "E4013000062111",
        "都道府県名及び市町村名": "福岡県福岡市",
        "施設・場所名": "福岡市壱岐南公民館",
        "住所": "福岡県福岡市西区戸切2-18-20",
        "指定緊急避難場所との住所同一": "1",
        "その他市町村長が必要と認める事項": null,
        "受入対象者": null,
        "備考": ""
      }
    },
    {
      "type": "Feature",
      "geometry": {
        "type": "Point",
        "coordinates": [
          130.264711,
          33.580113
        ]
      },
      "properties": {
        "NO": 71565,
        "共通ID": "E4013000063111",
        "都道府県名及び市町村名": "福岡県福岡市",
        "施設・場所名": "福岡市立玄洋小学校",
        "住所": "福岡県福岡市西区今宿3-38-1",
        "指定緊急避難場所との住所同一": "1",
        "その他市町村長が必要と認める事項": null,
        "受入対象者": null,
        "備考": ""
      }
    },
    {
      "type": "Feature",
      "geometry": {
        "type": "Point",
        "coordinates": [
          130.276476,
          33.571787
        ]
      },
      "properties": {
        "NO": 71566,
        "共通ID": "E4013000066111",
        "都道府県名及び市町村名": "福岡県福岡市",
        "施設・場所名": "福岡市今宿公民館",
        "住所": "福岡県福岡市西区今宿青木138-1",
        "指定緊急避難場所との住所同一": "1",
        "その他市町村長が必要と認める事項": null,
        "受入対象者": null,
        "備考": ""
      }
    },
    {
      "type": "Feature",
      "geometry": {
        "type": "Point",
        "coordinates": [
          130.273005,
          33.575831
        ]
      },
      "properties": {
        "NO": 71567,
        "共通ID": "E4013000067111",
        "都道府県名及び市町村名": "福岡県福岡市",
        "施設・場所名": "福岡市立今宿小学校",
        "住所": "福岡県福岡市西区今宿東1-27-1",
        "指定緊急避難場所との住所同一": "1",
        "その他市町村長が必要と認める事項": null,
        "受入対象者": null,
        "備考": ""
      }
    },
    {
      "type": "Feature",
      "geometry": {
        "type": "Point",
        "coordinates": [
          130.281318,
          33.577233
        ]
      },
      "properties": {
        "NO": 71568,
        "共通ID": "E4013000068111",
        "都道府県名及び市町村名": "福岡県福岡市",
        "施設・場所名": "三菱電機（株）体育館",
        "住所": "福岡県福岡市西区今宿東3880",
        "指定緊急避難場所との住所同一": "1",
        "その他市町村長が必要と認める事項": null,
        "受入対象者": null,
        "備考": ""
      }
    },
    {
      "type": "Feature",
      "geometry": {
        "type": "Point",
        "coordinates": [
          130.253888,
          33.607539
        ]
      },
      "properties": {
        "NO": 71569,
        "共通ID": "E4013000069111",
        "都道府県名及び市町村名": "福岡県福岡市",
        "施設・場所名": "福岡市今津公民館",
        "住所": "福岡県福岡市西区今津2131-3",
        "指定緊急避難場所との住所同一": "1",
        "その他市町村長が必要と認める事項": null,
        "受入対象者": null,
        "備考": ""
      }
    },
    {
      "type": "Feature",
      "geometry": {
        "type": "Point",
        "coordinates": [
          130.25321,
          33.60787
        ]
      },
      "properties": {
        "NO": 71570,
        "共通ID": "E4013000070111",
        "都道府県名及び市町村名": "福岡県福岡市",
        "施設・場所名": "福岡市立今津小学校",
        "住所": "福岡県福岡市西区今津4808",
        "指定緊急避難場所との住所同一": "1",
        "その他市町村長が必要と認める事項": null,
        "受入対象者": null,
        "備考": ""
      }
    },
    {
      "type": "Feature",
      "geometry": {
        "type": "Point",
        "coordinates": [
          130.241496,
          33.570857
        ]
      },
      "properties": {
        "NO": 71571,
        "共通ID": "E4013000072111",
        "都道府県名及び市町村名": "福岡県福岡市",
        "施設・場所名": "福岡市立周船寺小学校",
        "住所": "福岡県福岡市西区周船寺1-22-39",
        "指定緊急避難場所との住所同一": "1",
        "その他市町村長が必要と認める事項": null,
        "受入対象者": null,
        "備考": ""
      }
    },
    {
      "type": "Feature",
      "geometry": {
        "type": "Point",
        "coordinates": [
          130.317442,
          33.566035
        ]
      },
      "properties": {
        "NO": 71572,
        "共通ID": "E4013000073111",
        "都道府県名及び市町村名": "福岡県福岡市",
        "施設・場所名": "福岡市立西体育館",
        "住所": "福岡県福岡市西区拾六町1-13-35",
        "指定緊急避難場所との住所同一": "1",
        "その他市町村長が必要と認める事項": null,
        "受入対象者": null,
        "備考": ""
      }
    },
    {
      "type": "Feature",
      "geometry": {
        "type": "Point",
        "coordinates": [
          130.311753,
          33.563317
        ]
      },
      "properties": {
        "NO": 71573,
        "共通ID": "E4013000074111",
        "都道府県名及び市町村名": "福岡県福岡市",
        "施設・場所名": "福岡市立壱岐中学校",
        "住所": "福岡県福岡市西区拾六町2-16-1",
        "指定緊急避難場所との住所同一": "1",
        "その他市町村長が必要と認める事項": null,
        "受入対象者": null,
        "備考": ""
      }
    },
    {
      "type": "Feature",
      "geometry": {
        "type": "Point",
        "coordinates": [
          130.308665,
          33.564113
        ]
      },
      "properties": {
        "NO": 71574,
        "共通ID": "E4013000075111",
        "都道府県名及び市町村名": "福岡県福岡市",
        "施設・場所名": "福岡市立壱岐小学校",
        "住所": "福岡県福岡市西区拾六町3-21-1",
        "指定緊急避難場所との住所同一": "1",
        "その他市町村長が必要と認める事項": null,
        "受入対象者": null,
        "備考": ""
      }
    },
    {
      "type": "Feature",
      "geometry": {
        "type": "Point",
        "coordinates": [
          130.308462,
          33.5648
        ]
      },
      "properties": {
        "NO": 71575,
        "共通ID": "E4013000076111",
        "都道府県名及び市町村名": "福岡県福岡市",
        "施設・場所名": "福岡市壱岐公民館",
        "住所": "福岡県福岡市西区拾六町団地1-14",
        "指定緊急避難場所との住所同一": "1",
        "その他市町村長が必要と認める事項": null,
        "受入対象者": null,
        "備考": ""
      }
    },
    {
      "type": "Feature",
      "geometry": {
        "type": "Point",
        "coordinates": [
          130.265131,
          33.574974
        ]
      },
      "properties": {
        "NO": 71576,
        "共通ID": "E4013000077111",
        "都道府県名及び市町村名": "福岡県福岡市",
        "施設・場所名": "福岡市西都公民館",
        "住所": "福岡県福岡市西区女原北12-11",
        "指定緊急避難場所との住所同一": "1",
        "その他市町村長が必要と認める事項": null,
        "受入対象者": null,
        "備考": ""
      }
    },
    {
      "type": "Feature",
      "geometry": {
        "type": "Point",
        "coordinates": [
          130.264957,
          33.575291
        ]
      },
      "properties": {
        "NO": 71577,
        "共通ID": "E4013000078111",
        "都道府県名及び市町村名": "福岡県福岡市",
        "施設・場所名": "福岡市立西都小学校",
        "住所": "福岡県福岡市西区女原北12-45",
        "指定緊急避難場所との住所同一": "1",
        "その他市町村長が必要と認める事項": null,
        "受入対象者": null,
        "備考": ""
      }
    },
    {
      "type": "Feature",
      "geometry": {
        "type": "Point",
        "coordinates": [
          130.318836,
          33.58515
        ]
      },
      "properties": {
        "NO": 71578,
        "共通ID": "E4013000080111",
        "都道府県名及び市町村名": "福岡県福岡市",
        "施設・場所名": "福岡市内浜公民館",
        "住所": "福岡県福岡市西区小戸4-11-32",
        "指定緊急避難場所との住所同一": "1",
        "その他市町村長が必要と認める事項": null,
        "受入対象者": null,
        "備考": ""
      }
    },
    {
      "type": "Feature",
      "geometry": {
        "type": "Point",
        "coordinates": [
          130.035918,
          33.869624
        ]
      },
      "properties": {
        "NO": 71579,
        "共通ID": "E4013000081111",
        "都道府県名及び市町村名": "福岡県福岡市",
        "施設・場所名": "福岡市立小呂小・中学校",
        "住所": "福岡県福岡市西区小呂島285",
        "指定緊急避難場所との住所同一": "1",
        "その他市町村長が必要と認める事項": null,
        "受入対象者": null,
        "備考": ""
      }
    },
    {
      "type": "Feature",
      "geometry": {
        "type": "Point",
        "coordinates": [
          130.306737,
          33.571087
        ]
      },
      "properties": {
        "NO": 71580,
        "共通ID": "E4013000082111",
        "都道府県名及び市町村名": "福岡県福岡市",
        "施設・場所名": "福岡市城原公民館",
        "住所": "福岡県福岡市西区上山門1-26-12",
        "指定緊急避難場所との住所同一": "1",
        "その他市町村長が必要と認める事項": null,
        "受入対象者": null,
        "備考": ""
      }
    },
    {
      "type": "Feature",
      "geometry": {
        "type": "Point",
        "coordinates": [
          130.307763,
          33.570666
        ]
      },
      "properties": {
        "NO": 71581,
        "共通ID": "E4013000083111",
        "都道府県名及び市町村名": "福岡県福岡市",
        "施設・場所名": "福岡市立城原小学校",
        "住所": "福岡県福岡市西区上山門1-27-1",
        "指定緊急避難場所との住所同一": "1",
        "その他市町村長が必要と認める事項": null,
        "受入対象者": null,
        "備考": ""
      }
    },
    {
      "type": "Feature",
      "geometry": {
        "type": "Point",
        "coordinates": [
          130.300996,
          33.574923
        ]
      },
      "properties": {
        "NO": 71582,
        "共通ID": "E4013000084111",
        "都道府県名及び市町村名": "福岡県福岡市",
        "施設・場所名": "福岡市西陵公民館",
        "住所": "福岡県福岡市西区上山門3-5-1",
        "指定緊急避難場所との住所同一": "1",
        "その他市町村長が必要と認める事項": null,
        "受入対象者": null,
        "備考": ""
      }
    },
    {
      "type": "Feature",
      "geometry": {
        "type": "Point",
        "coordinates": [
          130.297621,
          33.575466
        ]
      },
      "properties": {
        "NO": 71583,
        "共通ID": "E4013000086111",
        "都道府県名及び市町村名": "福岡県福岡市",
        "施設・場所名": "福岡市立西陵中学校",
        "住所": "福岡県福岡市西区生の松原3-9-1",
        "指定緊急避難場所との住所同一": "1",
        "その他市町村長が必要と認める事項": null,
        "受入対象者": null,
        "備考": ""
      }
    },
    {
      "type": "Feature",
      "geometry": {
        "type": "Point",
        "coordinates": [
          130.296779,
          33.574691
        ]
      },
      "properties": {
        "NO": 71584,
        "共通ID": "E4013000087111",
        "都道府県名及び市町村名": "福岡県福岡市",
        "施設・場所名": "福岡市立西陵小学校",
        "住所": "福岡県福岡市西区生の松原3-9-2",
        "指定緊急避難場所との住所同一": "1",
        "その他市町村長が必要と認める事項": null,
        "受入対象者": null,
        "備考": ""
      }
    },
    {
      "type": "Feature",
      "geometry": {
        "type": "Point",
        "coordinates": [
          130.260362,
          33.577235
        ]
      },
      "properties": {
        "NO": 71585,
        "共通ID": "E4013000090111",
        "都道府県名及び市町村名": "福岡県福岡市",
        "施設・場所名": "福岡市西部地域交流センター（さいとぴあ）",
        "住所": "福岡県福岡市西区西都2-1-1",
        "指定緊急避難場所との住所同一": "1",
        "その他市町村長が必要と認める事項": null,
        "受入対象者": null,
        "備考": ""
      }
    },
    {
      "type": "Feature",
      "geometry": {
        "type": "Point",
        "coordinates": [
          130.319021,
          33.571714
        ]
      },
      "properties": {
        "NO": 71586,
        "共通ID": "E4013000091111",
        "都道府県名及び市町村名": "福岡県福岡市",
        "施設・場所名": "福岡市石丸公民館",
        "住所": "福岡県福岡市西区石丸2-5-10",
        "指定緊急避難場所との住所同一": "1",
        "その他市町村長が必要と認める事項": null,
        "受入対象者": null,
        "備考": ""
      }
    },
    {
      "type": "Feature",
      "geometry": {
        "type": "Point",
        "coordinates": [
          130.314856,
          33.572553
        ]
      },
      "properties": {
        "NO": 71587,
        "共通ID": "E4013000092111",
        "都道府県名及び市町村名": "福岡県福岡市",
        "施設・場所名": "福岡市立石丸小学校",
        "住所": "福岡県福岡市西区石丸3-9-25",
        "指定緊急避難場所との住所同一": "1",
        "その他市町村長が必要と認める事項": null,
        "受入対象者": null,
        "備考": ""
      }
    },
    {
      "type": "Feature",
      "geometry": {
        "type": "Point",
        "coordinates": [
          130.239901,
          33.589806
        ]
      },
      "properties": {
        "NO": 71588,
        "共通ID": "E4013000094111",
        "都道府県名及び市町村名": "福岡県福岡市",
        "施設・場所名": "福岡市立元岡小学校",
        "住所": "福岡県福岡市西区太郎丸1-2-24",
        "指定緊急避難場所との住所同一": "1",
        "その他市町村長が必要と認める事項": null,
        "受入対象者": null,
        "備考": ""
      }
    },
    {
      "type": "Feature",
      "geometry": {
        "type": "Point",
        "coordinates": [
          130.239589,
          33.588756
        ]
      },
      "properties": {
        "NO": 71589,
        "共通ID": "E4013000095111",
        "都道府県名及び市町村名": "福岡県福岡市",
        "施設・場所名": "福岡市元岡公民館",
        "住所": "福岡県福岡市西区太郎丸1-3-41",
        "指定緊急避難場所との住所同一": "1",
        "その他市町村長が必要と認める事項": null,
        "受入対象者": null,
        "備考": ""
      }
    },
    {
      "type": "Feature",
      "geometry": {
        "type": "Point",
        "coordinates": [
          130.312592,
          33.545763
        ]
      },
      "properties": {
        "NO": 71590,
        "共通ID": "E4013000096111",
        "都道府県名及び市町村名": "福岡県福岡市",
        "施設・場所名": "福岡市立壱岐丘中学校",
        "住所": "福岡県福岡市西区大字羽根戸303-1",
        "指定緊急避難場所との住所同一": "1",
        "その他市町村長が必要と認める事項": null,
        "受入対象者": null,
        "備考": ""
      }
    },
    {
      "type": "Feature",
      "geometry": {
        "type": "Point",
        "coordinates": [
          130.227627,
          33.641068
        ]
      },
      "properties": {
        "NO": 71591,
        "共通ID": "E4013000097111",
        "都道府県名及び市町村名": "福岡県福岡市",
        "施設・場所名": "福岡市北崎公民館",
        "住所": "福岡県福岡市西区大字宮浦1978-1",
        "指定緊急避難場所との住所同一": "1",
        "その他市町村長が必要と認める事項": null,
        "受入対象者": null,
        "備考": ""
      }
    },
    {
      "type": "Feature",
      "geometry": {
        "type": "Point",
        "coordinates": [
          130.318669,
          33.533661
        ]
      },
      "properties": {
        "NO": 71592,
        "共通ID": "E4013000099111",
        "都道府県名及び市町村名": "福岡県福岡市",
        "施設・場所名": "福岡市立金武小学校",
        "住所": "福岡県福岡市西区大字金武2028-1",
        "指定緊急避難場所との住所同一": "1",
        "その他市町村長が必要と認める事項": null,
        "受入対象者": null,
        "備考": ""
      }
    },
    {
      "type": "Feature",
      "geometry": {
        "type": "Point",
        "coordinates": [
          130.321378,
          33.53434
        ]
      },
      "properties": {
        "NO": 71593,
        "共通ID": "E4013000100111",
        "都道府県名及び市町村名": "福岡県福岡市",
        "施設・場所名": "福岡市金武公民館",
        "住所": "福岡県福岡市西区大字金武2136-1",
        "指定緊急避難場所との住所同一": "1",
        "その他市町村長が必要と認める事項": null,
        "受入対象者": null,
        "備考": ""
      }
    },
    {
      "type": "Feature",
      "geometry": {
        "type": "Point",
        "coordinates": [
          130.235039,
          33.68329
        ]
      },
      "properties": {
        "NO": 71594,
        "共通ID": "E4013000102111",
        "都道府県名及び市町村名": "福岡県福岡市",
        "施設・場所名": "福岡市玄界公民館",
        "住所": "福岡県福岡市西区大字玄界島21-3",
        "指定緊急避難場所との住所同一": "1",
        "その他市町村長が必要と認める事項": null,
        "受入対象者": null,
        "備考": ""
      }
    },
    {
      "type": "Feature",
      "geometry": {
        "type": "Point",
        "coordinates": [
          130.235453,
          33.685514
        ]
      },
      "properties": {
        "NO": 71595,
        "共通ID": "E4013000103111",
        "都道府県名及び市町村名": "福岡県福岡市",
        "施設・場所名": "福岡市立玄界小・中学校",
        "住所": "福岡県福岡市西区大字玄界島239",
        "指定緊急避難場所との住所同一": "1",
        "その他市町村長が必要と認める事項": null,
        "受入対象者": null,
        "備考": ""
      }
    },
    {
      "type": "Feature",
      "geometry": {
        "type": "Point",
        "coordinates": [
          130.296975,
          33.562374
        ]
      },
      "properties": {
        "NO": 71596,
        "共通ID": "E4013000106111",
        "都道府県名及び市町村名": "福岡県福岡市",
        "施設・場所名": "福岡市立福岡西陵高等学校",
        "住所": "福岡県福岡市西区大字拾六町字広石",
        "指定緊急避難場所との住所同一": "1",
        "その他市町村長が必要と認める事項": null,
        "受入対象者": null,
        "備考": ""
      }
    },
    {
      "type": "Feature",
      "geometry": {
        "type": "Point",
        "coordinates": [
          130.221615,
          33.633411
        ]
      },
      "properties": {
        "NO": 71597,
        "共通ID": "E4013000107111",
        "都道府県名及び市町村名": "福岡県福岡市",
        "施設・場所名": "福岡市立北崎中学校",
        "住所": "福岡県福岡市西区大字小田1383",
        "指定緊急避難場所との住所同一": "1",
        "その他市町村長が必要と認める事項": null,
        "受入対象者": null,
        "備考": ""
      }
    },
    {
      "type": "Feature",
      "geometry": {
        "type": "Point",
        "coordinates": [
          130.223075,
          33.633923
        ]
      },
      "properties": {
        "NO": 71598,
        "共通ID": "E4013000108111",
        "都道府県名及び市町村名": "福岡県福岡市",
        "施設・場所名": "福岡市立北崎小学校",
        "住所": "福岡県福岡市西区大字小田1385",
        "指定緊急避難場所との住所同一": "1",
        "その他市町村長が必要と認める事項": null,
        "受入対象者": null,
        "備考": ""
      }
    },
    {
      "type": "Feature",
      "geometry": {
        "type": "Point",
        "coordinates": [
          130.037449,
          33.863527
        ]
      },
      "properties": {
        "NO": 71599,
        "共通ID": "E4013000110111",
        "都道府県名及び市町村名": "福岡県福岡市",
        "施設・場所名": "福岡市愛宕浜公民館小呂分館",
        "住所": "福岡県福岡市西区大字小呂島61-1",
        "指定緊急避難場所との住所同一": "1",
        "その他市町村長が必要と認める事項": null,
        "受入対象者": null,
        "備考": ""
      }
    },
    {
      "type": "Feature",
      "geometry": {
        "type": "Point",
        "coordinates": [
          130.246788,
          33.560895
        ]
      },
      "properties": {
        "NO": 71600,
        "共通ID": "E4013000111111",
        "都道府県名及び市町村名": "福岡県福岡市",
        "施設・場所名": "筑前高等学校",
        "住所": "福岡県福岡市西区大字千里111-1",
        "指定緊急避難場所との住所同一": "1",
        "その他市町村長が必要と認める事項": null,
        "受入対象者": null,
        "備考": ""
      }
    },
    {
      "type": "Feature",
      "geometry": {
        "type": "Point",
        "coordinates": [
          130.248346,
          33.570661
        ]
      },
      "properties": {
        "NO": 71601,
        "共通ID": "E4013000112111",
        "都道府県名及び市町村名": "福岡県福岡市",
        "施設・場所名": "福岡市周船寺公民館",
        "住所": "福岡県福岡市西区大字飯氏876-1",
        "指定緊急避難場所との住所同一": "1",
        "その他市町村長が必要と認める事項": null,
        "受入対象者": null,
        "備考": ""
      }
    },
    {
      "type": "Feature",
      "geometry": {
        "type": "Point",
        "coordinates": [
          130.253462,
          33.588796
        ]
      },
      "properties": {
        "NO": 71602,
        "共通ID": "E4013000115111",
        "都道府県名及び市町村名": "福岡県福岡市",
        "施設・場所名": "玄洋高等学校",
        "住所": "福岡県福岡市西区田尻東",
        "指定緊急避難場所との住所同一": "",
        "その他市町村長が必要と認める事項": null,
        "受入対象者": null,
        "備考": ""
      }
    },
    {
      "type": "Feature",
      "geometry": {
        "type": "Point",
        "coordinates": [
          130.252753,
          33.585431
        ]
      },
      "properties": {
        "NO": 71603,
        "共通ID": "E4013000116111",
        "都道府県名及び市町村名": "福岡県福岡市",
        "施設・場所名": "福岡市立元岡中学校",
        "住所": "福岡県福岡市西区田尻東1-17-1",
        "指定緊急避難場所との住所同一": "1",
        "その他市町村長が必要と認める事項": null,
        "受入対象者": null,
        "備考": ""
      }
    },
    {
      "type": "Feature",
      "geometry": {
        "type": "Point",
        "coordinates": [
          130.320218,
          33.580242
        ]
      },
      "properties": {
        "NO": 71604,
        "共通ID": "E4013000119111",
        "都道府県名及び市町村名": "福岡県福岡市",
        "施設・場所名": "福岡市立内浜中学校",
        "住所": "福岡県福岡市西区内浜1-12-1",
        "指定緊急避難場所との住所同一": "1",
        "その他市町村長が必要と認める事項": null,
        "受入対象者": null,
        "備考": ""
      }
    },
    {
      "type": "Feature",
      "geometry": {
        "type": "Point",
        "coordinates": [
          130.322138,
          33.582993
        ]
      },
      "properties": {
        "NO": 71605,
        "共通ID": "E4013000120111",
        "都道府県名及び市町村名": "福岡県福岡市",
        "施設・場所名": "福岡市立西市民センター",
        "住所": "福岡県福岡市西区内浜1-4-39",
        "指定緊急避難場所との住所同一": "1",
        "その他市町村長が必要と認める事項": null,
        "受入対象者": null,
        "備考": ""
      }
    },
    {
      "type": "Feature",
      "geometry": {
        "type": "Point",
        "coordinates": [
          130.30837,
          33.615568
        ]
      },
      "properties": {
        "NO": 71606,
        "共通ID": "E4013000121111",
        "都道府県名及び市町村名": "福岡県福岡市",
        "施設・場所名": "福岡市立能古小学校・中学校",
        "住所": "福岡県福岡市西区能古357",
        "指定緊急避難場所との住所同一": "1",
        "その他市町村長が必要と認める事項": null,
        "受入対象者": null,
        "備考": ""
      }
    },
    {
      "type": "Feature",
      "geometry": {
        "type": "Point",
        "coordinates": [
          130.307868,
          33.609627
        ]
      },
      "properties": {
        "NO": 71607,
        "共通ID": "E4013000122111",
        "都道府県名及び市町村名": "福岡県福岡市",
        "施設・場所名": "福岡市能古公民館",
        "住所": "福岡県福岡市西区能古726-9",
        "指定緊急避難場所との住所同一": "1",
        "その他市町村長が必要と認める事項": null,
        "受入対象者": null,
        "備考": ""
      }
    },
    {
      "type": "Feature",
      "geometry": {
        "type": "Point",
        "coordinates": [
          130.32569,
          33.572076
        ]
      },
      "properties": {
        "NO": 71608,
        "共通ID": "E4013000125111",
        "都道府県名及び市町村名": "福岡県福岡市",
        "施設・場所名": "福岡市立福重小学校",
        "住所": "福岡県福岡市西区福重4-25-1",
        "指定緊急避難場所との住所同一": "1",
        "その他市町村長が必要と認める事項": null,
        "受入対象者": null,
        "備考": ""
      }
    },
    {
      "type": "Feature",
      "geometry": {
        "type": "Point",
        "coordinates": [
          130.32501,
          33.572204
        ]
      },
      "properties": {
        "NO": 71609,
        "共通ID": "E4013000126111",
        "都道府県名及び市町村名": "福岡県福岡市",
        "施設・場所名": "福岡市福重公民館",
        "住所": "福岡県福岡市西区福重4-25-2",
        "指定緊急避難場所との住所同一": "1",
        "その他市町村長が必要と認める事項": null,
        "受入対象者": null,
        "備考": ""
      }
    },
    {
      "type": "Feature",
      "geometry": {
        "type": "Point",
        "coordinates": [
          130.257095,
          33.583778
        ]
      },
      "properties": {
        "NO": 71610,
        "共通ID": "E4013000579111",
        "都道府県名及び市町村名": "福岡県福岡市",
        "施設・場所名": "西都北公民館・老人いこいの家",
        "住所": "福岡県福岡市西区北原2-34-16",
        "指定緊急避難場所との住所同一": "",
        "その他市町村長が必要と認める事項": "",
        "受入対象者": "",
        "備考": ""
      }
    },
    {
      "type": "Feature",
      "geometry": {
        "type": "Point",
        "coordinates": [
          130.255661,
          33.585655
        ]
      },
      "properties": {
        "NO": 71611,
        "共通ID": "E4013000580111",
        "都道府県名及び市町村名": "福岡県福岡市",
        "施設・場所名": "西都北小学校",
        "住所": "福岡県福岡市西区北原2-40-1",
        "指定緊急避難場所との住所同一": "",
        "その他市町村長が必要と認める事項": "",
        "受入対象者": "",
        "備考": ""
      }
    },
    {
      "type": "Feature",
      "geometry": {
        "type": "Point",
        "coordinates": [
          130.329537,
          33.588325
        ]
      },
      "properties": {
        "NO": 71612,
        "共通ID": "E4013000127111",
        "都道府県名及び市町村名": "福岡県福岡市",
        "施設・場所名": "福岡市立姪浜小学校",
        "住所": "福岡県福岡市西区姪の浜2-10-6",
        "指定緊急避難場所との住所同一": "1",
        "その他市町村長が必要と認める事項": null,
        "受入対象者": null,
        "備考": ""
      }
    },
    {
      "type": "Feature",
      "geometry": {
        "type": "Point",
        "coordinates": [
          130.328347,
          33.590826
        ]
      },
      "properties": {
        "NO": 71613,
        "共通ID": "E4013000128111",
        "都道府県名及び市町村名": "福岡県福岡市",
        "施設・場所名": "福岡市立姪北小学校",
        "住所": "福岡県福岡市西区姪の浜2-20-23",
        "指定緊急避難場所との住所同一": "1",
        "その他市町村長が必要と認める事項": null,
        "受入対象者": null,
        "備考": ""
      }
    },
    {
      "type": "Feature",
      "geometry": {
        "type": "Point",
        "coordinates": [
          130.327739,
          33.591124
        ]
      },
      "properties": {
        "NO": 71614,
        "共通ID": "E4013000129111",
        "都道府県名及び市町村名": "福岡県福岡市",
        "施設・場所名": "福岡市姪北公民館",
        "住所": "福岡県福岡市西区姪の浜2-20-28",
        "指定緊急避難場所との住所同一": "1",
        "その他市町村長が必要と認める事項": null,
        "受入対象者": null,
        "備考": ""
      }
    },
    {
      "type": "Feature",
      "geometry": {
        "type": "Point",
        "coordinates": [
          130.322754,
          33.585143
        ]
      },
      "properties": {
        "NO": 71615,
        "共通ID": "E4013000130111",
        "都道府県名及び市町村名": "福岡県福岡市",
        "施設・場所名": "福岡市立内浜小学校",
        "住所": "福岡県福岡市西区姪の浜5-8-8",
        "指定緊急避難場所との住所同一": "1",
        "その他市町村長が必要と認める事項": null,
        "受入対象者": null,
        "備考": ""
      }
    },
    {
      "type": "Feature",
      "geometry": {
        "type": "Point",
        "coordinates": [
          130.329569,
          33.587521
        ]
      },
      "properties": {
        "NO": 71616,
        "共通ID": "E4013000131111",
        "都道府県名及び市町村名": "福岡県福岡市",
        "施設・場所名": "福岡市姪浜公民館",
        "住所": "福岡県福岡市西区姪浜2-10-6",
        "指定緊急避難場所との住所同一": "1",
        "その他市町村長が必要と認める事項": null,
        "受入対象者": null,
        "備考": ""
      }
    },
    {
      "type": "Feature",
      "geometry": {
        "type": "Point",
        "coordinates": [
          130.340122,
          33.552467
        ]
      },
      "properties": {
        "NO": 71617,
        "共通ID": "E4013000134111",
        "都道府県名及び市町村名": "福岡県福岡市",
        "施設・場所名": "福岡市立賀茂小学校",
        "住所": "福岡県福岡市早良区賀茂1-31-1",
        "指定緊急避難場所との住所同一": "1",
        "その他市町村長が必要と認める事項": null,
        "受入対象者": null,
        "備考": ""
      }
    },
    {
      "type": "Feature",
      "geometry": {
        "type": "Point",
        "coordinates": [
          130.340629,
          33.552847
        ]
      },
      "properties": {
        "NO": 71618,
        "共通ID": "E4013000135111",
        "都道府県名及び市町村名": "福岡県福岡市",
        "施設・場所名": "福岡市賀茂公民館",
        "住所": "福岡県福岡市早良区賀茂1-33-7",
        "指定緊急避難場所との住所同一": "1",
        "その他市町村長が必要と認める事項": null,
        "受入対象者": null,
        "備考": ""
      }
    },
    {
      "type": "Feature",
      "geometry": {
        "type": "Point",
        "coordinates": [
          130.298982,
          33.497785
        ]
      },
      "properties": {
        "NO": 71619,
        "共通ID": "E4013000137111",
        "都道府県名及び市町村名": "福岡県福岡市",
        "施設・場所名": "福岡市内野公民館曲渕分館",
        "住所": "福岡県福岡市早良区曲渕700-1",
        "指定緊急避難場所との住所同一": "1",
        "その他市町村長が必要と認める事項": null,
        "受入対象者": null,
        "備考": ""
      }
    },
    {
      "type": "Feature",
      "geometry": {
        "type": "Point",
        "coordinates": [
          130.348238,
          33.570922
        ]
      },
      "properties": {
        "NO": 71620,
        "共通ID": "E4013000138111",
        "都道府県名及び市町村名": "福岡県福岡市",
        "施設・場所名": "福岡市立原中央中学校",
        "住所": "福岡県福岡市早良区原1-36-1",
        "指定緊急避難場所との住所同一": "1",
        "その他市町村長が必要と認める事項": null,
        "受入対象者": null,
        "備考": ""
      }
    },
    {
      "type": "Feature",
      "geometry": {
        "type": "Point",
        "coordinates": [
          130.349345,
          33.568436
        ]
      },
      "properties": {
        "NO": 71621,
        "共通ID": "E4013000139111",
        "都道府県名及び市町村名": "福岡県福岡市",
        "施設・場所名": "福岡市立原小学校",
        "住所": "福岡県福岡市早良区原2-5-1",
        "指定緊急避難場所との住所同一": "1",
        "その他市町村長が必要と認める事項": null,
        "受入対象者": null,
        "備考": ""
      }
    },
    {
      "type": "Feature",
      "geometry": {
        "type": "Point",
        "coordinates": [
          130.34989,
          33.568297
        ]
      },
      "properties": {
        "NO": 71622,
        "共通ID": "E4013000140111",
        "都道府県名及び市町村名": "福岡県福岡市",
        "施設・場所名": "福岡市原公民館",
        "住所": "福岡県福岡市早良区原2-5-2",
        "指定緊急避難場所との住所同一": "1",
        "その他市町村長が必要と認める事項": null,
        "受入対象者": null,
        "備考": ""
      }
    },
    {
      "type": "Feature",
      "geometry": {
        "type": "Point",
        "coordinates": [
          130.344984,
          33.573209
        ]
      },
      "properties": {
        "NO": 71623,
        "共通ID": "E4013000141111",
        "都道府県名及び市町村名": "福岡県福岡市",
        "施設・場所名": "福岡市立高取中学校",
        "住所": "福岡県福岡市早良区原3-3-1",
        "指定緊急避難場所との住所同一": "1",
        "その他市町村長が必要と認める事項": null,
        "受入対象者": null,
        "備考": ""
      }
    },
    {
      "type": "Feature",
      "geometry": {
        "type": "Point",
        "coordinates": [
          130.344278,
          33.570616
        ]
      },
      "properties": {
        "NO": 71624,
        "共通ID": "E4013000142111",
        "都道府県名及び市町村名": "福岡県福岡市",
        "施設・場所名": "福岡市立大原小学校",
        "住所": "福岡県福岡市早良区原3-8-10",
        "指定緊急避難場所との住所同一": "1",
        "その他市町村長が必要と認める事項": null,
        "受入対象者": null,
        "備考": ""
      }
    },
    {
      "type": "Feature",
      "geometry": {
        "type": "Point",
        "coordinates": [
          130.341645,
          33.568645
        ]
      },
      "properties": {
        "NO": 71625,
        "共通ID": "E4013000143111",
        "都道府県名及び市町村名": "福岡県福岡市",
        "施設・場所名": "福岡市大原公民館",
        "住所": "福岡県福岡市早良区原4-8-13",
        "指定緊急避難場所との住所同一": "1",
        "その他市町村長が必要と認める事項": null,
        "受入対象者": null,
        "備考": ""
      }
    },
    {
      "type": "Feature",
      "geometry": {
        "type": "Point",
        "coordinates": [
          130.339765,
          33.564593
        ]
      },
      "properties": {
        "NO": 71626,
        "共通ID": "E4013000144111",
        "都道府県名及び市町村名": "福岡県福岡市",
        "施設・場所名": "福岡市原西公民館",
        "住所": "福岡県福岡市早良区原5-12-16",
        "指定緊急避難場所との住所同一": "1",
        "その他市町村長が必要と認める事項": null,
        "受入対象者": null,
        "備考": ""
      }
    },
    {
      "type": "Feature",
      "geometry": {
        "type": "Point",
        "coordinates": [
          130.338968,
          33.564681
        ]
      },
      "properties": {
        "NO": 71627,
        "共通ID": "E4013000145111",
        "都道府県名及び市町村名": "福岡県福岡市",
        "施設・場所名": "福岡市立原西小学校",
        "住所": "福岡県福岡市早良区原5-16-10",
        "指定緊急避難場所との住所同一": "1",
        "その他市町村長が必要と認める事項": null,
        "受入対象者": null,
        "備考": ""
      }
    },
    {
      "type": "Feature",
      "geometry": {
        "type": "Point",
        "coordinates": [
          130.346109,
          33.562316
        ]
      },
      "properties": {
        "NO": 71628,
        "共通ID": "E4013000147111",
        "都道府県名及び市町村名": "福岡県福岡市",
        "施設・場所名": "福岡市立飯原小学校",
        "住所": "福岡県福岡市早良区原7-3-1",
        "指定緊急避難場所との住所同一": "1",
        "その他市町村長が必要と認める事項": null,
        "受入対象者": null,
        "備考": ""
      }
    },
    {
      "type": "Feature",
      "geometry": {
        "type": "Point",
        "coordinates": [
          130.346561,
          33.561256
        ]
      },
      "properties": {
        "NO": 71629,
        "共通ID": "E4013000148111",
        "都道府県名及び市町村名": "福岡県福岡市",
        "施設・場所名": "福岡市飯原公民館",
        "住所": "福岡県福岡市早良区原7-3-21",
        "指定緊急避難場所との住所同一": "1",
        "その他市町村長が必要と認める事項": null,
        "受入対象者": null,
        "備考": ""
      }
    },
    {
      "type": "Feature",
      "geometry": {
        "type": "Point",
        "coordinates": [
          130.355097,
          33.572511
        ]
      },
      "properties": {
        "NO": 71630,
        "共通ID": "E4013000149111",
        "都道府県名及び市町村名": "福岡県福岡市",
        "施設・場所名": "福岡工業高等学校",
        "住所": "福岡県福岡市早良区荒江2-19-1",
        "指定緊急避難場所との住所同一": "1",
        "その他市町村長が必要と認める事項": null,
        "受入対象者": null,
        "備考": ""
      }
    },
    {
      "type": "Feature",
      "geometry": {
        "type": "Point",
        "coordinates": [
          130.35342,
          33.571407
        ]
      },
      "properties": {
        "NO": 71631,
        "共通ID": "E4013000150111",
        "都道府県名及び市町村名": "福岡県福岡市",
        "施設・場所名": "福岡聴覚特別支援学校",
        "住所": "福岡県福岡市早良区荒江3-2-1",
        "指定緊急避難場所との住所同一": "",
        "その他市町村長が必要と認める事項": null,
        "受入対象者": null,
        "備考": ""
      }
    },
    {
      "type": "Feature",
      "geometry": {
        "type": "Point",
        "coordinates": [
          130.353366,
          33.571767
        ]
      },
      "properties": {
        "NO": 71632,
        "共通ID": "E4013000151111",
        "都道府県名及び市町村名": "福岡県福岡市",
        "施設・場所名": "福岡高等聴覚特別支援学校",
        "住所": "福岡県福岡市早良区荒江3-2-2",
        "指定緊急避難場所との住所同一": "1",
        "その他市町村長が必要と認める事項": null,
        "受入対象者": null,
        "備考": ""
      }
    },
    {
      "type": "Feature",
      "geometry": {
        "type": "Point",
        "coordinates": [
          130.353325,
          33.578929
        ]
      },
      "properties": {
        "NO": 71633,
        "共通ID": "E4013000152111",
        "都道府県名及び市町村名": "福岡県福岡市",
        "施設・場所名": "福岡市高取公民館",
        "住所": "福岡県福岡市早良区高取1-14-13",
        "指定緊急避難場所との住所同一": "1",
        "その他市町村長が必要と認める事項": null,
        "受入対象者": null,
        "備考": ""
      }
    },
    {
      "type": "Feature",
      "geometry": {
        "type": "Point",
        "coordinates": [
          130.323657,
          33.528403
        ]
      },
      "properties": {
        "NO": 71634,
        "共通ID": "E4013000153111",
        "都道府県名及び市町村名": "福岡県福岡市",
        "施設・場所名": "福岡市立金武中学校",
        "住所": "福岡県福岡市早良区四箇3-1-3",
        "指定緊急避難場所との住所同一": "1",
        "その他市町村長が必要と認める事項": null,
        "受入対象者": null,
        "備考": ""
      }
    },
    {
      "type": "Feature",
      "geometry": {
        "type": "Point",
        "coordinates": [
          130.329242,
          33.531804
        ]
      },
      "properties": {
        "NO": 71635,
        "共通ID": "E4013000155111",
        "都道府県名及び市町村名": "福岡県福岡市",
        "施設・場所名": "福岡市立早良体育館",
        "住所": "福岡県福岡市早良区四箇6-17-6",
        "指定緊急避難場所との住所同一": "1",
        "その他市町村長が必要と認める事項": null,
        "受入対象者": null,
        "備考": ""
      }
    },
    {
      "type": "Feature",
      "geometry": {
        "type": "Point",
        "coordinates": [
          130.332524,
          33.531709
        ]
      },
      "properties": {
        "NO": 71636,
        "共通ID": "E4013000156111",
        "都道府県名及び市町村名": "福岡県福岡市",
        "施設・場所名": "福岡市四箇田公民館",
        "住所": "福岡県福岡市早良区四箇6-5-26",
        "指定緊急避難場所との住所同一": "1",
        "その他市町村長が必要と認める事項": null,
        "受入対象者": null,
        "備考": ""
      }
    },
    {
      "type": "Feature",
      "geometry": {
        "type": "Point",
        "coordinates": [
          130.331294,
          33.533677
        ]
      },
      "properties": {
        "NO": 71637,
        "共通ID": "E4013000157111",
        "都道府県名及び市町村名": "福岡県福岡市",
        "施設・場所名": "福岡市立四箇田小学校",
        "住所": "福岡県福岡市早良区四箇田団地56-1",
        "指定緊急避難場所との住所同一": "1",
        "その他市町村長が必要と認める事項": null,
        "受入対象者": null,
        "備考": ""
      }
    },
    {
      "type": "Feature",
      "geometry": {
        "type": "Point",
        "coordinates": [
          130.329509,
          33.532829
        ]
      },
      "properties": {
        "NO": 71638,
        "共通ID": "E4013000158111",
        "都道府県名及び市町村名": "福岡県福岡市",
        "施設・場所名": "福岡市早良南地域交流センター【ともてらす早良】",
        "住所": "福岡県福岡市早良区四箇田団地9-1",
        "指定緊急避難場所との住所同一": "1",
        "その他市町村長が必要と認める事項": null,
        "受入対象者": null,
        "備考": ""
      }
    },
    {
      "type": "Feature",
      "geometry": {
        "type": "Point",
        "coordinates": [
          130.332552,
          33.555335
        ]
      },
      "properties": {
        "NO": 71639,
        "共通ID": "E4013000159111",
        "都道府県名及び市町村名": "福岡県福岡市",
        "施設・場所名": "福岡市有田公民館",
        "住所": "福岡県福岡市早良区次郎丸1-1-6",
        "指定緊急避難場所との住所同一": "1",
        "その他市町村長が必要と認める事項": null,
        "受入対象者": null,
        "備考": ""
      }
    },
    {
      "type": "Feature",
      "geometry": {
        "type": "Point",
        "coordinates": [
          130.334619,
          33.549864
        ]
      },
      "properties": {
        "NO": 71640,
        "共通ID": "E4013000160111",
        "都道府県名及び市町村名": "福岡県福岡市",
        "施設・場所名": "福岡市立次郎丸中学校",
        "住所": "福岡県福岡市早良区次郎丸6-3-1",
        "指定緊急避難場所との住所同一": "1",
        "その他市町村長が必要と認める事項": null,
        "受入対象者": null,
        "備考": ""
      }
    },
    {
      "type": "Feature",
      "geometry": {
        "type": "Point",
        "coordinates": [
          130.343589,
          33.576642
        ]
      },
      "properties": {
        "NO": 71641,
        "共通ID": "E4013000161111",
        "都道府県名及び市町村名": "福岡県福岡市",
        "施設・場所名": "福岡市室見公民館",
        "住所": "福岡県福岡市早良区室見3-2-18",
        "指定緊急避難場所との住所同一": "1",
        "その他市町村長が必要と認める事項": null,
        "受入対象者": null,
        "備考": ""
      }
    },
    {
      "type": "Feature",
      "geometry": {
        "type": "Point",
        "coordinates": [
          130.34417,
          33.575175
        ]
      },
      "properties": {
        "NO": 71642,
        "共通ID": "E4013000162111",
        "都道府県名及び市町村名": "福岡県福岡市",
        "施設・場所名": "福岡市立室見小学校",
        "住所": "福岡県福岡市早良区室見3-3-1",
        "指定緊急避難場所との住所同一": "1",
        "その他市町村長が必要と認める事項": null,
        "受入対象者": null,
        "備考": ""
      }
    },
    {
      "type": "Feature",
      "geometry": {
        "type": "Point",
        "coordinates": [
          130.328274,
          33.562224
        ]
      },
      "properties": {
        "NO": 71643,
        "共通ID": "E4013000163111",
        "都道府県名及び市町村名": "福岡県福岡市",
        "施設・場所名": "福岡市有住公民館",
        "住所": "福岡県福岡市早良区室住団地4-1",
        "指定緊急避難場所との住所同一": "1",
        "その他市町村長が必要と認める事項": null,
        "受入対象者": null,
        "備考": ""
      }
    },
    {
      "type": "Feature",
      "geometry": {
        "type": "Point",
        "coordinates": [
          130.332923,
          33.564538
        ]
      },
      "properties": {
        "NO": 71644,
        "共通ID": "E4013000165111",
        "都道府県名及び市町村名": "福岡県福岡市",
        "施設・場所名": "福岡市立西福岡中学校",
        "住所": "福岡県福岡市早良区小田部3-32-1",
        "指定緊急避難場所との住所同一": "1",
        "その他市町村長が必要と認める事項": null,
        "受入対象者": null,
        "備考": ""
      }
    },
    {
      "type": "Feature",
      "geometry": {
        "type": "Point",
        "coordinates": [
          130.328796,
          33.573948
        ]
      },
      "properties": {
        "NO": 71645,
        "共通ID": "E4013000167111",
        "都道府県名及び市町村名": "福岡県福岡市",
        "施設・場所名": "福岡市立小田部小学校",
        "住所": "福岡県福岡市早良区小田部6-4-1",
        "指定緊急避難場所との住所同一": "1",
        "その他市町村長が必要と認める事項": null,
        "受入対象者": null,
        "備考": ""
      }
    },
    {
      "type": "Feature",
      "geometry": {
        "type": "Point",
        "coordinates": [
          130.329147,
          33.572701
        ]
      },
      "properties": {
        "NO": 71646,
        "共通ID": "E4013000168111",
        "都道府県名及び市町村名": "福岡県福岡市",
        "施設・場所名": "福岡市小田部公民館",
        "住所": "福岡県福岡市早良区小田部6-6-10",
        "指定緊急避難場所との住所同一": "1",
        "その他市町村長が必要と認める事項": null,
        "受入対象者": null,
        "備考": ""
      }
    },
    {
      "type": "Feature",
      "geometry": {
        "type": "Point",
        "coordinates": [
          130.332214,
          33.571913
        ]
      },
      "properties": {
        "NO": 71647,
        "共通ID": "E4013000169111",
        "都道府県名及び市町村名": "福岡県福岡市",
        "施設・場所名": "福岡市立原北中学校",
        "住所": "福岡県福岡市早良区小田部7-11-1",
        "指定緊急避難場所との住所同一": "1",
        "その他市町村長が必要と認める事項": null,
        "受入対象者": null,
        "備考": ""
      }
    },
    {
      "type": "Feature",
      "geometry": {
        "type": "Point",
        "coordinates": [
          130.352779,
          33.576949
        ]
      },
      "properties": {
        "NO": 71648,
        "共通ID": "E4013000171111",
        "都道府県名及び市町村名": "福岡県福岡市",
        "施設・場所名": "福岡市立高取小学校",
        "住所": "福岡県福岡市早良区昭代2-15-51",
        "指定緊急避難場所との住所同一": "1",
        "その他市町村長が必要と認める事項": null,
        "受入対象者": null,
        "備考": ""
      }
    },
    {
      "type": "Feature",
      "geometry": {
        "type": "Point",
        "coordinates": [
          130.359824,
          33.584477
        ]
      },
      "properties": {
        "NO": 71649,
        "共通ID": "E4013000172111",
        "都道府県名及び市町村名": "福岡県福岡市",
        "施設・場所名": "福岡市西新公民館",
        "住所": "福岡県福岡市早良区西新2-10-10",
        "指定緊急避難場所との住所同一": "1",
        "その他市町村長が必要と認める事項": null,
        "受入対象者": null,
        "備考": ""
      }
    },
    {
      "type": "Feature",
      "geometry": {
        "type": "Point",
        "coordinates": [
          130.356384,
          33.583878
        ]
      },
      "properties": {
        "NO": 71650,
        "共通ID": "E4013000173111",
        "都道府県名及び市町村名": "福岡県福岡市",
        "施設・場所名": "修猷館高等学校",
        "住所": "福岡県福岡市早良区西新6-1-10",
        "指定緊急避難場所との住所同一": "1",
        "その他市町村長が必要と認める事項": null,
        "受入対象者": null,
        "備考": ""
      }
    },
    {
      "type": "Feature",
      "geometry": {
        "type": "Point",
        "coordinates": [
          130.355601,
          33.584844
        ]
      },
      "properties": {
        "NO": 71651,
        "共通ID": "E4013000174111",
        "都道府県名及び市町村名": "福岡県福岡市",
        "施設・場所名": "西南学院大学",
        "住所": "福岡県福岡市早良区西新6-2-92",
        "指定緊急避難場所との住所同一": "",
        "その他市町村長が必要と認める事項": null,
        "受入対象者": null,
        "備考": ""
      }
    },
    {
      "type": "Feature",
      "geometry": {
        "type": "Point",
        "coordinates": [
          130.355439,
          33.585902
        ]
      },
      "properties": {
        "NO": 71652,
        "共通ID": "E4013000175111",
        "都道府県名及び市町村名": "福岡県福岡市",
        "施設・場所名": "福岡市立西新小学校",
        "住所": "福岡県福岡市早良区西新6-4-1",
        "指定緊急避難場所との住所同一": "1",
        "その他市町村長が必要と認める事項": null,
        "受入対象者": null,
        "備考": ""
      }
    },
    {
      "type": "Feature",
      "geometry": {
        "type": "Point",
        "coordinates": [
          130.337409,
          33.505131
        ]
      },
      "properties": {
        "NO": 71653,
        "共通ID": "E4013000176111",
        "都道府県名及び市町村名": "福岡県福岡市",
        "施設・場所名": "福岡市立早良小学校",
        "住所": "福岡県福岡市早良区早良1-8-1",
        "指定緊急避難場所との住所同一": "1",
        "その他市町村長が必要と認める事項": null,
        "受入対象者": null,
        "備考": ""
      }
    },
    {
      "type": "Feature",
      "geometry": {
        "type": "Point",
        "coordinates": [
          130.335606,
          33.509392
        ]
      },
      "properties": {
        "NO": 71654,
        "共通ID": "E4013000177111",
        "都道府県名及び市町村名": "福岡県福岡市",
        "施設・場所名": "福岡市早良公民館",
        "住所": "福岡県福岡市早良区早良2-9-33",
        "指定緊急避難場所との住所同一": "1",
        "その他市町村長が必要と認める事項": null,
        "受入対象者": null,
        "備考": ""
      }
    },
    {
      "type": "Feature",
      "geometry": {
        "type": "Point",
        "coordinates": [
          130.298511,
          33.497878
        ]
      },
      "properties": {
        "NO": 71655,
        "共通ID": "E4013000178111",
        "都道府県名及び市町村名": "福岡県福岡市",
        "施設・場所名": "福岡市立曲渕小学校",
        "住所": "福岡県福岡市早良区大字曲渕713-1",
        "指定緊急避難場所との住所同一": "1",
        "その他市町村長が必要と認める事項": null,
        "受入対象者": null,
        "備考": ""
      }
    },
    {
      "type": "Feature",
      "geometry": {
        "type": "Point",
        "coordinates": [
          130.364768,
          33.489695
        ]
      },
      "properties": {
        "NO": 71656,
        "共通ID": "E4013000179111",
        "都道府県名及び市町村名": "福岡県福岡市",
        "施設・場所名": "早良高等学校",
        "住所": "福岡県福岡市早良区大字小笠木403",
        "指定緊急避難場所との住所同一": "1",
        "その他市町村長が必要と認める事項": null,
        "受入対象者": null,
        "備考": ""
      }
    },
    {
      "type": "Feature",
      "geometry": {
        "type": "Point",
        "coordinates": [
          130.351555,
          33.486758
        ]
      },
      "properties": {
        "NO": 71657,
        "共通ID": "E4013000181111",
        "都道府県名及び市町村名": "福岡県福岡市",
        "施設・場所名": "福岡市脇山公民館",
        "住所": "福岡県福岡市早良区大字脇山2474-4",
        "指定緊急避難場所との住所同一": "1",
        "その他市町村長が必要と認める事項": null,
        "受入対象者": null,
        "備考": ""
      }
    },
    {
      "type": "Feature",
      "geometry": {
        "type": "Point",
        "coordinates": [
          130.352973,
          33.489101
        ]
      },
      "properties": {
        "NO": 71658,
        "共通ID": "E4013000182111",
        "都道府県名及び市町村名": "福岡県福岡市",
        "施設・場所名": "福岡市立脇山小学校",
        "住所": "福岡県福岡市早良区大字脇山2558",
        "指定緊急避難場所との住所同一": "1",
        "その他市町村長が必要と認める事項": null,
        "受入対象者": null,
        "備考": ""
      }
    },
    {
      "type": "Feature",
      "geometry": {
        "type": "Point",
        "coordinates": [
          130.338531,
          33.544581
        ]
      },
      "properties": {
        "NO": 71659,
        "共通ID": "E4013000183111",
        "都道府県名及び市町村名": "福岡県福岡市",
        "施設・場所名": "福岡市立田隈小学校",
        "住所": "福岡県福岡市早良区田隈2-7-1",
        "指定緊急避難場所との住所同一": "1",
        "その他市町村長が必要と認める事項": null,
        "受入対象者": null,
        "備考": ""
      }
    },
    {
      "type": "Feature",
      "geometry": {
        "type": "Point",
        "coordinates": [
          130.328403,
          33.541904
        ]
      },
      "properties": {
        "NO": 71660,
        "共通ID": "E4013000185111",
        "都道府県名及び市町村名": "福岡県福岡市",
        "施設・場所名": "福岡市田村公民館",
        "住所": "福岡県福岡市早良区田村3-24-22",
        "指定緊急避難場所との住所同一": "1",
        "その他市町村長が必要と認める事項": null,
        "受入対象者": null,
        "備考": ""
      }
    },
    {
      "type": "Feature",
      "geometry": {
        "type": "Point",
        "coordinates": [
          130.330429,
          33.54171
        ]
      },
      "properties": {
        "NO": 71661,
        "共通ID": "E4013000186111",
        "都道府県名及び市町村名": "福岡県福岡市",
        "施設・場所名": "福岡市立田村小学校",
        "住所": "福岡県福岡市早良区田村3-32-1",
        "指定緊急避難場所との住所同一": "1",
        "その他市町村長が必要と認める事項": null,
        "受入対象者": null,
        "備考": ""
      }
    },
    {
      "type": "Feature",
      "geometry": {
        "type": "Point",
        "coordinates": [
          130.335733,
          33.540989
        ]
      },
      "properties": {
        "NO": 71662,
        "共通ID": "E4013000187111",
        "都道府県名及び市町村名": "福岡県福岡市",
        "施設・場所名": "福岡市立田隈中学校",
        "住所": "福岡県福岡市早良区田村4-25-1",
        "指定緊急避難場所との住所同一": "1",
        "その他市町村長が必要と認める事項": null,
        "受入対象者": null,
        "備考": ""
      }
    },
    {
      "type": "Feature",
      "geometry": {
        "type": "Point",
        "coordinates": [
          130.336017,
          33.51845
        ]
      },
      "properties": {
        "NO": 71663,
        "共通ID": "E4013000189111",
        "都道府県名及び市町村名": "福岡県福岡市",
        "施設・場所名": "福岡市入部公民館",
        "住所": "福岡県福岡市早良区東入部2-14-14",
        "指定緊急避難場所との住所同一": "1",
        "その他市町村長が必要と認める事項": null,
        "受入対象者": null,
        "備考": ""
      }
    },
    {
      "type": "Feature",
      "geometry": {
        "type": "Point",
        "coordinates": [
          130.335986,
          33.518808
        ]
      },
      "properties": {
        "NO": 71664,
        "共通ID": "E4013000190111",
        "都道府県名及び市町村名": "福岡県福岡市",
        "施設・場所名": "早良区役所入部出張所",
        "住所": "福岡県福岡市早良区東入部2-14-8",
        "指定緊急避難場所との住所同一": "1",
        "その他市町村長が必要と認める事項": null,
        "受入対象者": null,
        "備考": ""
      }
    },
    {
      "type": "Feature",
      "geometry": {
        "type": "Point",
        "coordinates": [
          130.337789,
          33.521522
        ]
      },
      "properties": {
        "NO": 71665,
        "共通ID": "E4013000191111",
        "都道府県名及び市町村名": "福岡県福岡市",
        "施設・場所名": "福岡市立入部小学校",
        "住所": "福岡県福岡市早良区東入部2-21-15",
        "指定緊急避難場所との住所同一": "1",
        "その他市町村長が必要と認める事項": null,
        "受入対象者": null,
        "備考": ""
      }
    },
    {
      "type": "Feature",
      "geometry": {
        "type": "Point",
        "coordinates": [
          130.336893,
          33.500347
        ]
      },
      "properties": {
        "NO": 71666,
        "共通ID": "E4013000192111",
        "都道府県名及び市町村名": "福岡県福岡市",
        "施設・場所名": "内野人権のまちづくり館",
        "住所": "福岡県福岡市早良区内野2-3-14",
        "指定緊急避難場所との住所同一": "1",
        "その他市町村長が必要と認める事項": null,
        "受入対象者": null,
        "備考": ""
      }
    },
    {
      "type": "Feature",
      "geometry": {
        "type": "Point",
        "coordinates": [
          130.346638,
          33.495888
        ]
      },
      "properties": {
        "NO": 71667,
        "共通ID": "E4013000194111",
        "都道府県名及び市町村名": "福岡県福岡市",
        "施設・場所名": "福岡市立早良中学校",
        "住所": "福岡県福岡市早良区内野7-1-1",
        "指定緊急避難場所との住所同一": "1",
        "その他市町村長が必要と認める事項": null,
        "受入対象者": null,
        "備考": ""
      }
    },
    {
      "type": "Feature",
      "geometry": {
        "type": "Point",
        "coordinates": [
          130.34037,
          33.497304
        ]
      },
      "properties": {
        "NO": 71668,
        "共通ID": "E4013000195111",
        "都道府県名及び市町村名": "福岡県福岡市",
        "施設・場所名": "福岡市内野公民館",
        "住所": "福岡県福岡市早良区内野8-1-5",
        "指定緊急避難場所との住所同一": "1",
        "その他市町村長が必要と認める事項": null,
        "受入対象者": null,
        "備考": ""
      }
    },
    {
      "type": "Feature",
      "geometry": {
        "type": "Point",
        "coordinates": [
          130.337564,
          33.493479
        ]
      },
      "properties": {
        "NO": 71669,
        "共通ID": "E4013000196111",
        "都道府県名及び市町村名": "福岡県福岡市",
        "施設・場所名": "福岡市立内野小学校",
        "住所": "福岡県福岡市早良区内野8-15-1",
        "指定緊急避難場所との住所同一": "1",
        "その他市町村長が必要と認める事項": null,
        "受入対象者": null,
        "備考": ""
      }
    },
    {
      "type": "Feature",
      "geometry": {
        "type": "Point",
        "coordinates": [
          130.335007,
          33.573787
        ]
      },
      "properties": {
        "NO": 71670,
        "共通ID": "E4013000197111",
        "都道府県名及び市町村名": "福岡県福岡市",
        "施設・場所名": "福岡市原北公民館",
        "住所": "福岡県福岡市早良区南庄4-4-11",
        "指定緊急避難場所との住所同一": "1",
        "その他市町村長が必要と認める事項": null,
        "受入対象者": null,
        "備考": ""
      }
    },
    {
      "type": "Feature",
      "geometry": {
        "type": "Point",
        "coordinates": [
          130.334253,
          33.574545
        ]
      },
      "properties": {
        "NO": 71671,
        "共通ID": "E4013000198111",
        "都道府県名及び市町村名": "福岡県福岡市",
        "施設・場所名": "福岡市立原北小学校",
        "住所": "福岡県福岡市早良区南庄4-5-40",
        "指定緊急避難場所との住所同一": "1",
        "その他市町村長が必要と認める事項": null,
        "受入対象者": null,
        "備考": ""
      }
    },
    {
      "type": "Feature",
      "geometry": {
        "type": "Point",
        "coordinates": [
          130.388845,
          33.434587
        ]
      },
      "properties": {
        "NO": 71672,
        "共通ID": "E4013000199111",
        "都道府県名及び市町村名": "福岡県福岡市",
        "施設・場所名": "背振少年自然の家",
        "住所": "福岡県福岡市早良区板屋530",
        "指定緊急避難場所との住所同一": "1",
        "その他市町村長が必要と認める事項": null,
        "受入対象者": null,
        "備考": ""
      }
    },
    {
      "type": "Feature",
      "geometry": {
        "type": "Point",
        "coordinates": [
          130.353987,
          33.566334
        ]
      },
      "properties": {
        "NO": 71673,
        "共通ID": "E4013000200111",
        "都道府県名及び市町村名": "福岡県福岡市",
        "施設・場所名": "福岡市飯倉中央公民館",
        "住所": "福岡県福岡市早良区飯倉2-21-1",
        "指定緊急避難場所との住所同一": "1",
        "その他市町村長が必要と認める事項": null,
        "受入対象者": null,
        "備考": ""
      }
    },
    {
      "type": "Feature",
      "geometry": {
        "type": "Point",
        "coordinates": [
          130.351088,
          33.5661
        ]
      },
      "properties": {
        "NO": 71674,
        "共通ID": "E4013000201111",
        "都道府県名及び市町村名": "福岡県福岡市",
        "施設・場所名": "福岡市立飯倉中央小学校",
        "住所": "福岡県福岡市早良区飯倉3-6-35",
        "指定緊急避難場所との住所同一": "1",
        "その他市町村長が必要と認める事項": null,
        "受入対象者": null,
        "備考": ""
      }
    },
    {
      "type": "Feature",
      "geometry": {
        "type": "Point",
        "coordinates": [
          130.34771,
          33.562735
        ]
      },
      "properties": {
        "NO": 71675,
        "共通ID": "E4013000202111",
        "都道府県名及び市町村名": "福岡県福岡市",
        "施設・場所名": "福岡市立原中学校",
        "住所": "福岡県福岡市早良区飯倉4-34-58",
        "指定緊急避難場所との住所同一": "1",
        "その他市町村長が必要と認める事項": null,
        "受入対象者": null,
        "備考": ""
      }
    },
    {
      "type": "Feature",
      "geometry": {
        "type": "Point",
        "coordinates": [
          130.350539,
          33.557138
        ]
      },
      "properties": {
        "NO": 71676,
        "共通ID": "E4013000203111",
        "都道府県名及び市町村名": "福岡県福岡市",
        "施設・場所名": "福岡市飯倉公民館",
        "住所": "福岡県福岡市早良区飯倉7-29-27",
        "指定緊急避難場所との住所同一": "1",
        "その他市町村長が必要と認める事項": null,
        "受入対象者": null,
        "備考": ""
      }
    },
    {
      "type": "Feature",
      "geometry": {
        "type": "Point",
        "coordinates": [
          130.349857,
          33.557602
        ]
      },
      "properties": {
        "NO": 71677,
        "共通ID": "E4013000204111",
        "都道府県名及び市町村名": "福岡県福岡市",
        "施設・場所名": "福岡市立飯倉小学校",
        "住所": "福岡県福岡市早良区飯倉7-30-9",
        "指定緊急避難場所との住所同一": "1",
        "その他市町村長が必要と認める事項": null,
        "受入対象者": null,
        "備考": ""
      }
    },
    {
      "type": "Feature",
      "geometry": {
        "type": "Point",
        "coordinates": [
          130.347447,
          33.581655
        ]
      },
      "properties": {
        "NO": 71678,
        "共通ID": "E4013000205111",
        "都道府県名及び市町村名": "福岡県福岡市",
        "施設・場所名": "福岡市立早良市民センター",
        "住所": "福岡県福岡市早良区百道2-2-1",
        "指定緊急避難場所との住所同一": "1",
        "その他市町村長が必要と認める事項": null,
        "受入対象者": null,
        "備考": ""
      }
    },
    {
      "type": "Feature",
      "geometry": {
        "type": "Point",
        "coordinates": [
          130.347537,
          33.582077
        ]
      },
      "properties": {
        "NO": 71679,
        "共通ID": "E4013000206111",
        "都道府県名及び市町村名": "福岡県福岡市",
        "施設・場所名": "福岡市ももち体育館",
        "住所": "福岡県福岡市早良区百道2-3-15",
        "指定緊急避難場所との住所同一": "1",
        "その他市町村長が必要と認める事項": null,
        "受入対象者": null,
        "備考": ""
      }
    },
    {
      "type": "Feature",
      "geometry": {
        "type": "Point",
        "coordinates": [
          130.347654,
          33.585363
        ]
      },
      "properties": {
        "NO": 71680,
        "共通ID": "E4013000207111",
        "都道府県名及び市町村名": "福岡県福岡市",
        "施設・場所名": "福岡市立百道小学校",
        "住所": "福岡県福岡市早良区百道3-1-1",
        "指定緊急避難場所との住所同一": "1",
        "その他市町村長が必要と認める事項": null,
        "受入対象者": null,
        "備考": ""
      }
    },
    {
      "type": "Feature",
      "geometry": {
        "type": "Point",
        "coordinates": [
          130.347853,
          33.584573
        ]
      },
      "properties": {
        "NO": 71681,
        "共通ID": "E4013000208111",
        "都道府県名及び市町村名": "福岡県福岡市",
        "施設・場所名": "福岡市百道公民館",
        "住所": "福岡県福岡市早良区百道3-1-2",
        "指定緊急避難場所との住所同一": "1",
        "その他市町村長が必要と認める事項": null,
        "受入対象者": null,
        "備考": ""
      }
    },
    {
      "type": "Feature",
      "geometry": {
        "type": "Point",
        "coordinates": [
          130.345361,
          33.586723
        ]
      },
      "properties": {
        "NO": 71682,
        "共通ID": "E4013000209111",
        "都道府県名及び市町村名": "福岡県福岡市",
        "施設・場所名": "福岡市立百道中学校",
        "住所": "福岡県福岡市早良区百道3-18-11",
        "指定緊急避難場所との住所同一": "1",
        "その他市町村長が必要と認める事項": null,
        "受入対象者": null,
        "備考": ""
      }
    },
    {
      "type": "Feature",
      "geometry": {
        "type": "Point",
        "coordinates": [
          130.354983,
          33.589507
        ]
      },
      "properties": {
        "NO": 71683,
        "共通ID": "E4013000211111",
        "都道府県名及び市町村名": "福岡県福岡市",
        "施設・場所名": "福岡市民防災センター",
        "住所": "福岡県福岡市早良区百道浜1-3-3",
        "指定緊急避難場所との住所同一": "1",
        "その他市町村長が必要と認める事項": null,
        "受入対象者": null,
        "備考": ""
      }
    },
    {
      "type": "Feature",
      "geometry": {
        "type": "Point",
        "coordinates": [
          130.348653,
          33.590554
        ]
      },
      "properties": {
        "NO": 71684,
        "共通ID": "E4013000213111",
        "都道府県名及び市町村名": "福岡県福岡市",
        "施設・場所名": "福岡市百道浜公民館",
        "住所": "福岡県福岡市早良区百道浜3-6-24",
        "指定緊急避難場所との住所同一": "1",
        "その他市町村長が必要と認める事項": null,
        "受入対象者": null,
        "備考": ""
      }
    },
    {
      "type": "Feature",
      "geometry": {
        "type": "Point",
        "coordinates": [
          130.348844,
          33.592316
        ]
      },
      "properties": {
        "NO": 71685,
        "共通ID": "E4013000214111",
        "都道府県名及び市町村名": "福岡県福岡市",
        "施設・場所名": "福岡市立百道浜小学校",
        "住所": "福岡県福岡市早良区百道浜4-24-1",
        "指定緊急避難場所との住所同一": "1",
        "その他市町村長が必要と認める事項": null,
        "受入対象者": null,
        "備考": ""
      }
    },
    {
      "type": "Feature",
      "geometry": {
        "type": "Point",
        "coordinates": [
          130.345926,
          33.545223
        ]
      },
      "properties": {
        "NO": 71686,
        "共通ID": "E4013000215111",
        "都道府県名及び市町村名": "福岡県福岡市",
        "施設・場所名": "福岡市田隈公民館",
        "住所": "福岡県福岡市早良区野芥2-8-1",
        "指定緊急避難場所との住所同一": "1",
        "その他市町村長が必要と認める事項": null,
        "受入対象者": null,
        "備考": ""
      }
    },
    {
      "type": "Feature",
      "geometry": {
        "type": "Point",
        "coordinates": [
          130.341915,
          33.539792
        ]
      },
      "properties": {
        "NO": 71687,
        "共通ID": "E4013000216111",
        "都道府県名及び市町村名": "福岡県福岡市",
        "施設・場所名": "福岡市立野芥小学校",
        "住所": "福岡県福岡市早良区野芥7-16-1",
        "指定緊急避難場所との住所同一": "1",
        "その他市町村長が必要と認める事項": null,
        "受入対象者": null,
        "備考": ""
      }
    },
    {
      "type": "Feature",
      "geometry": {
        "type": "Point",
        "coordinates": [
          130.341149,
          33.538976
        ]
      },
      "properties": {
        "NO": 71688,
        "共通ID": "E4013000217111",
        "都道府県名及び市町村名": "福岡県福岡市",
        "施設・場所名": "福岡市野芥公民館",
        "住所": "福岡県福岡市早良区野芥7-23-20",
        "指定緊急避難場所との住所同一": "1",
        "その他市町村長が必要と認める事項": null,
        "受入対象者": null,
        "備考": ""
      }
    },
    {
      "type": "Feature",
      "geometry": {
        "type": "Point",
        "coordinates": [
          130.333629,
          33.558501
        ]
      },
      "properties": {
        "NO": 71689,
        "共通ID": "E4013000218111",
        "都道府県名及び市町村名": "福岡県福岡市",
        "施設・場所名": "福岡講倫館高等学校",
        "住所": "福岡県福岡市早良区有田3-9-1",
        "指定緊急避難場所との住所同一": "1",
        "その他市町村長が必要と認める事項": null,
        "受入対象者": null,
        "備考": ""
      }
    },
    {
      "type": "Feature",
      "geometry": {
        "type": "Point",
        "coordinates": [
          130.331224,
          33.56095
        ]
      },
      "properties": {
        "NO": 71690,
        "共通ID": "E4013000219111",
        "都道府県名及び市町村名": "福岡県福岡市",
        "施設・場所名": "福岡市立有住小学校",
        "住所": "福岡県福岡市早良区有田7-17-1",
        "指定緊急避難場所との住所同一": "1",
        "その他市町村長が必要と認める事項": null,
        "受入対象者": null,
        "備考": ""
      }
    },
    {
      "type": "Feature",
      "geometry": {
        "type": "Point",
        "coordinates": [
          130.32856,
          33.557534
        ]
      },
      "properties": {
        "NO": 71691,
        "共通ID": "E4013000220111",
        "都道府県名及び市町村名": "福岡県福岡市",
        "施設・場所名": "福岡市立有田小学校",
        "住所": "福岡県福岡市早良区有田8-17-1",
        "指定緊急避難場所との住所同一": "1",
        "その他市町村長が必要と認める事項": null,
        "受入対象者": null,
        "備考": ""
      }
    },
    {
      "type": "Feature",
      "geometry": {
        "type": "Point",
        "coordinates": [
          130.349263,
          33.498265
        ]
      },
      "properties": {
        "NO": 71692,
        "共通ID": "E4013000221111",
        "都道府県名及び市町村名": "福岡県福岡市",
        "施設・場所名": "谷人権のまちづくり館",
        "住所": "福岡県福岡市早良区脇山2-11-1",
        "指定緊急避難場所との住所同一": "1",
        "その他市町村長が必要と認める事項": null,
        "受入対象者": null,
        "備考": ""
      }
    },
    {
      "type": "Feature",
      "geometry": {
        "type": "Point",
        "coordinates": [
          130.385756,
          33.571628
        ]
      },
      "properties": {
        "NO": 71693,
        "共通ID": "E4013000222111",
        "都道府県名及び市町村名": "福岡県福岡市",
        "施設・場所名": "上智福岡中学高等学校",
        "住所": "福岡県福岡市中央区輝国1-10-10",
        "指定緊急避難場所との住所同一": "",
        "その他市町村長が必要と認める事項": null,
        "受入対象者": null,
        "備考": ""
      }
    },
    {
      "type": "Feature",
      "geometry": {
        "type": "Point",
        "coordinates": [
          130.393048,
          33.584119
        ]
      },
      "properties": {
        "NO": 71694,
        "共通ID": "E4013000223111",
        "都道府県名及び市町村名": "福岡県福岡市",
        "施設・場所名": "福岡市立警固小学校",
        "住所": "福岡県福岡市中央区警固1-11-1",
        "指定緊急避難場所との住所同一": "1",
        "その他市町村長が必要と認める事項": null,
        "受入対象者": null,
        "備考": ""
      }
    },
    {
      "type": "Feature",
      "geometry": {
        "type": "Point",
        "coordinates": [
          130.393592,
          33.583539
        ]
      },
      "properties": {
        "NO": 71695,
        "共通ID": "E4013000224111",
        "都道府県名及び市町村名": "福岡県福岡市",
        "施設・場所名": "福岡市警固公民館",
        "住所": "福岡県福岡市中央区警固1-11-2",
        "指定緊急避難場所との住所同一": "1",
        "その他市町村長が必要と認める事項": null,
        "受入対象者": null,
        "備考": ""
      }
    },
    {
      "type": "Feature",
      "geometry": {
        "type": "Point",
        "coordinates": [
          130.388852,
          33.581926
        ]
      },
      "properties": {
        "NO": 71696,
        "共通ID": "E4013000225111",
        "都道府県名及び市町村名": "福岡県福岡市",
        "施設・場所名": "筑紫女学園中学・高等学校",
        "住所": "福岡県福岡市中央区警固2-8-1",
        "指定緊急避難場所との住所同一": "",
        "その他市町村長が必要と認める事項": null,
        "受入対象者": null,
        "備考": ""
      }
    },
    {
      "type": "Feature",
      "geometry": {
        "type": "Point",
        "coordinates": [
          130.391637,
          33.575016
        ]
      },
      "properties": {
        "NO": 71697,
        "共通ID": "E4013000226111",
        "都道府県名及び市町村名": "福岡県福岡市",
        "施設・場所名": "福岡雙葉高等学校",
        "住所": "福岡県福岡市中央区御所ケ谷7-1",
        "指定緊急避難場所との住所同一": "",
        "その他市町村長が必要と認める事項": null,
        "受入対象者": null,
        "備考": ""
      }
    },
    {
      "type": "Feature",
      "geometry": {
        "type": "Point",
        "coordinates": [
          130.366752,
          33.58565
        ]
      },
      "properties": {
        "NO": 71698,
        "共通ID": "E4013000227111",
        "都道府県名及び市町村名": "福岡県福岡市",
        "施設・場所名": "福岡市南当仁公民館",
        "住所": "福岡県福岡市中央区今川2-8-29",
        "指定緊急避難場所との住所同一": "1",
        "その他市町村長が必要と認める事項": null,
        "受入対象者": null,
        "備考": ""
      }
    },
    {
      "type": "Feature",
      "geometry": {
        "type": "Point",
        "coordinates": [
          130.378492,
          33.567179
        ]
      },
      "properties": {
        "NO": 71699,
        "共通ID": "E4013000228111",
        "都道府県名及び市町村名": "福岡県福岡市",
        "施設・場所名": "福岡市笹丘公民館",
        "住所": "福岡県福岡市中央区笹丘1-13-41",
        "指定緊急避難場所との住所同一": "1",
        "その他市町村長が必要と認める事項": null,
        "受入対象者": null,
        "備考": ""
      }
    },
    {
      "type": "Feature",
      "geometry": {
        "type": "Point",
        "coordinates": [
          130.37892,
          33.563717
        ]
      },
      "properties": {
        "NO": 71700,
        "共通ID": "E4013000229111",
        "都道府県名及び市町村名": "福岡県福岡市",
        "施設・場所名": "福岡市立友泉中学校",
        "住所": "福岡県福岡市中央区笹丘1-22-1",
        "指定緊急避難場所との住所同一": "1",
        "その他市町村長が必要と認める事項": null,
        "受入対象者": null,
        "備考": ""
      }
    },
    {
      "type": "Feature",
      "geometry": {
        "type": "Point",
        "coordinates": [
          130.380702,
          33.566519
        ]
      },
      "properties": {
        "NO": 71701,
        "共通ID": "E4013000230111",
        "都道府県名及び市町村名": "福岡県福岡市",
        "施設・場所名": "福岡市立笹丘小学校",
        "住所": "福岡県福岡市中央区笹丘2-25-1",
        "指定緊急避難場所との住所同一": "1",
        "その他市町村長が必要と認める事項": null,
        "受入対象者": null,
        "備考": ""
      }
    },
    {
      "type": "Feature",
      "geometry": {
        "type": "Point",
        "coordinates": [
          130.406801,
          33.584253
        ]
      },
      "properties": {
        "NO": 71702,
        "共通ID": "E4013000231111",
        "都道府県名及び市町村名": "福岡県福岡市",
        "施設・場所名": "福岡市春吉公民館",
        "住所": "福岡県福岡市中央区春吉1-17-13",
        "指定緊急避難場所との住所同一": "1",
        "その他市町村長が必要と認める事項": null,
        "受入対象者": null,
        "備考": ""
      }
    },
    {
      "type": "Feature",
      "geometry": {
        "type": "Point",
        "coordinates": [
          130.407328,
          33.584434
        ]
      },
      "properties": {
        "NO": 71703,
        "共通ID": "E4013000232111",
        "都道府県名及び市町村名": "福岡県福岡市",
        "施設・場所名": "福岡市立春吉小学校",
        "住所": "福岡県福岡市中央区春吉1-17-38",
        "指定緊急避難場所との住所同一": "1",
        "その他市町村長が必要と認める事項": null,
        "受入対象者": null,
        "備考": ""
      }
    },
    {
      "type": "Feature",
      "geometry": {
        "type": "Point",
        "coordinates": [
          130.389818,
          33.559753
        ]
      },
      "properties": {
        "NO": 71704,
        "共通ID": "E4013000233111",
        "都道府県名及び市町村名": "福岡県福岡市",
        "施設・場所名": "法務総合研究所福岡支所",
        "住所": "福岡県福岡市中央区小笹1-22-47",
        "指定緊急避難場所との住所同一": "",
        "その他市町村長が必要と認める事項": null,
        "受入対象者": null,
        "備考": ""
      }
    },
    {
      "type": "Feature",
      "geometry": {
        "type": "Point",
        "coordinates": [
          130.38814,
          33.586374
        ]
      },
      "properties": {
        "NO": 71705,
        "共通ID": "E4013000237111",
        "都道府県名及び市町村名": "福岡県福岡市",
        "施設・場所名": "福岡市赤坂公民館",
        "住所": "福岡県福岡市中央区赤坂2-5-126",
        "指定緊急避難場所との住所同一": "1",
        "その他市町村長が必要と認める事項": null,
        "受入対象者": null,
        "備考": ""
      }
    },
    {
      "type": "Feature",
      "geometry": {
        "type": "Point",
        "coordinates": [
          130.387407,
          33.585691
        ]
      },
      "properties": {
        "NO": 71706,
        "共通ID": "E4013000238111",
        "都道府県名及び市町村名": "福岡県福岡市",
        "施設・場所名": "福岡市立赤坂小学校",
        "住所": "福岡県福岡市中央区赤坂2-5-20",
        "指定緊急避難場所との住所同一": "1",
        "その他市町村長が必要と認める事項": null,
        "受入対象者": null,
        "備考": ""
      }
    },
    {
      "type": "Feature",
      "geometry": {
        "type": "Point",
        "coordinates": [
          130.386242,
          33.585265
        ]
      },
      "properties": {
        "NO": 71707,
        "共通ID": "E4013000239111",
        "都道府県名及び市町村名": "福岡県福岡市",
        "施設・場所名": "福岡市立警固中学校",
        "住所": "福岡県福岡市中央区赤坂2-5-23",
        "指定緊急避難場所との住所同一": "1",
        "その他市町村長が必要と認める事項": null,
        "受入対象者": null,
        "備考": ""
      }
    },
    {
      "type": "Feature",
      "geometry": {
        "type": "Point",
        "coordinates": [
          130.389083,
          33.586305
        ]
      },
      "properties": {
        "NO": 71708,
        "共通ID": "E4013000240111",
        "都道府県名及び市町村名": "福岡県福岡市",
        "施設・場所名": "福岡市立中央体育館",
        "住所": "福岡県福岡市中央区赤坂2-5-5",
        "指定緊急避難場所との住所同一": "1",
        "その他市町村長が必要と認める事項": null,
        "受入対象者": null,
        "備考": ""
      }
    },
    {
      "type": "Feature",
      "geometry": {
        "type": "Point",
        "coordinates": [
          130.388628,
          33.586191
        ]
      },
      "properties": {
        "NO": 71709,
        "共通ID": "E4013000241111",
        "都道府県名及び市町村名": "福岡県福岡市",
        "施設・場所名": "福岡市立中央市民センター",
        "住所": "福岡県福岡市中央区赤坂2-5-8",
        "指定緊急避難場所との住所同一": "1",
        "その他市町村長が必要と認める事項": null,
        "受入対象者": null,
        "備考": ""
      }
    },
    {
      "type": "Feature",
      "geometry": {
        "type": "Point",
        "coordinates": [
          130.37367,
          33.579119
        ]
      },
      "properties": {
        "NO": 71710,
        "共通ID": "E4013000243111",
        "都道府県名及び市町村名": "福岡県福岡市",
        "施設・場所名": "福岡市立草ヶ江小学校",
        "住所": "福岡県福岡市中央区草香江2-3-5",
        "指定緊急避難場所との住所同一": "1",
        "その他市町村長が必要と認める事項": null,
        "受入対象者": null,
        "備考": ""
      }
    },
    {
      "type": "Feature",
      "geometry": {
        "type": "Point",
        "coordinates": [
          130.404793,
          33.576192
        ]
      },
      "properties": {
        "NO": 71711,
        "共通ID": "E4013000244111",
        "都道府県名及び市町村名": "福岡県福岡市",
        "施設・場所名": "福岡市高宮公民館",
        "住所": "福岡県福岡市中央区大宮2-2-11",
        "指定緊急避難場所との住所同一": "1",
        "その他市町村長が必要と認める事項": null,
        "受入対象者": null,
        "備考": ""
      }
    },
    {
      "type": "Feature",
      "geometry": {
        "type": "Point",
        "coordinates": [
          130.380995,
          33.591135
        ]
      },
      "properties": {
        "NO": 71712,
        "共通ID": "E4013000246111",
        "都道府県名及び市町村名": "福岡県福岡市",
        "施設・場所名": "福岡市簀子公民館",
        "住所": "福岡県福岡市中央区大手門3-10-7",
        "指定緊急避難場所との住所同一": "1",
        "その他市町村長が必要と認める事項": null,
        "受入対象者": null,
        "備考": ""
      }
    },
    {
      "type": "Feature",
      "geometry": {
        "type": "Point",
        "coordinates": [
          130.382431,
          33.591499
        ]
      },
      "properties": {
        "NO": 71713,
        "共通ID": "E4013000581111",
        "都道府県名及び市町村名": "福岡県福岡市",
        "施設・場所名": "すのこ体育館棟",
        "住所": "福岡県福岡市中央区大手門3-15-2",
        "指定緊急避難場所との住所同一": "",
        "その他市町村長が必要と認める事項": "",
        "受入対象者": "",
        "備考": ""
      }
    },
    {
      "type": "Feature",
      "geometry": {
        "type": "Point",
        "coordinates": [
          130.394916,
          33.589897
        ]
      },
      "properties": {
        "NO": 71714,
        "共通ID": "E4013000247111",
        "都道府県名及び市町村名": "福岡県福岡市",
        "施設・場所名": "福岡市大名公民館",
        "住所": "福岡県福岡市中央区大名2-6-53",
        "指定緊急避難場所との住所同一": "1",
        "その他市町村長が必要と認める事項": null,
        "受入対象者": null,
        "備考": ""
      }
    },
    {
      "type": "Feature",
      "geometry": {
        "type": "Point",
        "coordinates": [
          130.370414,
          33.584365
        ]
      },
      "properties": {
        "NO": 71715,
        "共通ID": "E4013000249111",
        "都道府県名及び市町村名": "福岡県福岡市",
        "施設・場所名": "福岡市立南当仁小学校",
        "住所": "福岡県福岡市中央区鳥飼2-4-61",
        "指定緊急避難場所との住所同一": "1",
        "その他市町村長が必要と認める事項": null,
        "受入対象者": null,
        "備考": ""
      }
    },
    {
      "type": "Feature",
      "geometry": {
        "type": "Point",
        "coordinates": [
          130.401613,
          33.590249
        ]
      },
      "properties": {
        "NO": 71716,
        "共通ID": "E4013000251111",
        "都道府県名及び市町村名": "福岡県福岡市",
        "施設・場所名": "福岡市庁舎１階ロビー",
        "住所": "福岡県福岡市中央区天神1-8-1",
        "指定緊急避難場所との住所同一": "1",
        "その他市町村長が必要と認める事項": null,
        "受入対象者": null,
        "備考": ""
      }
    },
    {
      "type": "Feature",
      "geometry": {
        "type": "Point",
        "coordinates": [
          130.371616,
          33.591914
        ]
      },
      "properties": {
        "NO": 71717,
        "共通ID": "E4013000254111",
        "都道府県名及び市町村名": "福岡県福岡市",
        "施設・場所名": "福岡市当仁公民館",
        "住所": "福岡県福岡市中央区唐人町3-1-11",
        "指定緊急避難場所との住所同一": "1",
        "その他市町村長が必要と認める事項": null,
        "受入対象者": null,
        "備考": ""
      }
    },
    {
      "type": "Feature",
      "geometry": {
        "type": "Point",
        "coordinates": [
          130.371655,
          33.593068
        ]
      },
      "properties": {
        "NO": 71718,
        "共通ID": "E4013000255111",
        "都道府県名及び市町村名": "福岡県福岡市",
        "施設・場所名": "福岡市立当仁小学校",
        "住所": "福岡県福岡市中央区唐人町3-1-45",
        "指定緊急避難場所との住所同一": "1",
        "その他市町村長が必要と認める事項": null,
        "受入対象者": null,
        "備考": ""
      }
    },
    {
      "type": "Feature",
      "geometry": {
        "type": "Point",
        "coordinates": [
          130.405622,
          33.577259
        ]
      },
      "properties": {
        "NO": 71719,
        "共通ID": "E4013000257111",
        "都道府県名及び市町村名": "福岡県福岡市",
        "施設・場所名": "福岡市立高宮小学校",
        "住所": "福岡県福岡市中央区白金2-15-40",
        "指定緊急避難場所との住所同一": "1",
        "その他市町村長が必要と認める事項": null,
        "受入対象者": null,
        "備考": ""
      }
    },
    {
      "type": "Feature",
      "geometry": {
        "type": "Point",
        "coordinates": [
          130.3912,
          33.592196
        ]
      },
      "properties": {
        "NO": 71720,
        "共通ID": "E4013000258112",
        "都道府県名及び市町村名": "福岡県福岡市",
        "施設・場所名": "福岡市舞鶴公民館",
        "住所": "福岡県福岡市中央区舞鶴2-6-1",
        "指定緊急避難場所との住所同一": "1",
        "その他市町村長が必要と認める事項": null,
        "受入対象者": null,
        "備考": ""
      }
    },
    {
      "type": "Feature",
      "geometry": {
        "type": "Point",
        "coordinates": [
          130.391214,
          33.593081
        ]
      },
      "properties": {
        "NO": 71721,
        "共通ID": "E4013000258111",
        "都道府県名及び市町村名": "福岡県福岡市",
        "施設・場所名": "福岡市立舞鶴小・中学校",
        "住所": "福岡県福岡市中央区舞鶴2-6-1",
        "指定緊急避難場所との住所同一": "1",
        "その他市町村長が必要と認める事項": null,
        "受入対象者": null,
        "備考": ""
      }
    },
    {
      "type": "Feature",
      "geometry": {
        "type": "Point",
        "coordinates": [
          130.368292,
          33.597612
        ]
      },
      "properties": {
        "NO": 71722,
        "共通ID": "E4013000260111",
        "都道府県名及び市町村名": "福岡県福岡市",
        "施設・場所名": "福岡市立福浜小学校",
        "住所": "福岡県福岡市中央区福浜1-2-1",
        "指定緊急避難場所との住所同一": "1",
        "その他市町村長が必要と認める事項": null,
        "受入対象者": null,
        "備考": ""
      }
    },
    {
      "type": "Feature",
      "geometry": {
        "type": "Point",
        "coordinates": [
          130.368751,
          33.596824
        ]
      },
      "properties": {
        "NO": 71723,
        "共通ID": "E4013000261111",
        "都道府県名及び市町村名": "福岡県福岡市",
        "施設・場所名": "福岡市福浜公民館",
        "住所": "福岡県福岡市中央区福浜1-2-2",
        "指定緊急避難場所との住所同一": "1",
        "その他市町村長が必要と認める事項": null,
        "受入対象者": null,
        "備考": ""
      }
    },
    {
      "type": "Feature",
      "geometry": {
        "type": "Point",
        "coordinates": [
          130.364589,
          33.597855
        ]
      },
      "properties": {
        "NO": 71724,
        "共通ID": "E4013000262111",
        "都道府県名及び市町村名": "福岡県福岡市",
        "施設・場所名": "福岡市立当仁中学校",
        "住所": "福岡県福岡市中央区福浜2-7-1",
        "指定緊急避難場所との住所同一": "1",
        "その他市町村長が必要と認める事項": null,
        "受入対象者": null,
        "備考": ""
      }
    },
    {
      "type": "Feature",
      "geometry": {
        "type": "Point",
        "coordinates": [
          130.397681,
          33.576257
        ]
      },
      "properties": {
        "NO": 71725,
        "共通ID": "E4013000263111",
        "都道府県名及び市町村名": "福岡県福岡市",
        "施設・場所名": "福岡中央高等学校",
        "住所": "福岡県福岡市中央区平尾3-20-57",
        "指定緊急避難場所との住所同一": "1",
        "その他市町村長が必要と認める事項": null,
        "受入対象者": null,
        "備考": ""
      }
    },
    {
      "type": "Feature",
      "geometry": {
        "type": "Point",
        "coordinates": [
          130.396242,
          33.575653
        ]
      },
      "properties": {
        "NO": 71726,
        "共通ID": "E4013000264111",
        "都道府県名及び市町村名": "福岡県福岡市",
        "施設・場所名": "福岡市立平尾小学校",
        "住所": "福岡県福岡市中央区平尾3-29-1",
        "指定緊急避難場所との住所同一": "1",
        "その他市町村長が必要と認める事項": null,
        "受入対象者": null,
        "備考": ""
      }
    },
    {
      "type": "Feature",
      "geometry": {
        "type": "Point",
        "coordinates": [
          130.397042,
          33.574897
        ]
      },
      "properties": {
        "NO": 71727,
        "共通ID": "E4013000265111",
        "都道府県名及び市町村名": "福岡県福岡市",
        "施設・場所名": "福岡市平尾公民館",
        "住所": "福岡県福岡市中央区平尾3-29-23",
        "指定緊急避難場所との住所同一": "1",
        "その他市町村長が必要と認める事項": null,
        "受入対象者": null,
        "備考": ""
      }
    },
    {
      "type": "Feature",
      "geometry": {
        "type": "Point",
        "coordinates": [
          130.393804,
          33.565143
        ]
      },
      "properties": {
        "NO": 71728,
        "共通ID": "E4013000267111",
        "都道府県名及び市町村名": "福岡県福岡市",
        "施設・場所名": "福岡市立平尾中学校",
        "住所": "福岡県福岡市中央区平和5-11-1",
        "指定緊急避難場所との住所同一": "1",
        "その他市町村長が必要と認める事項": null,
        "受入対象者": null,
        "備考": ""
      }
    },
    {
      "type": "Feature",
      "geometry": {
        "type": "Point",
        "coordinates": [
          130.394911,
          33.5639
        ]
      },
      "properties": {
        "NO": 71729,
        "共通ID": "E4013000268111",
        "都道府県名及び市町村名": "福岡県福岡市",
        "施設・場所名": "福岡市立小笹小学校",
        "住所": "福岡県福岡市中央区平和5-13-1",
        "指定緊急避難場所との住所同一": "1",
        "その他市町村長が必要と認める事項": null,
        "受入対象者": null,
        "備考": ""
      }
    },
    {
      "type": "Feature",
      "geometry": {
        "type": "Point",
        "coordinates": [
          130.393284,
          33.563687
        ]
      },
      "properties": {
        "NO": 71730,
        "共通ID": "E4013000269111",
        "都道府県名及び市町村名": "福岡県福岡市",
        "施設・場所名": "福岡市小笹公民館",
        "住所": "福岡県福岡市中央区平和5-13-75",
        "指定緊急避難場所との住所同一": "1",
        "その他市町村長が必要と認める事項": null,
        "受入対象者": null,
        "備考": ""
      }
    },
    {
      "type": "Feature",
      "geometry": {
        "type": "Point",
        "coordinates": [
          130.376756,
          33.579427
        ]
      },
      "properties": {
        "NO": 71731,
        "共通ID": "E4013000271111",
        "都道府県名及び市町村名": "福岡県福岡市",
        "施設・場所名": "福岡市草ケ江公民館",
        "住所": "福岡県福岡市中央区六本松1-11-1",
        "指定緊急避難場所との住所同一": "1",
        "その他市町村長が必要と認める事項": null,
        "受入対象者": null,
        "備考": ""
      }
    },
    {
      "type": "Feature",
      "geometry": {
        "type": "Point",
        "coordinates": [
          130.377503,
          33.581553
        ]
      },
      "properties": {
        "NO": 71732,
        "共通ID": "E4013000272111",
        "都道府県名及び市町村名": "福岡県福岡市",
        "施設・場所名": "福岡大学付属大濠中学校・高等学校",
        "住所": "福岡県福岡市中央区六本松1-12-1",
        "指定緊急避難場所との住所同一": "",
        "その他市町村長が必要と認める事項": null,
        "受入対象者": null,
        "備考": ""
      }
    },
    {
      "type": "Feature",
      "geometry": {
        "type": "Point",
        "coordinates": [
          130.4207,
          33.692823
        ]
      },
      "properties": {
        "NO": 71733,
        "共通ID": "E4013000275111",
        "都道府県名及び市町村名": "福岡県福岡市",
        "施設・場所名": "福岡市立和白小学校",
        "住所": "福岡県福岡市東区塩浜1-6-1",
        "指定緊急避難場所との住所同一": "1",
        "その他市町村長が必要と認める事項": null,
        "受入対象者": null,
        "備考": ""
      }
    },
    {
      "type": "Feature",
      "geometry": {
        "type": "Point",
        "coordinates": [
          130.455267,
          33.669551
        ]
      },
      "properties": {
        "NO": 71734,
        "共通ID": "E4013000276111",
        "都道府県名及び市町村名": "福岡県福岡市",
        "施設・場所名": "福岡市立香椎下原小学校",
        "住所": "福岡県福岡市東区下原1-4-1",
        "指定緊急避難場所との住所同一": "1",
        "その他市町村長が必要と認める事項": null,
        "受入対象者": null,
        "備考": ""
      }
    },
    {
      "type": "Feature",
      "geometry": {
        "type": "Point",
        "coordinates": [
          130.455811,
          33.670797
        ]
      },
      "properties": {
        "NO": 71735,
        "共通ID": "E4013000277111",
        "都道府県名及び市町村名": "福岡県福岡市",
        "施設・場所名": "福岡市香椎下原公民館",
        "住所": "福岡県福岡市東区下原1-4-2",
        "指定緊急避難場所との住所同一": "1",
        "その他市町村長が必要と認める事項": null,
        "受入対象者": null,
        "備考": ""
      }
    },
    {
      "type": "Feature",
      "geometry": {
        "type": "Point",
        "coordinates": [
          130.430079,
          33.615955
        ]
      },
      "properties": {
        "NO": 71736,
        "共通ID": "E4013000279111",
        "都道府県名及び市町村名": "福岡県福岡市",
        "施設・場所名": "福岡市立筥松小学校",
        "住所": "福岡県福岡市東区郷口町16-1",
        "指定緊急避難場所との住所同一": "1",
        "その他市町村長が必要と認める事項": null,
        "受入対象者": null,
        "備考": ""
      }
    },
    {
      "type": "Feature",
      "geometry": {
        "type": "Point",
        "coordinates": [
          130.430604,
          33.621005
        ]
      },