{
  "type": "FeatureCollection",
  "name": "402044",
  "features": [
    {
      "type": "Feature",
      "geometry": {
        "type": "Point",
        "coordinates": [
          130.731601,
          33.74124
        ]
      },
      "properties": {
        "NO": 72165,
        "共通ID": "E4020400001111",
        "都道府県名及び市町村名": "福岡県直方市",
        "施設・場所名": "遠賀川水辺館",
        "住所": "福岡県直方市溝堀1-1-1",
        "指定緊急避難場所との住所同一": "1",
        "その他市町村長が必要と認める事項": null,
        "受入対象者": null,
        "備考": ""
      }
    },
    {
      "type": "Feature",
      "geometry": {
        "type": "Point",
        "coordinates": [
          130.726784,
          33.741313
        ]
      },
      "properties": {
        "NO": 72166,
        "共通ID": "E4020400002111",
        "都道府県名及び市町村名": "福岡県直方市",
        "施設・場所名": "直方歳時館",
        "住所": "福岡県直方市新町1-1-18",
        "指定緊急避難場所との住所同一": "1",
        "その他市町村長が必要と認める事項": null,
        "受入対象者": null,
        "備考": ""
      }
    },
    {
      "type": "Feature",
      "geometry": {
        "type": "Point",
        "coordinates": [
          130.725829,
          33.735937
        ]
      },
      "properties": {
        "NO": 72167,
        "共通ID": "E4020400003111",
        "都道府県名及び市町村名": "福岡県直方市",
        "施設・場所名": "直方南小学校（屋内運動場）",
        "住所": "福岡県直方市新町3-3-55",
        "指定緊急避難場所との住所同一": "1",
        "その他市町村長が必要と認める事項": null,
        "受入対象者": null,
        "備考": ""
      }
    },
    {
      "type": "Feature",
      "geometry": {
        "type": "Point",
        "coordinates": [
          130.764193,
          33.736624
        ]
      },
      "properties": {
        "NO": 72168,
        "共通ID": "E4020400005111",
        "都道府県名及び市町村名": "福岡県直方市",
        "施設・場所名": "永満寺公民館",
        "住所": "福岡県直方市大字永満寺2088",
        "指定緊急避難場所との住所同一": "1",
        "その他市町村長が必要と認める事項": null,
        "受入対象者": null,
        "備考": ""
      }
    },
    {
      "type": "Feature",
      "geometry": {
        "type": "Point",
        "coordinates": [
          130.761679,
          33.729086
        ]
      },
      "properties": {
        "NO": 72169,
        "共通ID": "E4020400006111",
        "都道府県名及び市町村名": "福岡県直方市",
        "施設・場所名": "福地小学校（屋内運動場）",
        "住所": "福岡県直方市大字永満寺2427",
        "指定緊急避難場所との住所同一": "1",
        "その他市町村長が必要と認める事項": null,
        "受入対象者": null,
        "備考": ""
      }
    },
    {
      "type": "Feature",
      "geometry": {
        "type": "Point",
        "coordinates": [
          130.741525,
          33.730748
        ]
      },
      "properties": {
        "NO": 72170,
        "共通ID": "E4020400007111",
        "都道府県名及び市町村名": "福岡県直方市",
        "施設・場所名": "光福寺",
        "住所": "福岡県直方市大字下境1638",
        "指定緊急避難場所との住所同一": "1",
        "その他市町村長が必要と認める事項": null,
        "受入対象者": null,
        "備考": ""
      }
    },
    {
      "type": "Feature",
      "geometry": {
        "type": "Point",
        "coordinates": [
          130.740048,
          33.729013
        ]
      },
      "properties": {
        "NO": 72171,
        "共通ID": "E4020400008111",
        "都道府県名及び市町村名": "福岡県直方市",
        "施設・場所名": "下境小学校（屋内運動場）",
        "住所": "福岡県直方市大字下境1820",
        "指定緊急避難場所との住所同一": "1",
        "その他市町村長が必要と認める事項": null,
        "受入対象者": null,
        "備考": ""
      }
    },
    {
      "type": "Feature",
      "geometry": {
        "type": "Point",
        "coordinates": [
          130.739681,
          33.729699
        ]
      },
      "properties": {
        "NO": 72172,
        "共通ID": "E4020400009111",
        "都道府県名及び市町村名": "福岡県直方市",
        "施設・場所名": "直方第一中学校（屋内運動場）",
        "住所": "福岡県直方市大字下境1892-1",
        "指定緊急避難場所との住所同一": "1",
        "その他市町村長が必要と認める事項": null,
        "受入対象者": null,
        "備考": ""
      }
    },
    {
      "type": "Feature",
      "geometry": {
        "type": "Point",
        "coordinates": [
          130.734842,
          33.735564
        ]
      },
      "properties": {
        "NO": 72173,
        "共通ID": "E4020400010111",
        "都道府県名及び市町村名": "福岡県直方市",
        "施設・場所名": "中央隣保館",
        "住所": "福岡県直方市大字下境2014-1",
        "指定緊急避難場所との住所同一": "1",
        "その他市町村長が必要と認める事項": null,
        "受入対象者": null,
        "備考": ""
      }
    },
    {
      "type": "Feature",
      "geometry": {
        "type": "Point",
        "coordinates": [
          130.729582,
          33.718338
        ]
      },
      "properties": {
        "NO": 72174,
        "共通ID": "E4020400011111",
        "都道府県名及び市町村名": "福岡県直方市",
        "施設・場所名": "下境第三集会所",
        "住所": "福岡県直方市大字下境3910-28",
        "指定緊急避難場所との住所同一": "1",
        "その他市町村長が必要と認める事項": null,
        "受入対象者": null,
        "備考": ""
      }
    },
    {
      "type": "Feature",
      "geometry": {
        "type": "Point",
        "coordinates": [
          130.732312,
          33.719849
        ]
      },
      "properties": {
        "NO": 72175,
        "共通ID": "E4020400012111",
        "都道府県名及び市町村名": "福岡県直方市",
        "施設・場所名": "下境三区公民館",
        "住所": "福岡県直方市大字下境3910-3",
        "指定緊急避難場所との住所同一": "1",
        "その他市町村長が必要と認める事項": null,
        "受入対象者": null,
        "備考": ""
      }
    },
    {
      "type": "Feature",
      "geometry": {
        "type": "Point",
        "coordinates": [
          130.753044,
          33.731585
        ]
      },
      "properties": {
        "NO": 72176,
        "共通ID": "E4020400013111",
        "都道府県名及び市町村名": "福岡県直方市",
        "施設・場所名": "直方特別支援学校（体育館）",
        "住所": "福岡県直方市大字下境410-2",
        "指定緊急避難場所との住所同一": "1",
        "その他市町村長が必要と認める事項": null,
        "受入対象者": null,
        "備考": ""
      }
    },
    {
      "type": "Feature",
      "geometry": {
        "type": "Point",
        "coordinates": [
          130.733833,
          33.72843
        ]
      },
      "properties": {
        "NO": 72177,
        "共通ID": "E4020400014111",
        "都道府県名及び市町村名": "福岡県直方市",
        "施設・場所名": "下境四区公民館",
        "住所": "福岡県直方市大字下境4114",
        "指定緊急避難場所との住所同一": "1",
        "その他市町村長が必要と認める事項": null,
        "受入対象者": null,
        "備考": ""
      }
    },
    {
      "type": "Feature",
      "geometry": {
        "type": "Point",
        "coordinates": [
          130.704419,
          33.757433
        ]
      },
      "properties": {
        "NO": 72178,
        "共通ID": "E4020400015111",
        "都道府県名及び市町村名": "福岡県直方市",
        "施設・場所名": "真照寺",
        "住所": "福岡県直方市大字下新入1672-1",
        "指定緊急避難場所との住所同一": "1",
        "その他市町村長が必要と認める事項": null,
        "受入対象者": null,
        "備考": ""
      }
    },
    {
      "type": "Feature",
      "geometry": {
        "type": "Point",
        "coordinates": [
          130.734888,
          33.760883
        ]
      },
      "properties": {
        "NO": 72179,
        "共通ID": "E4020400016111",
        "都道府県名及び市町村名": "福岡県直方市",
        "施設・場所名": "感田小学校（屋内運動場）",
        "住所": "福岡県直方市大字感田1160",
        "指定緊急避難場所との住所同一": "1",
        "その他市町村長が必要と認める事項": null,
        "受入対象者": null,
        "備考": ""
      }
    },
    {
      "type": "Feature",
      "geometry": {
        "type": "Point",
        "coordinates": [
          130.732783,
          33.767826
        ]
      },
      "properties": {
        "NO": 72180,
        "共通ID": "E4020400017111",
        "都道府県名及び市町村名": "福岡県直方市",
        "施設・場所名": "感田第一集会場",
        "住所": "福岡県直方市大字感田1472-4",
        "指定緊急避難場所との住所同一": "1",
        "その他市町村長が必要と認める事項": null,
        "受入対象者": null,
        "備考": ""
      }
    },
    {
      "type": "Feature",
      "geometry": {
        "type": "Point",
        "coordinates": [
          130.723144,
          33.750406
        ]
      },
      "properties": {
        "NO": 72181,
        "共通ID": "E4020400018111",
        "都道府県名及び市町村名": "福岡県直方市",
        "施設・場所名": "ユメニティのおがた",
        "住所": "福岡県直方市大字山部364-4",
        "指定緊急避難場所との住所同一": "1",
        "その他市町村長が必要と認める事項": null,
        "受入対象者": null,
        "備考": ""
      }
    },
    {
      "type": "Feature",
      "geometry": {
        "type": "Point",
        "coordinates": [
          130.723335,
          33.744931
        ]
      },
      "properties": {
        "NO": 72182,
        "共通ID": "E4020400019111",
        "都道府県名及び市町村名": "福岡県直方市",
        "施設・場所名": "直方市民体育センター",
        "住所": "福岡県直方市大字山部599-2",
        "指定緊急避難場所との住所同一": "1",
        "その他市町村長が必要と認める事項": null,
        "受入対象者": null,
        "備考": ""
      }
    },
    {
      "type": "Feature",
      "geometry": {
        "type": "Point",
        "coordinates": [
          130.717136,
          33.746937
        ]
      },
      "properties": {
        "NO": 72183,
        "共通ID": "E4020400020111",
        "都道府県名及び市町村名": "福岡県直方市",
        "施設・場所名": "鞍手高等学校（体育館・武道場・鈴懸ホール）",
        "住所": "福岡県直方市大字山部810-7",
        "指定緊急避難場所との住所同一": "1",
        "その他市町村長が必要と認める事項": null,
        "受入対象者": null,
        "備考": ""
      }
    },
    {
      "type": "Feature",
      "geometry": {
        "type": "Point",
        "coordinates": [
          130.753051,
          33.727248
        ]
      },
      "properties": {
        "NO": 72184,
        "共通ID": "E4020400021111",
        "都道府県名及び市町村名": "福岡県直方市",
        "施設・場所名": "特別養護老人ホーム　すみれそう　のおがた",
        "住所": "福岡県直方市大字上境2027-1",
        "指定緊急避難場所との住所同一": "1",
        "その他市町村長が必要と認める事項": null,
        "受入対象者": null,
        "備考": ""
      }
    },
    {
      "type": "Feature",
      "geometry": {
        "type": "Point",
        "coordinates": [
          130.71037,
          33.753776
        ]
      },
      "properties": {
        "NO": 72185,
        "共通ID": "E4020400022111",
        "都道府県名及び市町村名": "福岡県直方市",
        "施設・場所名": "新入小学校（屋内運動場）",
        "住所": "福岡県直方市大字上新入2081",
        "指定緊急避難場所との住所同一": "1",
        "その他市町村長が必要と認める事項": null,
        "受入対象者": null,
        "備考": ""
      }
    },
    {
      "type": "Feature",
      "geometry": {
        "type": "Point",
        "coordinates": [
          130.714633,
          33.743445
        ]
      },
      "properties": {
        "NO": 72186,
        "共通ID": "E4020400023111",
        "都道府県名及び市町村名": "福岡県直方市",
        "施設・場所名": "直方市火葬場　天翔館",
        "住所": "福岡県直方市大字上新入2430-14",
        "指定緊急避難場所との住所同一": "1",
        "その他市町村長が必要と認める事項": null,
        "受入対象者": null,
        "備考": ""
      }
    },
    {
      "type": "Feature",
      "geometry": {
        "type": "Point",
        "coordinates": [
          130.763792,
          33.760937
        ]
      },
      "properties": {
        "NO": 72187,
        "共通ID": "E4020400024111",
        "都道府県名及び市町村名": "福岡県直方市",
        "施設・場所名": "上頓野小学校（屋内運動場）",
        "住所": "福岡県直方市大字上頓野2510",
        "指定緊急避難場所との住所同一": "1",
        "その他市町村長が必要と認める事項": null,
        "受入対象者": null,
        "備考": ""
      }
    },
    {
      "type": "Feature",
      "geometry": {
        "type": "Point",
        "coordinates": [
          130.76767,
          33.766011
        ]
      },
      "properties": {
        "NO": 72188,
        "共通ID": "E4020400025111",
        "都道府県名及び市町村名": "福岡県直方市",
        "施設・場所名": "上頓野校区自治公民館",
        "住所": "福岡県直方市大字上頓野2672",
        "指定緊急避難場所との住所同一": "1",
        "その他市町村長が必要と認める事項": null,
        "受入対象者": null,
        "備考": ""
      }
    },
    {
      "type": "Feature",
      "geometry": {
        "type": "Point",
        "coordinates": [
          130.698196,
          33.787293
        ]
      },
      "properties": {
        "NO": 72189,
        "共通ID": "E4020400026111",
        "都道府県名及び市町村名": "福岡県直方市",
        "施設・場所名": "願照寺",
        "住所": "福岡県直方市大字植木2298",
        "指定緊急避難場所との住所同一": "1",
        "その他市町村長が必要と認める事項": null,
        "受入対象者": null,
        "備考": ""
      }
    },
    {
      "type": "Feature",
      "geometry": {
        "type": "Point",
        "coordinates": [
          130.707099,
          33.76736
        ]
      },
      "properties": {
        "NO": 72190,
        "共通ID": "E4020400027111",
        "都道府県名及び市町村名": "福岡県直方市",
        "施設・場所名": "植木中学校（屋内運動場）",
        "住所": "福岡県直方市大字植木261-2",
        "指定緊急避難場所との住所同一": "1",
        "その他市町村長が必要と認める事項": null,
        "受入対象者": null,
        "備考": ""
      }
    },
    {
      "type": "Feature",
      "geometry": {
        "type": "Point",
        "coordinates": [
          130.714981,
          33.776395
        ]
      },
      "properties": {
        "NO": 72191,
        "共通ID": "E4020400028111",
        "都道府県名及び市町村名": "福岡県直方市",
        "施設・場所名": "植木小学校（屋内運動場）",
        "住所": "福岡県直方市大字植木3207",
        "指定緊急避難場所との住所同一": "1",
        "その他市町村長が必要と認める事項": null,
        "受入対象者": null,
        "備考": ""
      }
    },
    {
      "type": "Feature",
      "geometry": {
        "type": "Point",
        "coordinates": [
          130.706908,
          33.771616
        ]
      },
      "properties": {
        "NO": 72192,
        "共通ID": "E4020400029111",
        "都道府県名及び市町村名": "福岡県直方市",
        "施設・場所名": "代行寺",
        "住所": "福岡県直方市大字植木749",
        "指定緊急避難場所との住所同一": "1",
        "その他市町村長が必要と認める事項": null,
        "受入対象者": null,
        "備考": ""
      }
    },
    {
      "type": "Feature",
      "geometry": {
        "type": "Point",
        "coordinates": [
          130.730443,
          33.729329
        ]
      },
      "properties": {
        "NO": 72193,
        "共通ID": "E4020400030111",
        "都道府県名及び市町村名": "福岡県直方市",
        "施設・場所名": "直方自動車学校",
        "住所": "福岡県直方市大字赤地1",
        "指定緊急避難場所との住所同一": "1",
        "その他市町村長が必要と認める事項": null,
        "受入対象者": null,
        "備考": ""
      }
    },
    {
      "type": "Feature",
      "geometry": {
        "type": "Point",
        "coordinates": [
          130.730775,
          33.757333
        ]
      },
      "properties": {
        "NO": 72194,
        "共通ID": "E4020400031111",
        "都道府県名及び市町村名": "福岡県直方市",
        "施設・場所名": "直方市汚泥再生処理センター",
        "住所": "福岡県直方市大字知古189-1",
        "指定緊急避難場所との住所同一": "1",
        "その他市町村長が必要と認める事項": "",
        "受入対象者": "",
        "備考": ""
      }
    },
    {
      "type": "Feature",
      "geometry": {
        "type": "Point",
        "coordinates": [
          130.723206,
          33.757033
        ]
      },
      "properties": {
        "NO": 72195,
        "共通ID": "E4020400032111",
        "都道府県名及び市町村名": "福岡県直方市",
        "施設・場所名": "直鞍農業協同組合",
        "住所": "福岡県直方市大字知古2-3-4",
        "指定緊急避難場所との住所同一": "1",
        "その他市町村長が必要と認める事項": null,
        "受入対象者": null,
        "備考": ""
      }
    },
    {
      "type": "Feature",
      "geometry": {
        "type": "Point",
        "coordinates": [
          130.721225,
          33.763018
        ]
      },
      "properties": {
        "NO": 72196,
        "共通ID": "E4020400033111",
        "都道府県名及び市町村名": "福岡県直方市",
        "施設・場所名": "直方第三中学校（屋内運動場）",
        "住所": "福岡県直方市大字知古960",
        "指定緊急避難場所との住所同一": "1",
        "その他市町村長が必要と認める事項": null,
        "受入対象者": null,
        "備考": ""
      }
    },
    {
      "type": "Feature",
      "geometry": {
        "type": "Point",
        "coordinates": [
          130.74013,
          33.718614
        ]
      },
      "properties": {
        "NO": 72197,
        "共通ID": "E4020400034111",
        "都道府県名及び市町村名": "福岡県直方市",
        "施設・場所名": "中泉小学校（屋内運動場）",
        "住所": "福岡県直方市大字中泉848-3",
        "指定緊急避難場所との住所同一": "1",
        "その他市町村長が必要と認める事項": null,
        "受入対象者": null,
        "備考": ""
      }
    },
    {
      "type": "Feature",
      "geometry": {
        "type": "Point",
        "coordinates": [
          130.746143,
          33.71819
        ]
      },
      "properties": {
        "NO": 72198,
        "共通ID": "E4020400035111",
        "都道府県名及び市町村名": "福岡県直方市",
        "施設・場所名": "清光寺",
        "住所": "福岡県直方市大字中泉91",
        "指定緊急避難場所との住所同一": "1",
        "その他市町村長が必要と認める事項": null,
        "受入対象者": null,
        "備考": ""
      }
    },
    {
      "type": "Feature",
      "geometry": {
        "type": "Point",
        "coordinates": [
          130.72072,
          33.741696
        ]
      },
      "properties": {
        "NO": 72199,
        "共通ID": "E4020400036111",
        "都道府県名及び市町村名": "福岡県直方市",
        "施設・場所名": "直方西小学校（屋内運動場）",
        "住所": "福岡県直方市大字直方666",
        "指定緊急避難場所との住所同一": "1",
        "その他市町村長が必要と認める事項": null,
        "受入対象者": null,
        "備考": ""
      }
    },
    {
      "type": "Feature",
      "geometry": {
        "type": "Point",
        "coordinates": [
          130.725372,
          33.741098
        ]
      },
      "properties": {
        "NO": 72200,
        "共通ID": "E4020400037111",
        "都道府県名及び市町村名": "福岡県直方市",
        "施設・場所名": "直方市体育館",
        "住所": "福岡県直方市大字直方674-25",
        "指定緊急避難場所との住所同一": "1",
        "その他市町村長が必要と認める事項": null,
        "受入対象者": null,
        "備考": ""
      }
    },
    {
      "type": "Feature",
      "geometry": {
        "type": "Point",
        "coordinates": [
          130.755279,
          33.758941
        ]
      },
      "properties": {
        "NO": 72201,
        "共通ID": "E4020400038111",
        "都道府県名及び市町村名": "福岡県直方市",
        "施設・場所名": "新中原公民館",
        "住所": "福岡県直方市大字頓野1193-4",
        "指定緊急避難場所との住所同一": "1",
        "その他市町村長が必要と認める事項": null,
        "受入対象者": null,
        "備考": ""
      }
    },
    {
      "type": "Feature",
      "geometry": {
        "type": "Point",
        "coordinates": [
          130.753439,
          33.754625
        ]
      },
      "properties": {
        "NO": 72202,
        "共通ID": "E4020400039111",
        "都道府県名及び市町村名": "福岡県直方市",
        "施設・場所名": "頓野公民館",
        "住所": "福岡県直方市大字頓野1685-4",
        "指定緊急避難場所との住所同一": "1",
        "その他市町村長が必要と認める事項": null,
        "受入対象者": null,
        "備考": ""
      }
    },
    {
      "type": "Feature",
      "geometry": {
        "type": "Point",
        "coordinates": [
          130.747558,
          33.748883
        ]
      },
      "properties": {
        "NO": 72203,
        "共通ID": "E4020400040111",
        "都道府県名及び市町村名": "福岡県直方市",
        "施設・場所名": "直方東小学校（屋内運動場）",
        "住所": "福岡県直方市大字頓野2095-1",
        "指定緊急避難場所との住所同一": "1",
        "その他市町村長が必要と認める事項": null,
        "受入対象者": null,
        "備考": ""
      }
    },
    {
      "type": "Feature",
      "geometry": {
        "type": "Point",
        "coordinates": [
          130.741859,
          33.744538
        ]
      },
      "properties": {
        "NO": 72204,
        "共通ID": "E4020400041111",
        "都道府県名及び市町村名": "福岡県直方市",
        "施設・場所名": "天理教筑紫大教会",
        "住所": "福岡県直方市大字頓野3090",
        "指定緊急避難場所との住所同一": "1",
        "その他市町村長が必要と認める事項": null,
        "受入対象者": null,
        "備考": ""
      }
    },
    {
      "type": "Feature",
      "geometry": {
        "type": "Point",
        "coordinates": [
          130.740611,
          33.745391
        ]
      },
      "properties": {
        "NO": 72205,
        "共通ID": "E4020400042111",
        "都道府県名及び市町村名": "福岡県直方市",
        "施設・場所名": "直方高等学校（武道場）",
        "住所": "福岡県直方市大字頓野3459-2",
        "指定緊急避難場所との住所同一": "1",
        "その他市町村長が必要と認める事項": null,
        "受入対象者": null,
        "備考": ""
      }
    },
    {
      "type": "Feature",
      "geometry": {
        "type": "Point",
        "coordinates": [
          130.741228,
          33.746377
        ]
      },
      "properties": {
        "NO": 72206,
        "共通ID": "E4020400042112",
        "都道府県名及び市町村名": "福岡県直方市",
        "施設・場所名": "直方高等学校（講堂）",
        "住所": "福岡県直方市大字頓野3459-2",
        "指定緊急避難場所との住所同一": "1",
        "その他市町村長が必要と認める事項": null,
        "受入対象者": null,
        "備考": ""
      }
    },
    {
      "type": "Feature",
      "geometry": {
        "type": "Point",
        "coordinates": [
          130.76297,
          33.749077
        ]
      },
      "properties": {
        "NO": 72207,
        "共通ID": "E4020400050111",
        "都道府県名及び市町村名": "福岡県直方市",
        "施設・場所名": "明幸学園",
        "住所": "福岡県直方市大字頓野368-1",
        "指定緊急避難場所との住所同一": "1",
        "その他市町村長が必要と認める事項": "",
        "受入対象者": "",
        "備考": ""
      }
    },
    {
      "type": "Feature",
      "geometry": {
        "type": "Point",
        "coordinates": [
          130.74486,
          33.753445
        ]
      },
      "properties": {
        "NO": 72208,
        "共通ID": "E4020400043111",
        "都道府県名及び市町村名": "福岡県直方市",
        "施設・場所名": "筑豊高等学校（体育館）",
        "住所": "福岡県直方市大字頓野4019-2",
        "指定緊急避難場所との住所同一": "1",
        "その他市町村長が必要と認める事項": null,
        "受入対象者": null,
        "備考": ""
      }
    },
    {
      "type": "Feature",
      "geometry": {
        "type": "Point",
        "coordinates": [
          130.737351,
          33.752869
        ]
      },
      "properties": {
        "NO": 72209,
        "共通ID": "E4020400044111",
        "都道府県名及び市町村名": "福岡県直方市",
        "施設・場所名": "直方第二中学校（屋内運動場）",
        "住所": "福岡県直方市大字頓野4082",
        "指定緊急避難場所との住所同一": "1",
        "その他市町村長が必要と認める事項": null,
        "受入対象者": null,
        "備考": ""
      }
    },
    {
      "type": "Feature",
      "geometry": {
        "type": "Point",
        "coordinates": [
          130.730121,
          33.746718
        ]
      },
      "properties": {
        "NO": 72210,
        "共通ID": "E4020400047112",
        "都道府県名及び市町村名": "福岡県直方市",
        "施設・場所名": "直方市中央公民館",
        "住所": "福岡県直方市津田町7-20",
        "指定緊急避難場所との住所同一": "1",
        "その他市町村長が必要と認める事項": null,
        "受入対象者": null,
        "備考": ""
      }
    },
    {
      "type": "Feature",
      "geometry": {
        "type": "Point",
        "coordinates": [
          130.728648,
          33.752048
        ]
      },
      "properties": {
        "NO": 72211,
        "共通ID": "E4020400048111",
        "都道府県名及び市町村名": "福岡県直方市",
        "施設・場所名": "大和青藍高等学校（研心館なでしこホール）",
        "住所": "福岡県直方市日吉町10-12",
        "指定緊急避難場所との住所同一": "1",
        "その他市町村長が必要と認める事項": null,
        "受入対象者": null,
        "備考": ""
      }
    },
    {
      "type": "Feature",
      "geometry": {
        "type": "Point",
        "coordinates": [
          130.72751,
          33.752563
        ]
      },
      "properties": {
        "NO": 72212,
        "共通ID": "E4020400049111",
        "都道府県名及び市町村名": "福岡県直方市",
        "施設・場所名": "直方北小学校（屋内運動場）",
        "住所": "福岡県直方市日吉町7-1",
        "指定緊急避難場所との住所同一": "1",
        "その他市町村長が必要と認める事項": null,
        "受入対象者": null,
        "備考": ""
      }
    }
  ]
}