{
  "type": "FeatureCollection",
  "name": "402133",
  "features": [
    {
      "type": "Feature",
      "geometry": {
        "type": "Point",
        "coordinates": [
          131.029942,
          33.704688
        ]
      },
      "properties": {
        "NO": 72430,
        "共通ID": "E4021300001121",
        "都道府県名及び市町村名": "福岡県行橋市",
        "施設・場所名": "社会福祉法人清風会石並園",
        "住所": "福岡県行橋市稲童3927",
        "指定緊急避難場所との住所同一": "",
        "その他市町村長が必要と認める事項": "",
        "受入対象者": "要配慮者及びその介助者",
        "備考": ""
      }
    },
    {
      "type": "Feature",
      "geometry": {
        "type": "Point",
        "coordinates": [
          130.972049,
          33.739776
        ]
      },
      "properties": {
        "NO": 72431,
        "共通ID": "E4021300002111",
        "都道府県名及び市町村名": "福岡県行橋市",
        "施設・場所名": "行橋北公民館",
        "住所": "福岡県行橋市行事3-17-50",
        "指定緊急避難場所との住所同一": "",
        "その他市町村長が必要と認める事項": "",
        "受入対象者": "",
        "備考": ""
      }
    },
    {
      "type": "Feature",
      "geometry": {
        "type": "Point",
        "coordinates": [
          130.971079,
          33.739778
        ]
      },
      "properties": {
        "NO": 72432,
        "共通ID": "E4021300004111",
        "都道府県名及び市町村名": "福岡県行橋市",
        "施設・場所名": "行橋北小学校",
        "住所": "福岡県行橋市行事6-20-1",
        "指定緊急避難場所との住所同一": "",
        "その他市町村長が必要と認める事項": "",
        "受入対象者": "",
        "備考": ""
      }
    },
    {
      "type": "Feature",
      "geometry": {
        "type": "Point",
        "coordinates": [
          130.969538,
          33.730318
        ]
      },
      "properties": {
        "NO": 72433,
        "共通ID": "E4021300005111",
        "都道府県名及び市町村名": "福岡県行橋市",
        "施設・場所名": "行橋公民館",
        "住所": "福岡県行橋市西宮市2-1-7",
        "指定緊急避難場所との住所同一": "",
        "その他市町村長が必要と認める事項": "",
        "受入対象者": "",
        "備考": ""
      }
    },
    {
      "type": "Feature",
      "geometry": {
        "type": "Point",
        "coordinates": [
          130.974579,
          33.704884
        ]
      },
      "properties": {
        "NO": 72434,
        "共通ID": "E4021300009112",
        "都道府県名及び市町村名": "福岡県行橋市",
        "施設・場所名": "泉中学校",
        "住所": "福岡県行橋市西泉5-7-1",
        "指定緊急避難場所との住所同一": "1",
        "その他市町村長が必要と認める事項": "",
        "受入対象者": "",
        "備考": ""
      }
    },
    {
      "type": "Feature",
      "geometry": {
        "type": "Point",
        "coordinates": [
          130.975271,
          33.709167
        ]
      },
      "properties": {
        "NO": 72435,
        "共通ID": "E4021300011111",
        "都道府県名及び市町村名": "福岡県行橋市",
        "施設・場所名": "泉公民館",
        "住所": "福岡県行橋市泉4-2-1",
        "指定緊急避難場所との住所同一": "",
        "その他市町村長が必要と認める事項": "",
        "受入対象者": "",
        "備考": ""
      }
    },
    {
      "type": "Feature",
      "geometry": {
        "type": "Point",
        "coordinates": [
          130.977373,
          33.709246
        ]
      },
      "properties": {
        "NO": 72436,
        "共通ID": "E4021300013111",
        "都道府県名及び市町村名": "福岡県行橋市",
        "施設・場所名": "泉小学校",
        "住所": "福岡県行橋市泉中央4-1-1",
        "指定緊急避難場所との住所同一": "",
        "その他市町村長が必要と認める事項": "",
        "受入対象者": "",
        "備考": ""
      }
    },
    {
      "type": "Feature",
      "geometry": {
        "type": "Point",
        "coordinates": [
          130.98135,
          33.730578
        ]
      },
      "properties": {
        "NO": 72437,
        "共通ID": "E4021300014111",
        "都道府県名及び市町村名": "福岡県行橋市",
        "施設・場所名": "行橋中学校",
        "住所": "福岡県行橋市大橋1-11-1",
        "指定緊急避難場所との住所同一": "",
        "その他市町村長が必要と認める事項": "",
        "受入対象者": "",
        "備考": ""
      }
    },
    {
      "type": "Feature",
      "geometry": {
        "type": "Point",
        "coordinates": [
          130.979841,
          33.730407
        ]
      },
      "properties": {
        "NO": 72438,
        "共通ID": "E4021300015111",
        "都道府県名及び市町村名": "福岡県行橋市",
        "施設・場所名": "行橋市中央公民館",
        "住所": "福岡県行橋市大橋1-9-26",
        "指定緊急避難場所との住所同一": "",
        "その他市町村長が必要と認める事項": "",
        "受入対象者": "",
        "備考": ""
      }
    },
    {
      "type": "Feature",
      "geometry": {
        "type": "Point",
        "coordinates": [
          130.978872,
          33.733298
        ]
      },
      "properties": {
        "NO": 72439,
        "共通ID": "E4021300016111",
        "都道府県名及び市町村名": "福岡県行橋市",
        "施設・場所名": "行橋小学校",
        "住所": "福岡県行橋市大橋2-17-1",
        "指定緊急避難場所との住所同一": "",
        "その他市町村長が必要と認める事項": "",
        "受入対象者": "",
        "備考": ""
      }
    },
    {
      "type": "Feature",
      "geometry": {
        "type": "Point",
        "coordinates": [
          131.016479,
          33.697994
        ]
      },
      "properties": {
        "NO": 72440,
        "共通ID": "E4021300018112",
        "都道府県名及び市町村名": "福岡県行橋市",
        "施設・場所名": "仲津中学校",
        "住所": "福岡県行橋市大字稲童3104",
        "指定緊急避難場所との住所同一": "1",
        "その他市町村長が必要と認める事項": "",
        "受入対象者": "",
        "備考": ""
      }
    },
    {
      "type": "Feature",
      "geometry": {
        "type": "Point",
        "coordinates": [
          130.937415,
          33.73425
        ]
      },
      "properties": {
        "NO": 72441,
        "共通ID": "E4021300019111",
        "都道府県名及び市町村名": "福岡県行橋市",
        "施設・場所名": "長峡中学校",
        "住所": "福岡県行橋市大字延永6",
        "指定緊急避難場所との住所同一": "",
        "その他市町村長が必要と認める事項": "",
        "受入対象者": "",
        "備考": ""
      }
    },
    {
      "type": "Feature",
      "geometry": {
        "type": "Point",
        "coordinates": [
          130.946536,
          33.701261
        ]
      },
      "properties": {
        "NO": 72442,
        "共通ID": "E4021300035111",
        "都道府県名及び市町村名": "福岡県行橋市",
        "施設・場所名": "稗田公民館",
        "住所": "福岡県行橋市大字下稗田352-1",
        "指定緊急避難場所との住所同一": "",
        "その他市町村長が必要と認める事項": "",
        "受入対象者": "",
        "備考": ""
      }
    },
    {
      "type": "Feature",
      "geometry": {
        "type": "Point",
        "coordinates": [
          130.9426,
          33.702195
        ]
      },
      "properties": {
        "NO": 72443,
        "共通ID": "E4021300020111",
        "都道府県名及び市町村名": "福岡県行橋市",
        "施設・場所名": "稗田小学校",
        "住所": "福岡県行橋市大字下稗田967",
        "指定緊急避難場所との住所同一": "",
        "その他市町村長が必要と認める事項": "",
        "受入対象者": "",
        "備考": ""
      }
    },
    {
      "type": "Feature",
      "geometry": {
        "type": "Point",
        "coordinates": [
          130.995946,
          33.73384
        ]
      },
      "properties": {
        "NO": 72444,
        "共通ID": "E4021300022111",
        "都道府県名及び市町村名": "福岡県行橋市",
        "施設・場所名": "地域ケア複合センター",
        "住所": "福岡県行橋市大字金屋599-1",
        "指定緊急避難場所との住所同一": "",
        "その他市町村長が必要と認める事項": "",
        "受入対象者": "",
        "備考": ""
      }
    },
    {
      "type": "Feature",
      "geometry": {
        "type": "Point",
        "coordinates": [
          130.995946,
          33.73384
        ]
      },
      "properties": {
        "NO": 72445,
        "共通ID": "E4021300022121",
        "都道府県名及び市町村名": "福岡県行橋市",
        "施設・場所名": "地域ケア複合センター",
        "住所": "福岡県行橋市大字金屋599-1",
        "指定緊急避難場所との住所同一": "",
        "その他市町村長が必要と認める事項": "",
        "受入対象者": "要配慮者及びその介助者",
        "備考": ""
      }
    },
    {
      "type": "Feature",
      "geometry": {
        "type": "Point",
        "coordinates": [
          131.004909,
          33.724041
        ]
      },
      "properties": {
        "NO": 72446,
        "共通ID": "E4021300025111",
        "都道府県名及び市町村名": "福岡県行橋市",
        "施設・場所名": "今元小学校",
        "住所": "福岡県行橋市大字元永687",
        "指定緊急避難場所との住所同一": "",
        "その他市町村長が必要と認める事項": "",
        "受入対象者": "",
        "備考": ""
      }
    },
    {
      "type": "Feature",
      "geometry": {
        "type": "Point",
        "coordinates": [
          131.003678,
          33.725375
        ]
      },
      "properties": {
        "NO": 72447,
        "共通ID": "E4021300026111",
        "都道府県名及び市町村名": "福岡県行橋市",
        "施設・場所名": "今元公民館",
        "住所": "福岡県行橋市大字今井2092-1",
        "指定緊急避難場所との住所同一": "",
        "その他市町村長が必要と認める事項": "",
        "受入対象者": "",
        "備考": ""
      }
    },
    {
      "type": "Feature",
      "geometry": {
        "type": "Point",
        "coordinates": [
          131.008616,
          33.743621
        ]
      },
      "properties": {
        "NO": 72448,
        "共通ID": "E4021300027111",
        "都道府県名及び市町村名": "福岡県行橋市",
        "施設・場所名": "勤労者総合福祉センターサンワークゆくはし",
        "住所": "福岡県行橋市大字今井3613-4",
        "指定緊急避難場所との住所同一": "",
        "その他市町村長が必要と認める事項": "",
        "受入対象者": "",
        "備考": ""
      }
    },
    {
      "type": "Feature",
      "geometry": {
        "type": "Point",
        "coordinates": [
          131.014084,
          33.737922
        ]
      },
      "properties": {
        "NO": 72449,
        "共通ID": "E4021300028121",
        "都道府県名及び市町村名": "福岡県行橋市",
        "施設・場所名": "行橋市研修センターゆくトピア",
        "住所": "福岡県行橋市大字今井3758",
        "指定緊急避難場所との住所同一": "",
        "その他市町村長が必要と認める事項": "",
        "受入対象者": "要配慮者及びその介助者",
        "備考": ""
      }
    },
    {
      "type": "Feature",
      "geometry": {
        "type": "Point",
        "coordinates": [
          130.994659,
          33.723938
        ]
      },
      "properties": {
        "NO": 72450,
        "共通ID": "E4021300031112",
        "都道府県名及び市町村名": "福岡県行橋市",
        "施設・場所名": "今元中学校",
        "住所": "福岡県行橋市大字今井896-1",
        "指定緊急避難場所との住所同一": "1",
        "その他市町村長が必要と認める事項": "",
        "受入対象者": "",
        "備考": ""
      }
    },
    {
      "type": "Feature",
      "geometry": {
        "type": "Point",
        "coordinates": [
          130.95941,
          33.708062
        ]
      },
      "properties": {
        "NO": 72451,
        "共通ID": "E4021300032111",
        "都道府県名及び市町村名": "福岡県行橋市",
        "施設・場所名": "今川公民館",
        "住所": "福岡県行橋市大字寺畔41-2",
        "指定緊急避難場所との住所同一": "",
        "その他市町村長が必要と認める事項": "",
        "受入対象者": "",
        "備考": ""
      }
    },
    {
      "type": "Feature",
      "geometry": {
        "type": "Point",
        "coordinates": [
          130.950464,
          33.727413
        ]
      },
      "properties": {
        "NO": 72452,
        "共通ID": "E4021300033111",
        "都道府県名及び市町村名": "福岡県行橋市",
        "施設・場所名": "延永小学校",
        "住所": "福岡県行橋市大字上津熊125",
        "指定緊急避難場所との住所同一": "",
        "その他市町村長が必要と認める事項": "",
        "受入対象者": "",
        "備考": ""
      }
    },
    {
      "type": "Feature",
      "geometry": {
        "type": "Point",
        "coordinates": [
          130.953955,
          33.729664
        ]
      },
      "properties": {
        "NO": 72453,
        "共通ID": "E4021300034111",
        "都道府県名及び市町村名": "福岡県行橋市",
        "施設・場所名": "延永公民館",
        "住所": "福岡県行橋市大字上津熊76-1",
        "指定緊急避難場所との住所同一": "",
        "その他市町村長が必要と認める事項": "",
        "受入対象者": "",
        "備考": ""
      }
    },
    {
      "type": "Feature",
      "geometry": {
        "type": "Point",
        "coordinates": [
          130.96302,
          33.729877
        ]
      },
      "properties": {
        "NO": 72454,
        "共通ID": "E4021300036121",
        "都道府県名及び市町村名": "福岡県行橋市",
        "施設・場所名": "ウィズゆくはし",
        "住所": "福岡県行橋市大字中津熊501",
        "指定緊急避難場所との住所同一": "",
        "その他市町村長が必要と認める事項": "",
        "受入対象者": "要配慮者及びその介助者",
        "備考": ""
      }
    },
    {
      "type": "Feature",
      "geometry": {
        "type": "Point",
        "coordinates": [
          130.96302,
          33.729877
        ]
      },
      "properties": {
        "NO": 72455,
        "共通ID": "E4021300036111",
        "都道府県名及び市町村名": "福岡県行橋市",
        "施設・場所名": "ウィズゆくはし",
        "住所": "福岡県行橋市大字中津熊501",
        "指定緊急避難場所との住所同一": "",
        "その他市町村長が必要と認める事項": "",
        "受入対象者": "",
        "備考": ""
      }
    },
    {
      "type": "Feature",
      "geometry": {
        "type": "Point",
        "coordinates": [
          130.921183,
          33.73723
        ]
      },
      "properties": {
        "NO": 72456,
        "共通ID": "E4021300037111",
        "都道府県名及び市町村名": "福岡県行橋市",
        "施設・場所名": "椿市地域交流センター",
        "住所": "福岡県行橋市大字長尾518-2",
        "指定緊急避難場所との住所同一": "",
        "その他市町村長が必要と認める事項": "",
        "受入対象者": "",
        "備考": ""
      }
    },
    {
      "type": "Feature",
      "geometry": {
        "type": "Point",
        "coordinates": [
          130.921223,
          33.736266
        ]
      },
      "properties": {
        "NO": 72457,
        "共通ID": "E4021300038111",
        "都道府県名及び市町村名": "福岡県行橋市",
        "施設・場所名": "椿市小学校",
        "住所": "福岡県行橋市大字長尾530",
        "指定緊急避難場所との住所同一": "",
        "その他市町村長が必要と認める事項": "",
        "受入対象者": "",
        "備考": ""
      }
    },
    {
      "type": "Feature",
      "geometry": {
        "type": "Point",
        "coordinates": [
          130.954468,
          33.699272
        ]
      },
      "properties": {
        "NO": 72458,
        "共通ID": "E4021300039112",
        "都道府県名及び市町村名": "福岡県行橋市",
        "施設・場所名": "中京中学校",
        "住所": "福岡県行橋市大字天生田545",
        "指定緊急避難場所との住所同一": "1",
        "その他市町村長が必要と認める事項": "",
        "受入対象者": "",
        "備考": ""
      }
    },
    {
      "type": "Feature",
      "geometry": {
        "type": "Point",
        "coordinates": [
          131.014052,
          33.696136
        ]
      },
      "properties": {
        "NO": 72459,
        "共通ID": "E4021300040111",
        "都道府県名及び市町村名": "福岡県行橋市",
        "施設・場所名": "仲津小学校",
        "住所": "福岡県行橋市大字道場寺1439",
        "指定緊急避難場所との住所同一": "",
        "その他市町村長が必要と認める事項": "",
        "受入対象者": "",
        "備考": ""
      }
    },
    {
      "type": "Feature",
      "geometry": {
        "type": "Point",
        "coordinates": [
          131.009707,
          33.696173
        ]
      },
      "properties": {
        "NO": 72460,
        "共通ID": "E4021300041111",
        "都道府県名及び市町村名": "福岡県行橋市",
        "施設・場所名": "仲津公民館",
        "住所": "福岡県行橋市大字道場寺1517-1",
        "指定緊急避難場所との住所同一": "",
        "その他市町村長が必要と認める事項": "",
        "受入対象者": "",
        "備考": ""
      }
    },
    {
      "type": "Feature",
      "geometry": {
        "type": "Point",
        "coordinates": [
          130.955298,
          33.701833
        ]
      },
      "properties": {
        "NO": 72461,
        "共通ID": "E4021300042111",
        "都道府県名及び市町村名": "福岡県行橋市",
        "施設・場所名": "今川小学校",
        "住所": "福岡県行橋市大字宝山857",
        "指定緊急避難場所との住所同一": "",
        "その他市町村長が必要と認める事項": "",
        "受入対象者": "",
        "備考": ""
      }
    },
    {
      "type": "Feature",
      "geometry": {
        "type": "Point",
        "coordinates": [
          131.012702,
          33.745607
        ]
      },
      "properties": {
        "NO": 72462,
        "共通ID": "E4021300043111",
        "都道府県名及び市町村名": "福岡県行橋市",
        "施設・場所名": "蓑島小学校",
        "住所": "福岡県行橋市大字蓑島841-1",
        "指定緊急避難場所との住所同一": "",
        "その他市町村長が必要と認める事項": "",
        "受入対象者": "",
        "備考": ""
      }
    },
    {
      "type": "Feature",
      "geometry": {
        "type": "Point",
        "coordinates": [
          130.981198,
          33.727652
        ]
      },
      "properties": {
        "NO": 72463,
        "共通ID": "E4021300045111",
        "都道府県名及び市町村名": "福岡県行橋市",
        "施設・場所名": "コスメイト行橋",
        "住所": "福岡県行橋市中央1-9-3",
        "指定緊急避難場所との住所同一": "",
        "その他市町村長が必要と認める事項": "",
        "受入対象者": "",
        "備考": ""
      }
    },
    {
      "type": "Feature",
      "geometry": {
        "type": "Point",
        "coordinates": [
          130.983357,
          33.726053
        ]
      },
      "properties": {
        "NO": 72464,
        "共通ID": "E4021300049111",
        "都道府県名及び市町村名": "福岡県行橋市",
        "施設・場所名": "行橋南公民館",
        "住所": "福岡県行橋市南大橋2-3-27",
        "指定緊急避難場所との住所同一": "",
        "その他市町村長が必要と認める事項": "",
        "受入対象者": "",
        "備考": ""
      }
    },
    {
      "type": "Feature",
      "geometry": {
        "type": "Point",
        "coordinates": [
          130.983959,
          33.725196
        ]
      },
      "properties": {
        "NO": 72465,
        "共通ID": "E4021300050111",
        "都道府県名及び市町村名": "福岡県行橋市",
        "施設・場所名": "行橋南小学校",
        "住所": "福岡県行橋市南大橋2-5-1",
        "指定緊急避難場所との住所同一": "",
        "その他市町村長が必要と認める事項": "",
        "受入対象者": "",
        "備考": ""
      }
    },
    {
      "type": "Feature",
      "geometry": {
        "type": "Point",
        "coordinates": [
          130.937333,
          33.728297
        ]
      },
      "properties": {
        "NO": 72466,
        "共通ID": "E4021300054121",
        "都道府県名及び市町村名": "福岡県行橋市",
        "施設・場所名": "社会福祉法人みやこの苑",
        "住所": "福岡県行橋市二塚584",
        "指定緊急避難場所との住所同一": "",
        "その他市町村長が必要と認める事項": "",
        "受入対象者": "要配慮者及びその介助者",
        "備考": ""
      }
    }
  ]
}