{
  "type": "FeatureCollection",
  "name": "402117",
  "features": [
    {
      "type": "Feature",
      "geometry": {
        "type": "Point",
        "coordinates": [
          130.499423,
          33.21736
        ]
      },
      "properties": {
        "NO": 72373,
        "共通ID": "E4021100001111",
        "都道府県名及び市町村名": "福岡県筑後市",
        "施設・場所名": "羽犬塚小学校体育館",
        "住所": "福岡県筑後市羽犬塚232",
        "指定緊急避難場所との住所同一": "",
        "その他市町村長が必要と認める事項": "",
        "受入対象者": "",
        "備考": ""
      }
    },
    {
      "type": "Feature",
      "geometry": {
        "type": "Point",
        "coordinates": [
          130.495806,
          33.21529
        ]
      },
      "properties": {
        "NO": 72374,
        "共通ID": "E4021100002111",
        "都道府県名及び市町村名": "福岡県筑後市",
        "施設・場所名": "八女工業高校体育館",
        "住所": "福岡県筑後市羽犬塚301-4",
        "指定緊急避難場所との住所同一": "",
        "その他市町村長が必要と認める事項": "",
        "受入対象者": "",
        "備考": ""
      }
    },
    {
      "type": "Feature",
      "geometry": {
        "type": "Point",
        "coordinates": [
          130.504061,
          33.218402
        ]
      },
      "properties": {
        "NO": 72375,
        "共通ID": "E4021100003111",
        "都道府県名及び市町村名": "福岡県筑後市",
        "施設・場所名": "羽犬塚中学校体育館",
        "住所": "福岡県筑後市羽犬塚80",
        "指定緊急避難場所との住所同一": "",
        "その他市町村長が必要と認める事項": "",
        "受入対象者": "",
        "備考": ""
      }
    },
    {
      "type": "Feature",
      "geometry": {
        "type": "Point",
        "coordinates": [
          130.487822,
          33.198463
        ]
      },
      "properties": {
        "NO": 72376,
        "共通ID": "E4021100005111",
        "都道府県名及び市町村名": "福岡県筑後市",
        "施設・場所名": "筑後南コミュニティセンター・筑後南小学校体育館",
        "住所": "福岡県筑後市下北島150-1",
        "指定緊急避難場所との住所同一": "",
        "その他市町村長が必要と認める事項": "",
        "受入対象者": "",
        "備考": ""
      }
    },
    {
      "type": "Feature",
      "geometry": {
        "type": "Point",
        "coordinates": [
          130.488277,
          33.202424
        ]
      },
      "properties": {
        "NO": 72377,
        "共通ID": "E4021100007111",
        "都道府県名及び市町村名": "福岡県筑後市",
        "施設・場所名": "筑後特別支援学校体育館",
        "住所": "福岡県筑後市下北島318",
        "指定緊急避難場所との住所同一": "",
        "その他市町村長が必要と認める事項": "",
        "受入対象者": "",
        "備考": ""
      }
    },
    {
      "type": "Feature",
      "geometry": {
        "type": "Point",
        "coordinates": [
          130.516582,
          33.187184
        ]
      },
      "properties": {
        "NO": 72378,
        "共通ID": "E4021100008111",
        "都道府県名及び市町村名": "福岡県筑後市",
        "施設・場所名": "古川小学校体育館",
        "住所": "福岡県筑後市久恵1007",
        "指定緊急避難場所との住所同一": "",
        "その他市町村長が必要と認める事項": "",
        "受入対象者": "",
        "備考": ""
      }
    },
    {
      "type": "Feature",
      "geometry": {
        "type": "Point",
        "coordinates": [
          130.487892,
          33.228836
        ]
      },
      "properties": {
        "NO": 72379,
        "共通ID": "E4021100009111",
        "都道府県名及び市町村名": "福岡県筑後市",
        "施設・場所名": "熊野公民館",
        "住所": "福岡県筑後市熊野730",
        "指定緊急避難場所との住所同一": "",
        "その他市町村長が必要と認める事項": "",
        "受入対象者": "",
        "備考": ""
      }
    },
    {
      "type": "Feature",
      "geometry": {
        "type": "Point",
        "coordinates": [
          130.486993,
          33.227497
        ]
      },
      "properties": {
        "NO": 72380,
        "共通ID": "E4021100010111",
        "都道府県名及び市町村名": "福岡県筑後市",
        "施設・場所名": "松原小学校体育館",
        "住所": "福岡県筑後市熊野766",
        "指定緊急避難場所との住所同一": "",
        "その他市町村長が必要と認める事項": "",
        "受入対象者": "",
        "備考": ""
      }
    },
    {
      "type": "Feature",
      "geometry": {
        "type": "Point",
        "coordinates": [
          130.503076,
          33.211876
        ]
      },
      "properties": {
        "NO": 72381,
        "共通ID": "E4021100012111",
        "都道府県名及び市町村名": "福岡県筑後市",
        "施設・場所名": "中央公民館",
        "住所": "福岡県筑後市山ノ井899",
        "指定緊急避難場所との住所同一": "",
        "その他市町村長が必要と認める事項": "",
        "受入対象者": "",
        "備考": ""
      }
    },
    {
      "type": "Feature",
      "geometry": {
        "type": "Point",
        "coordinates": [
          130.499735,
          33.185701
        ]
      },
      "properties": {
        "NO": 72382,
        "共通ID": "E4021100013111",
        "都道府県名及び市町村名": "福岡県筑後市",
        "施設・場所名": "志公民館",
        "住所": "福岡県筑後市志10",
        "指定緊急避難場所との住所同一": "",
        "その他市町村長が必要と認める事項": "",
        "受入対象者": "",
        "備考": ""
      }
    },
    {
      "type": "Feature",
      "geometry": {
        "type": "Point",
        "coordinates": [
          130.500026,
          33.185562
        ]
      },
      "properties": {
        "NO": 72383,
        "共通ID": "E4021100014111",
        "都道府県名及び市町村名": "福岡県筑後市",
        "施設・場所名": "水洗小学校体育館",
        "住所": "福岡県筑後市志13",
        "指定緊急避難場所との住所同一": "",
        "その他市町村長が必要と認める事項": "",
        "受入対象者": "",
        "備考": ""
      }
    },
    {
      "type": "Feature",
      "geometry": {
        "type": "Point",
        "coordinates": [
          130.493343,
          33.212101
        ]
      },
      "properties": {
        "NO": 72384,
        "共通ID": "E4021100015111",
        "都道府県名及び市町村名": "福岡県筑後市",
        "施設・場所名": "サザンクス筑後",
        "住所": "福岡県筑後市若菜1104",
        "指定緊急避難場所との住所同一": "",
        "その他市町村長が必要と認める事項": "",
        "受入対象者": "",
        "備考": ""
      }
    },
    {
      "type": "Feature",
      "geometry": {
        "type": "Point",
        "coordinates": [
          130.488951,
          33.212774
        ]
      },
      "properties": {
        "NO": 72385,
        "共通ID": "E4021100016111",
        "都道府県名及び市町村名": "福岡県筑後市",
        "施設・場所名": "若菜公民館",
        "住所": "福岡県筑後市若菜1632-1",
        "指定緊急避難場所との住所同一": "",
        "その他市町村長が必要と認める事項": "",
        "受入対象者": "",
        "備考": ""
      }
    },
    {
      "type": "Feature",
      "geometry": {
        "type": "Point",
        "coordinates": [
          130.475115,
          33.213255
        ]
      },
      "properties": {
        "NO": 72386,
        "共通ID": "E4021100017111",
        "都道府県名及び市町村名": "福岡県筑後市",
        "施設・場所名": "二川小学校体育館",
        "住所": "福岡県筑後市若菜433",
        "指定緊急避難場所との住所同一": "",
        "その他市町村長が必要と認める事項": "",
        "受入対象者": "",
        "備考": ""
      }
    },
    {
      "type": "Feature",
      "geometry": {
        "type": "Point",
        "coordinates": [
          130.492916,
          33.202675
        ]
      },
      "properties": {
        "NO": 72387,
        "共通ID": "E4021100018111",
        "都道府県名及び市町村名": "福岡県筑後市",
        "施設・場所名": "ＪＡ筑後地区センター",
        "住所": "福岡県筑後市上北島1217-1",
        "指定緊急避難場所との住所同一": "",
        "その他市町村長が必要と認める事項": "",
        "受入対象者": "",
        "備考": ""
      }
    },
    {
      "type": "Feature",
      "geometry": {
        "type": "Point",
        "coordinates": [
          130.518791,
          33.198131
        ]
      },
      "properties": {
        "NO": 72388,
        "共通ID": "E4021100019111",
        "都道府県名及び市町村名": "福岡県筑後市",
        "施設・場所名": "新溝しんみつ館",
        "住所": "福岡県筑後市新溝534",
        "指定緊急避難場所との住所同一": "",
        "その他市町村長が必要と認める事項": "",
        "受入対象者": "",
        "備考": ""
      }
    },
    {
      "type": "Feature",
      "geometry": {
        "type": "Point",
        "coordinates": [
          130.491699,
          33.191944
        ]
      },
      "properties": {
        "NO": 72389,
        "共通ID": "E4021100020111",
        "都道府県名及び市町村名": "福岡県筑後市",
        "施設・場所名": "筑後中学校体育館",
        "住所": "福岡県筑後市水田1046-1",
        "指定緊急避難場所との住所同一": "",
        "その他市町村長が必要と認める事項": "",
        "受入対象者": "",
        "備考": ""
      }
    },
    {
      "type": "Feature",
      "geometry": {
        "type": "Point",
        "coordinates": [
          130.480759,
          33.239865
        ]
      },
      "properties": {
        "NO": 72390,
        "共通ID": "E4021100021111",
        "都道府県名及び市町村名": "福岡県筑後市",
        "施設・場所名": "西牟田小学校体育館",
        "住所": "福岡県筑後市西牟田1802",
        "指定緊急避難場所との住所同一": "",
        "その他市町村長が必要と認める事項": "",
        "受入対象者": "",
        "備考": ""
      }
    },
    {
      "type": "Feature",
      "geometry": {
        "type": "Point",
        "coordinates": [
          130.480967,
          33.238848
        ]
      },
      "properties": {
        "NO": 72391,
        "共通ID": "E4021100022111",
        "都道府県名及び市町村名": "福岡県筑後市",
        "施設・場所名": "寛元寺公民館",
        "住所": "福岡県筑後市西牟田3980",
        "指定緊急避難場所との住所同一": "",
        "その他市町村長が必要と認める事項": "",
        "受入対象者": "",
        "備考": ""
      }
    },
    {
      "type": "Feature",
      "geometry": {
        "type": "Point",
        "coordinates": [
          130.507356,
          33.242973
        ]
      },
      "properties": {
        "NO": 72392,
        "共通ID": "E4021100023111",
        "都道府県名及び市町村名": "福岡県筑後市",
        "施設・場所名": "筑後北小学校体育館",
        "住所": "福岡県筑後市西牟田6044",
        "指定緊急避難場所との住所同一": "",
        "その他市町村長が必要と認める事項": "",
        "受入対象者": "",
        "備考": ""
      }
    },
    {
      "type": "Feature",
      "geometry": {
        "type": "Point",
        "coordinates": [
          130.502928,
          33.239746
        ]
      },
      "properties": {
        "NO": 72393,
        "共通ID": "E4021100024111",
        "都道府県名及び市町村名": "福岡県筑後市",
        "施設・場所名": "北部交流センター",
        "住所": "福岡県筑後市蔵数515-1",
        "指定緊急避難場所との住所同一": "",
        "その他市町村長が必要と認める事項": "",
        "受入対象者": "",
        "備考": ""
      }
    },
    {
      "type": "Feature",
      "geometry": {
        "type": "Point",
        "coordinates": [
          130.494472,
          33.233724
        ]
      },
      "properties": {
        "NO": 72394,
        "共通ID": "E4021100025111",
        "都道府県名及び市町村名": "福岡県筑後市",
        "施設・場所名": "筑後北中学校体育館",
        "住所": "福岡県筑後市蔵数724",
        "指定緊急避難場所との住所同一": "",
        "その他市町村長が必要と認める事項": "",
        "受入対象者": "",
        "備考": ""
      }
    },
    {
      "type": "Feature",
      "geometry": {
        "type": "Point",
        "coordinates": [
          130.487525,
          33.198171
        ]
      },
      "properties": {
        "NO": 72395,
        "共通ID": "E4021100027121",
        "都道府県名及び市町村名": "福岡県筑後市",
        "施設・場所名": "筑後南コミュニティセンター",
        "住所": "福岡県筑後市大字下北島150-1",
        "指定緊急避難場所との住所同一": "1",
        "その他市町村長が必要と認める事項": "",
        "受入対象者": "要配慮者",
        "備考": ""
      }
    },
    {
      "type": "Feature",
      "geometry": {
        "type": "Point",
        "coordinates": [
          130.514445,
          33.209815
        ]
      },
      "properties": {
        "NO": 72396,
        "共通ID": "E4021100035111",
        "都道府県名及び市町村名": "福岡県筑後市",
        "施設・場所名": "長浜公民館",
        "住所": "福岡県筑後市大字長浜1815-17",
        "指定緊急避難場所との住所同一": "1",
        "その他市町村長が必要と認める事項": "",
        "受入対象者": "",
        "備考": ""
      }
    },
    {
      "type": "Feature",
      "geometry": {
        "type": "Point",
        "coordinates": [
          130.507826,
          33.206729
        ]
      },
      "properties": {
        "NO": 72397,
        "共通ID": "E4021100040111",
        "都道府県名及び市町村名": "福岡県筑後市",
        "施設・場所名": "筑後小学校体育館",
        "住所": "福岡県筑後市長浜1285",
        "指定緊急避難場所との住所同一": "",
        "その他市町村長が必要と認める事項": "",
        "受入対象者": "",
        "備考": ""
      }
    },
    {
      "type": "Feature",
      "geometry": {
        "type": "Point",
        "coordinates": [
          130.508924,
          33.20856
        ]
      },
      "properties": {
        "NO": 72398,
        "共通ID": "E4021100042111",
        "都道府県名及び市町村名": "福岡県筑後市",
        "施設・場所名": "福岡県トラック協会筑後緊急物資輸送センター",
        "住所": "福岡県筑後市長浜2327-1",
        "指定緊急避難場所との住所同一": "",
        "その他市町村長が必要と認める事項": "",
        "受入対象者": "",
        "備考": ""
      }
    },
    {
      "type": "Feature",
      "geometry": {
        "type": "Point",
        "coordinates": [
          130.487887,
          33.176094
        ]
      },
      "properties": {
        "NO": 72399,
        "共通ID": "E4021100043111",
        "都道府県名及び市町村名": "福岡県筑後市",
        "施設・場所名": "筑後広域公園体育館",
        "住所": "福岡県筑後市津島831-1",
        "指定緊急避難場所との住所同一": "",
        "その他市町村長が必要と認める事項": "",
        "受入対象者": "",
        "備考": ""
      }
    },
    {
      "type": "Feature",
      "geometry": {
        "type": "Point",
        "coordinates": [
          130.470376,
          33.203818
        ]
      },
      "properties": {
        "NO": 72400,
        "共通ID": "E4021100044111",
        "都道府県名及び市町村名": "福岡県筑後市",
        "施設・場所名": "島田公民館",
        "住所": "福岡県筑後市島田1112-1",
        "指定緊急避難場所との住所同一": "",
        "その他市町村長が必要と認める事項": "",
        "受入対象者": "",
        "備考": ""
      }
    },
    {
      "type": "Feature",
      "geometry": {
        "type": "Point",
        "coordinates": [
          130.462236,
          33.182709
        ]
      },
      "properties": {
        "NO": 72401,
        "共通ID": "E4021100045111",
        "都道府県名及び市町村名": "福岡県筑後市",
        "施設・場所名": "馬間田公民館",
        "住所": "福岡県筑後市馬間田926-4",
        "指定緊急避難場所との住所同一": "",
        "その他市町村長が必要と認める事項": "",
        "受入対象者": "",
        "備考": ""
      }
    },
    {
      "type": "Feature",
      "geometry": {
        "type": "Point",
        "coordinates": [
          130.500264,
          33.198789
        ]
      },
      "properties": {
        "NO": 72402,
        "共通ID": "E4021100046111",
        "都道府県名及び市町村名": "福岡県筑後市",
        "施設・場所名": "総合福祉センター",
        "住所": "福岡県筑後市野町680-1",
        "指定緊急避難場所との住所同一": "",
        "その他市町村長が必要と認める事項": "",
        "受入対象者": "",
        "備考": ""
      }
    },
    {
      "type": "Feature",
      "geometry": {
        "type": "Point",
        "coordinates": [
          130.500955,
          33.206027
        ]
      },
      "properties": {
        "NO": 72403,
        "共通ID": "E4021100047111",
        "都道府県名及び市町村名": "福岡県筑後市",
        "施設・場所名": "八女高校体育館",
        "住所": "福岡県筑後市和泉251",
        "指定緊急避難場所との住所同一": "",
        "その他市町村長が必要と認める事項": "",
        "受入対象者": "",
        "備考": ""
      }
    }
  ]
}