{
  "type": "FeatureCollection",
  "name": "402257",
  "features": [
    {
      "type": "Feature",
      "geometry": {
        "type": "Point",
        "coordinates": [
          130.761202,
          33.344986
        ]
      },
      "properties": {
        "NO": 72865,
        "共通ID": "E4022500001111",
        "都道府県名及び市町村名": "福岡県うきは市",
        "施設・場所名": "吉井小学校",
        "住所": "福岡県うきは市吉井町1088",
        "指定緊急避難場所との住所同一": "",
        "その他市町村長が必要と認める事項": null,
        "受入対象者": null,
        "備考": ""
      }
    },
    {
      "type": "Feature",
      "geometry": {
        "type": "Point",
        "coordinates": [
          130.748048,
          33.342102
        ]
      },
      "properties": {
        "NO": 72866,
        "共通ID": "E4022500004111",
        "都道府県名及び市町村名": "福岡県うきは市",
        "施設・場所名": "うきは市総合福祉センター",
        "住所": "福岡県うきは市吉井町347-1",
        "指定緊急避難場所との住所同一": "",
        "その他市町村長が必要と認める事項": null,
        "受入対象者": null,
        "備考": ""
      }
    },
    {
      "type": "Feature",
      "geometry": {
        "type": "Point",
        "coordinates": [
          130.747682,
          33.343239
        ]
      },
      "properties": {
        "NO": 72867,
        "共通ID": "E4022500005111",
        "都道府県名及び市町村名": "福岡県うきは市",
        "施設・場所名": "ＪＡにじ本所",
        "住所": "福岡県うきは市吉井町356-1",
        "指定緊急避難場所との住所同一": "",
        "その他市町村長が必要と認める事項": null,
        "受入対象者": null,
        "備考": ""
      }
    },
    {
      "type": "Feature",
      "geometry": {
        "type": "Point",
        "coordinates": [
          130.748171,
          33.343652
        ]
      },
      "properties": {
        "NO": 72868,
        "共通ID": "E4022500006111",
        "都道府県名及び市町村名": "福岡県うきは市",
        "施設・場所名": "ＪＡにじ教育文化センター",
        "住所": "福岡県うきは市吉井町684-1",
        "指定緊急避難場所との住所同一": "",
        "その他市町村長が必要と認める事項": null,
        "受入対象者": null,
        "備考": ""
      }
    },
    {
      "type": "Feature",
      "geometry": {
        "type": "Point",
        "coordinates": [
          130.756574,
          33.345856
        ]
      },
      "properties": {
        "NO": 72869,
        "共通ID": "E4022500007111",
        "都道府県名及び市町村名": "福岡県うきは市",
        "施設・場所名": "るり色ふるさと館",
        "住所": "福岡県うきは市吉井町983-1",
        "指定緊急避難場所との住所同一": "1",
        "その他市町村長が必要と認める事項": null,
        "受入対象者": null,
        "備考": ""
      }
    },
    {
      "type": "Feature",
      "geometry": {
        "type": "Point",
        "coordinates": [
          130.75572,
          33.345852
        ]
      },
      "properties": {
        "NO": 72870,
        "共通ID": "E4022500008111",
        "都道府県名及び市町村名": "福岡県うきは市",
        "施設・場所名": "吉井体育センター",
        "住所": "福岡県うきは市吉井町983-120",
        "指定緊急避難場所との住所同一": "",
        "その他市町村長が必要と認める事項": null,
        "受入対象者": null,
        "備考": ""
      }
    },
    {
      "type": "Feature",
      "geometry": {
        "type": "Point",
        "coordinates": [
          130.743521,
          33.352947
        ]
      },
      "properties": {
        "NO": 72871,
        "共通ID": "E4022500009111",
        "都道府県名及び市町村名": "福岡県うきは市",
        "施設・場所名": "江南コミュニティセンター",
        "住所": "福岡県うきは市吉井町新治1063-1",
        "指定緊急避難場所との住所同一": "1",
        "その他市町村長が必要と認める事項": null,
        "受入対象者": null,
        "備考": ""
      }
    },
    {
      "type": "Feature",
      "geometry": {
        "type": "Point",
        "coordinates": [
          130.755134,
          33.347588
        ]
      },
      "properties": {
        "NO": 72872,
        "共通ID": "E4022500011111",
        "都道府県名及び市町村名": "福岡県うきは市",
        "施設・場所名": "うきは市役所",
        "住所": "福岡県うきは市吉井町新治316",
        "指定緊急避難場所との住所同一": "1",
        "その他市町村長が必要と認める事項": null,
        "受入対象者": null,
        "備考": ""
      }
    },
    {
      "type": "Feature",
      "geometry": {
        "type": "Point",
        "coordinates": [
          130.732797,
          33.34175
        ]
      },
      "properties": {
        "NO": 72873,
        "共通ID": "E4022500012111",
        "都道府県名及び市町村名": "福岡県うきは市",
        "施設・場所名": "浮羽究真館高等学校",
        "住所": "福岡県うきは市吉井町生葉658",
        "指定緊急避難場所との住所同一": "",
        "その他市町村長が必要と認める事項": null,
        "受入対象者": null,
        "備考": ""
      }
    },
    {
      "type": "Feature",
      "geometry": {
        "type": "Point",
        "coordinates": [
          130.769485,
          33.347968
        ]
      },
      "properties": {
        "NO": 72874,
        "共通ID": "E4022500014111",
        "都道府県名及び市町村名": "福岡県うきは市",
        "施設・場所名": "千年コミュニティセンター",
        "住所": "福岡県うきは市吉井町千年245-1",
        "指定緊急避難場所との住所同一": "1",
        "その他市町村長が必要と認める事項": null,
        "受入対象者": null,
        "備考": ""
      }
    },
    {
      "type": "Feature",
      "geometry": {
        "type": "Point",
        "coordinates": [
          130.770449,
          33.348406
        ]
      },
      "properties": {
        "NO": 72875,
        "共通ID": "E4022500015111",
        "都道府県名及び市町村名": "福岡県うきは市",
        "施設・場所名": "千年小学校",
        "住所": "福岡県うきは市吉井町千年263-1",
        "指定緊急避難場所との住所同一": "",
        "その他市町村長が必要と認める事項": null,
        "受入対象者": null,
        "備考": ""
      }
    },
    {
      "type": "Feature",
      "geometry": {
        "type": "Point",
        "coordinates": [
          130.743997,
          33.353624
        ]
      },
      "properties": {
        "NO": 72876,
        "共通ID": "E4022500018111",
        "都道府県名及び市町村名": "福岡県うきは市",
        "施設・場所名": "江南小学校",
        "住所": "福岡県うきは市吉井町八和田774-1",
        "指定緊急避難場所との住所同一": "",
        "その他市町村長が必要と認める事項": null,
        "受入対象者": null,
        "備考": ""
      }
    },
    {
      "type": "Feature",
      "geometry": {
        "type": "Point",
        "coordinates": [
          130.733123,
          33.336223
        ]
      },
      "properties": {
        "NO": 72877,
        "共通ID": "E4022500022111",
        "都道府県名及び市町村名": "福岡県うきは市",
        "施設・場所名": "耳納クリーンステーション",
        "住所": "福岡県うきは市吉井町富永2015",
        "指定緊急避難場所との住所同一": "",
        "その他市町村長が必要と認める事項": null,
        "受入対象者": null,
        "備考": ""
      }
    },
    {
      "type": "Feature",
      "geometry": {
        "type": "Point",
        "coordinates": [
          130.762135,
          33.346636
        ]
      },
      "properties": {
        "NO": 72878,
        "共通ID": "E4022500023111",
        "都道府県名及び市町村名": "福岡県うきは市",
        "施設・場所名": "吉井中学校",
        "住所": "福岡県うきは市吉井町福永58",
        "指定緊急避難場所との住所同一": "",
        "その他市町村長が必要と認める事項": null,
        "受入対象者": null,
        "備考": ""
      }
    },
    {
      "type": "Feature",
      "geometry": {
        "type": "Point",
        "coordinates": [
          130.748744,
          33.335018
        ]
      },
      "properties": {
        "NO": 72879,
        "共通ID": "E4022500026111",
        "都道府県名及び市町村名": "福岡県うきは市",
        "施設・場所名": "ＪＡにじ　耳納の里",
        "住所": "福岡県うきは市吉井町福益130-1",
        "指定緊急避難場所との住所同一": "",
        "その他市町村長が必要と認める事項": null,
        "受入対象者": null,
        "備考": ""
      }
    },
    {
      "type": "Feature",
      "geometry": {
        "type": "Point",
        "coordinates": [
          130.753713,
          33.332104
        ]
      },
      "properties": {
        "NO": 72880,
        "共通ID": "E4022500024111",
        "都道府県名及び市町村名": "福岡県うきは市",
        "施設・場所名": "福富コミュニティセンター",
        "住所": "福岡県うきは市吉井町福益1609-1",
        "指定緊急避難場所との住所同一": "1",
        "その他市町村長が必要と認める事項": null,
        "受入対象者": null,
        "備考": ""
      }
    },
    {
      "type": "Feature",
      "geometry": {
        "type": "Point",
        "coordinates": [
          130.753669,
          33.333049
        ]
      },
      "properties": {
        "NO": 72881,
        "共通ID": "E4022500028111",
        "都道府県名及び市町村名": "福岡県うきは市",
        "施設・場所名": "福富小学校",
        "住所": "福岡県うきは市吉井町福益666-1",
        "指定緊急避難場所との住所同一": "",
        "その他市町村長が必要と認める事項": null,
        "受入対象者": null,
        "備考": ""
      }
    },
    {
      "type": "Feature",
      "geometry": {
        "type": "Point",
        "coordinates": [
          130.809101,
          33.355442
        ]
      },
      "properties": {
        "NO": 72882,
        "共通ID": "E4022500030111",
        "都道府県名及び市町村名": "福岡県うきは市",
        "施設・場所名": "大石小学校",
        "住所": "福岡県うきは市浮羽町古川468-3",
        "指定緊急避難場所との住所同一": "",
        "その他市町村長が必要と認める事項": null,
        "受入対象者": null,
        "備考": ""
      }
    },
    {
      "type": "Feature",
      "geometry": {
        "type": "Point",
        "coordinates": [
          130.808443,
          33.355211
        ]
      },
      "properties": {
        "NO": 72883,
        "共通ID": "E4022500031111",
        "都道府県名及び市町村名": "福岡県うきは市",
        "施設・場所名": "大石コミュニティセンター",
        "住所": "福岡県うきは市浮羽町古川479",
        "指定緊急避難場所との住所同一": "",
        "その他市町村長が必要と認める事項": null,
        "受入対象者": null,
        "備考": ""
      }
    },
    {
      "type": "Feature",
      "geometry": {
        "type": "Point",
        "coordinates": [
          130.81054,
          33.350544
        ]
      },
      "properties": {
        "NO": 72884,
        "共通ID": "E4022500033111",
        "都道府県名及び市町村名": "福岡県うきは市",
        "施設・場所名": "青少幼年教化センター",
        "住所": "福岡県うきは市浮羽町高見669-3",
        "指定緊急避難場所との住所同一": "1",
        "その他市町村長が必要と認める事項": null,
        "受入対象者": null,
        "備考": ""
      }
    },
    {
      "type": "Feature",
      "geometry": {
        "type": "Point",
        "coordinates": [
          130.818293,
          33.334166
        ]
      },
      "properties": {
        "NO": 72885,
        "共通ID": "E4022500035111",
        "都道府県名及び市町村名": "福岡県うきは市",
        "施設・場所名": "道の駅うきは",
        "住所": "福岡県うきは市浮羽町山北729-2",
        "指定緊急避難場所との住所同一": "",
        "その他市町村長が必要と認める事項": null,
        "受入対象者": null,
        "備考": ""
      }
    },
    {
      "type": "Feature",
      "geometry": {
        "type": "Point",
        "coordinates": [
          130.827567,
          33.336658
        ]
      },
      "properties": {
        "NO": 72886,
        "共通ID": "E4022500036111",
        "都道府県名及び市町村名": "福岡県うきは市",
        "施設・場所名": "山春小学校",
        "住所": "福岡県うきは市浮羽町山北783-6",
        "指定緊急避難場所との住所同一": "",
        "その他市町村長が必要と認める事項": null,
        "受入対象者": null,
        "備考": ""
      }
    },
    {
      "type": "Feature",
      "geometry": {
        "type": "Point",
        "coordinates": [
          130.826089,
          33.341035
        ]
      },
      "properties": {
        "NO": 72887,
        "共通ID": "E4022500037111",
        "都道府県名及び市町村名": "福岡県うきは市",
        "施設・場所名": "山春コミュニティセンター",
        "住所": "福岡県うきは市浮羽町山北783-69",
        "指定緊急避難場所との住所同一": "1",
        "その他市町村長が必要と認める事項": null,
        "受入対象者": null,
        "備考": ""
      }
    },
    {
      "type": "Feature",
      "geometry": {
        "type": "Point",
        "coordinates": [
          130.8399,
          33.312133
        ]
      },
      "properties": {
        "NO": 72888,
        "共通ID": "E4022500038111",
        "都道府県名及び市町村名": "福岡県うきは市",
        "施設・場所名": "小塩コミュニティセンター",
        "住所": "福岡県うきは市浮羽町小塩2548-1",
        "指定緊急避難場所との住所同一": "1",
        "その他市町村長が必要と認める事項": null,
        "受入対象者": null,
        "備考": ""
      }
    },
    {
      "type": "Feature",
      "geometry": {
        "type": "Point",
        "coordinates": [
          130.842911,
          33.311023
        ]
      },
      "properties": {
        "NO": 72889,
        "共通ID": "E4022500039111",
        "都道府県名及び市町村名": "福岡県うきは市",
        "施設・場所名": "旧・小塩小学校",
        "住所": "福岡県うきは市浮羽町小塩2605-1",
        "指定緊急避難場所との住所同一": "",
        "その他市町村長が必要と認める事項": null,
        "受入対象者": null,
        "備考": ""
      }
    },
    {
      "type": "Feature",
      "geometry": {
        "type": "Point",
        "coordinates": [
          130.806196,
          33.2943
        ]
      },
      "properties": {
        "NO": 72890,
        "共通ID": "E4022500041111",
        "都道府県名及び市町村名": "福岡県うきは市",
        "施設・場所名": "新川コミュニティセンター",
        "住所": "福岡県うきは市浮羽町新川2515",
        "指定緊急避難場所との住所同一": "1",
        "その他市町村長が必要と認める事項": null,
        "受入対象者": null,
        "備考": ""
      }
    },
    {
      "type": "Feature",
      "geometry": {
        "type": "Point",
        "coordinates": [
          130.818296,
          33.288163
        ]
      },
      "properties": {
        "NO": 72891,
        "共通ID": "E4022500042111",
        "都道府県名及び市町村名": "福岡県うきは市",
        "施設・場所名": "旧・姫治小学校",
        "住所": "福岡県うきは市浮羽町新川3934",
        "指定緊急避難場所との住所同一": "",
        "その他市町村長が必要と認める事項": null,
        "受入対象者": null,
        "備考": ""
      }
    },
    {
      "type": "Feature",
      "geometry": {
        "type": "Point",
        "coordinates": [
          130.786293,
          33.339255
        ]
      },
      "properties": {
        "NO": 72892,
        "共通ID": "E4022500043111",
        "都道府県名及び市町村名": "福岡県うきは市",
        "施設・場所名": "うきはアリーナ",
        "住所": "福岡県うきは市浮羽町朝田215",
        "指定緊急避難場所との住所同一": "",
        "その他市町村長が必要と認める事項": null,
        "受入対象者": null,
        "備考": ""
      }
    },
    {
      "type": "Feature",
      "geometry": {
        "type": "Point",
        "coordinates": [
          130.79013,
          33.332049
        ]
      },
      "properties": {
        "NO": 72893,
        "共通ID": "E4022500045111",
        "都道府県名及び市町村名": "福岡県うきは市",
        "施設・場所名": "御幸小学校",
        "住所": "福岡県うきは市浮羽町朝田412",
        "指定緊急避難場所との住所同一": "",
        "その他市町村長が必要と認める事項": null,
        "受入対象者": null,
        "備考": ""
      }
    },
    {
      "type": "Feature",
      "geometry": {
        "type": "Point",
        "coordinates": [
          130.791146,
          33.332497
        ]
      },
      "properties": {
        "NO": 72894,
        "共通ID": "E4022500046111",
        "都道府県名及び市町村名": "福岡県うきは市",
        "施設・場所名": "うきは市民ホール",
        "住所": "福岡県うきは市浮羽町朝田561-1",
        "指定緊急避難場所との住所同一": "1",
        "その他市町村長が必要と認める事項": null,
        "受入対象者": null,
        "備考": ""
      }
    },
    {
      "type": "Feature",
      "geometry": {
        "type": "Point",
        "coordinates": [
          130.791436,
          33.333127
        ]
      },
      "properties": {
        "NO": 72895,
        "共通ID": "E4022500047111",
        "都道府県名及び市町村名": "福岡県うきは市",
        "施設・場所名": "御幸コミュニティセンター",
        "住所": "福岡県うきは市浮羽町朝田562-11",
        "指定緊急避難場所との住所同一": "1",
        "その他市町村長が必要と認める事項": null,
        "受入対象者": null,
        "備考": ""
      }
    },
    {
      "type": "Feature",
      "geometry": {
        "type": "Point",
        "coordinates": [
          130.793154,
          33.332466
        ]
      },
      "properties": {
        "NO": 72896,
        "共通ID": "E4022500048111",
        "都道府県名及び市町村名": "福岡県うきは市",
        "施設・場所名": "うきは市民センター",
        "住所": "福岡県うきは市浮羽町朝田582-1",
        "指定緊急避難場所との住所同一": "1",
        "その他市町村長が必要と認める事項": null,
        "受入対象者": null,
        "備考": ""
      }
    },
    {
      "type": "Feature",
      "geometry": {
        "type": "Point",
        "coordinates": [
          130.841693,
          33.271898
        ]
      },
      "properties": {
        "NO": 72897,
        "共通ID": "E4022500049111",
        "都道府県名及び市町村名": "福岡県うきは市",
        "施設・場所名": "田篭コミュニティセンター",
        "住所": "福岡県うきは市浮羽町田篭1151-1",
        "指定緊急避難場所との住所同一": "1",
        "その他市町村長が必要と認める事項": null,
        "受入対象者": null,
        "備考": ""
      }
    },
    {
      "type": "Feature",
      "geometry": {
        "type": "Point",
        "coordinates": [
          130.802013,
          33.336849
        ]
      },
      "properties": {
        "NO": 72898,
        "共通ID": "E4022500051111",
        "都道府県名及び市町村名": "福岡県うきは市",
        "施設・場所名": "浮羽中学校",
        "住所": "福岡県うきは市浮羽町東隈上344-1",
        "指定緊急避難場所との住所同一": "",
        "その他市町村長が必要と認める事項": null,
        "受入対象者": null,
        "備考": ""
      }
    },
    {
      "type": "Feature",
      "geometry": {
        "type": "Point",
        "coordinates": [
          130.770701,
          33.312337
        ]
      },
      "properties": {
        "NO": 72899,
        "共通ID": "E4022500053111",
        "都道府県名及び市町村名": "福岡県うきは市",
        "施設・場所名": "旧・妹川小学校",
        "住所": "福岡県うきは市浮羽町妹川2285-2",
        "指定緊急避難場所との住所同一": "",
        "その他市町村長が必要と認める事項": null,
        "受入対象者": null,
        "備考": ""
      }
    },
    {
      "type": "Feature",
      "geometry": {
        "type": "Point",
        "coordinates": [
          130.765708,
          33.309758
        ]
      },
      "properties": {
        "NO": 72900,
        "共通ID": "E4022500054111",
        "都道府県名及び市町村名": "福岡県うきは市",
        "施設・場所名": "尼ヶ瀬区公民館",
        "住所": "福岡県うきは市浮羽町妹川2422-7",
        "指定緊急避難場所との住所同一": "1",
        "その他市町村長が必要と認める事項": null,
        "受入対象者": null,
        "備考": ""
      }
    }
  ]
}