{
  "type": "FeatureCollection",
  "name": "402231",
  "features": [
    {
      "type": "Feature",
      "geometry": {
        "type": "Point",
        "coordinates": [
          130.471172,
          33.749084
        ]
      },
      "properties": {
        "NO": 72821,
        "共通ID": "E4022300006111",
        "都道府県名及び市町村名": "福岡県古賀市",
        "施設・場所名": "花見小学校",
        "住所": "福岡県古賀市花見東4-2-1",
        "指定緊急避難場所との住所同一": "1",
        "その他市町村長が必要と認める事項": null,
        "受入対象者": null,
        "備考": ""
      }
    },
    {
      "type": "Feature",
      "geometry": {
        "type": "Point",
        "coordinates": [
          130.468061,
          33.726039
        ]
      },
      "properties": {
        "NO": 72822,
        "共通ID": "E4022300012111",
        "都道府県名及び市町村名": "福岡県古賀市",
        "施設・場所名": "花鶴小学校",
        "住所": "福岡県古賀市花鶴丘1-21",
        "指定緊急避難場所との住所同一": "1",
        "その他市町村長が必要と認める事項": null,
        "受入対象者": null,
        "備考": ""
      }
    },
    {
      "type": "Feature",
      "geometry": {
        "type": "Point",
        "coordinates": [
          130.479339,
          33.729741
        ]
      },
      "properties": {
        "NO": 72823,
        "共通ID": "E4022300028121",
        "都道府県名及び市町村名": "福岡県古賀市",
        "施設・場所名": "古賀市保健福祉総合センター　サンコスモ古賀",
        "住所": "福岡県古賀市庄205",
        "指定緊急避難場所との住所同一": "1",
        "その他市町村長が必要と認める事項": "",
        "受入対象者": "指定避難所の福祉避難スペースに避難した人のうち、身体等の状況から何らかの特別な配慮が必要であると市が判断した人及びその家族",
        "備考": ""
      }
    },
    {
      "type": "Feature",
      "geometry": {
        "type": "Point",
        "coordinates": [
          130.478638,
          33.735816
        ]
      },
      "properties": {
        "NO": 72824,
        "共通ID": "E4022300029111",
        "都道府県名及び市町村名": "福岡県古賀市",
        "施設・場所名": "古賀東小学校",
        "住所": "福岡県古賀市新久保2-1-1",
        "指定緊急避難場所との住所同一": "1",
        "その他市町村長が必要と認める事項": null,
        "受入対象者": null,
        "備考": ""
      }
    },
    {
      "type": "Feature",
      "geometry": {
        "type": "Point",
        "coordinates": [
          130.486969,
          33.726649
        ]
      },
      "properties": {
        "NO": 72825,
        "共通ID": "E4022300032121",
        "都道府県名及び市町村名": "福岡県古賀市",
        "施設・場所名": "古賀市隣保館「ひだまり館」",
        "住所": "福岡県古賀市新原1051-6",
        "指定緊急避難場所との住所同一": "1",
        "その他市町村長が必要と認める事項": "",
        "受入対象者": "指定避難所の福祉避難スペースに避難した人のうち、身体等の状況から何らかの特別な配慮が必要であると市が判断した人及びその家族",
        "備考": ""
      }
    },
    {
      "type": "Feature",
      "geometry": {
        "type": "Point",
        "coordinates": [
          130.478803,
          33.712418
        ]
      },
      "properties": {
        "NO": 72826,
        "共通ID": "E4022300036111",
        "都道府県名及び市町村名": "福岡県古賀市",
        "施設・場所名": "青柳小学校",
        "住所": "福岡県古賀市青柳860-1",
        "指定緊急避難場所との住所同一": "1",
        "その他市町村長が必要と認める事項": null,
        "受入対象者": null,
        "備考": ""
      }
    },
    {
      "type": "Feature",
      "geometry": {
        "type": "Point",
        "coordinates": [
          130.478686,
          33.741402
        ]
      },
      "properties": {
        "NO": 72827,
        "共通ID": "E4022300043121",
        "都道府県名及び市町村名": "福岡県古賀市",
        "施設・場所名": "福岡県障がい者リハビリテーションセンター（体育館）",
        "住所": "福岡県古賀市千鳥3-1-1",
        "指定緊急避難場所との住所同一": "",
        "その他市町村長が必要と認める事項": "",
        "受入対象者": "指定避難所の福祉避難スペースに避難した人のうち、身体等の状況から何らかの特別な配慮が必要であると市が判断した人及びその家族",
        "備考": ""
      }
    },
    {
      "type": "Feature",
      "geometry": {
        "type": "Point",
        "coordinates": [
          130.479104,
          33.743292
        ]
      },
      "properties": {
        "NO": 72828,
        "共通ID": "E4022300047121",
        "都道府県名及び市町村名": "福岡県古賀市",
        "施設・場所名": "古賀特別支援学校　高等部（体育館及び研修施設）",
        "住所": "福岡県古賀市千鳥3-4-1",
        "指定緊急避難場所との住所同一": "",
        "その他市町村長が必要と認める事項": "",
        "受入対象者": "指定避難所の福祉避難スペースに避難した人のうち、身体等の状況から何らかの特別な配慮が必要であると市が判断した人及びその家族",
        "備考": ""
      }
    },
    {
      "type": "Feature",
      "geometry": {
        "type": "Point",
        "coordinates": [
          130.477399,
          33.746286
        ]
      },
      "properties": {
        "NO": 72829,
        "共通ID": "E4022300049111",
        "都道府県名及び市町村名": "福岡県古賀市",
        "施設・場所名": "千鳥小学校",
        "住所": "福岡県古賀市千鳥4-1-1",
        "指定緊急避難場所との住所同一": "1",
        "その他市町村長が必要と認める事項": null,
        "受入対象者": null,
        "備考": ""
      }
    },
    {
      "type": "Feature",
      "geometry": {
        "type": "Point",
        "coordinates": [
          130.479908,
          33.747747
        ]
      },
      "properties": {
        "NO": 72830,
        "共通ID": "E4022300051121",
        "都道府県名及び市町村名": "福岡県古賀市",
        "施設・場所名": "古賀特別支援学校　小・中学部（体育館及び研修施設）",
        "住所": "福岡県古賀市千鳥4-3-1",
        "指定緊急避難場所との住所同一": "",
        "その他市町村長が必要と認める事項": "",
        "受入対象者": "指定避難所の福祉避難スペースに避難した人のうち、身体等の状況から何らかの特別な配慮が必要であると市が判断した人及びその家族",
        "備考": ""
      }
    },
    {
      "type": "Feature",
      "geometry": {
        "type": "Point",
        "coordinates": [
          130.461138,
          33.736848
        ]
      },
      "properties": {
        "NO": 72831,
        "共通ID": "E4022300065111",
        "都道府県名及び市町村名": "福岡県古賀市",
        "施設・場所名": "古賀西小学校",
        "住所": "福岡県古賀市天神7-4-1",
        "指定緊急避難場所との住所同一": "1",
        "その他市町村長が必要と認める事項": null,
        "受入対象者": null,
        "備考": ""
      }
    },
    {
      "type": "Feature",
      "geometry": {
        "type": "Point",
        "coordinates": [
          130.48389,
          33.744188
        ]
      },
      "properties": {
        "NO": 72832,
        "共通ID": "E4022300071121",
        "都道府県名及び市町村名": "福岡県古賀市",
        "施設・場所名": "福岡県立玄界高等学校（剣道場、柔道場及び多目的アリーナ）",
        "住所": "福岡県古賀市舞の里3-6-1",
        "指定緊急避難場所との住所同一": "",
        "その他市町村長が必要と認める事項": "",
        "受入対象者": "指定避難所の福祉避難スペースに避難した人のうち、身体等の状況から何らかの特別な配慮が必要であると市が判断した人及びその家族",
        "備考": ""
      }
    },
    {
      "type": "Feature",
      "geometry": {
        "type": "Point",
        "coordinates": [
          130.491419,
          33.74467
        ]
      },
      "properties": {
        "NO": 72833,
        "共通ID": "E4022300074111",
        "都道府県名及び市町村名": "福岡県古賀市",
        "施設・場所名": "舞の里小学校",
        "住所": "福岡県古賀市舞の里4-21-1",
        "指定緊急避難場所との住所同一": "1",
        "その他市町村長が必要と認める事項": null,
        "受入対象者": null,
        "備考": ""
      }
    },
    {
      "type": "Feature",
      "geometry": {
        "type": "Point",
        "coordinates": [
          130.512852,
          33.726418
        ]
      },
      "properties": {
        "NO": 72834,
        "共通ID": "E4022300077111",
        "都道府県名及び市町村名": "福岡県古賀市",
        "施設・場所名": "小野小学校",
        "住所": "福岡県古賀市米多比1390-2",
        "指定緊急避難場所との住所同一": "1",
        "その他市町村長が必要と認める事項": null,
        "受入対象者": null,
        "備考": ""
      }
    }
  ]
}