{
  "type": "FeatureCollection",
  "name": "403822",
  "features": [
    {
      "type": "Feature",
      "geometry": {
        "type": "Point",
        "coordinates": [
          130.684876,
          33.860217
        ]
      },
      "properties": {
        "NO": 73375,
        "共通ID": "E4038200001111",
        "都道府県名及び市町村名": "福岡県水巻町",
        "施設・場所名": "えぶり小学校",
        "住所": "福岡県水巻町えぶり2-3-1",
        "指定緊急避難場所との住所同一": "1",
        "その他市町村長が必要と認める事項": null,
        "受入対象者": null,
        "備考": ""
      }
    },
    {
      "type": "Feature",
      "geometry": {
        "type": "Point",
        "coordinates": [
          130.69091,
          33.871674
        ]
      },
      "properties": {
        "NO": 73376,
        "共通ID": "E4038200002111",
        "都道府県名及び市町村名": "福岡県水巻町",
        "施設・場所名": "水巻町民体育館",
        "住所": "福岡県水巻町おかの台33-1",
        "指定緊急避難場所との住所同一": "1",
        "その他市町村長が必要と認める事項": null,
        "受入対象者": null,
        "備考": ""
      }
    },
    {
      "type": "Feature",
      "geometry": {
        "type": "Point",
        "coordinates": [
          130.693158,
          33.842129
        ]
      },
      "properties": {
        "NO": 73377,
        "共通ID": "E4038200003111",
        "都道府県名及び市町村名": "福岡県水巻町",
        "施設・場所名": "伊左座小学校",
        "住所": "福岡県水巻町伊左座3-4-1",
        "指定緊急避難場所との住所同一": "1",
        "その他市町村長が必要と認める事項": null,
        "受入対象者": null,
        "備考": ""
      }
    },
    {
      "type": "Feature",
      "geometry": {
        "type": "Point",
        "coordinates": [
          130.699285,
          33.844061
        ]
      },
      "properties": {
        "NO": 73378,
        "共通ID": "E4038200004111",
        "都道府県名及び市町村名": "福岡県水巻町",
        "施設・場所名": "水巻南中学校",
        "住所": "福岡県水巻町下二東3-14-1",
        "指定緊急避難場所との住所同一": "1",
        "その他市町村長が必要と認める事項": null,
        "受入対象者": null,
        "備考": ""
      }
    },
    {
      "type": "Feature",
      "geometry": {
        "type": "Point",
        "coordinates": [
          130.697615,
          33.843911
        ]
      },
      "properties": {
        "NO": 73379,
        "共通ID": "E4038200005111",
        "都道府県名及び市町村名": "福岡県水巻町",
        "施設・場所名": "南部公民館",
        "住所": "福岡県水巻町下二東3-3-21",
        "指定緊急避難場所との住所同一": "1",
        "その他市町村長が必要と認める事項": null,
        "受入対象者": null,
        "備考": ""
      }
    },
    {
      "type": "Feature",
      "geometry": {
        "type": "Point",
        "coordinates": [
          130.702508,
          33.846641
        ]
      },
      "properties": {
        "NO": 73380,
        "共通ID": "E4038200006111",
        "都道府県名及び市町村名": "福岡県水巻町",
        "施設・場所名": "水巻町武道館",
        "住所": "福岡県水巻町吉田西3-1-10",
        "指定緊急避難場所との住所同一": "1",
        "その他市町村長が必要と認める事項": null,
        "受入対象者": null,
        "備考": ""
      }
    },
    {
      "type": "Feature",
      "geometry": {
        "type": "Point",
        "coordinates": [
          130.702765,
          33.847066
        ]
      },
      "properties": {
        "NO": 73381,
        "共通ID": "E4038200007111",
        "都道府県名及び市町村名": "福岡県水巻町",
        "施設・場所名": "障害者福祉センター",
        "住所": "福岡県水巻町吉田西3-1-8",
        "指定緊急避難場所との住所同一": "1",
        "その他市町村長が必要と認める事項": null,
        "受入対象者": null,
        "備考": ""
      }
    },
    {
      "type": "Feature",
      "geometry": {
        "type": "Point",
        "coordinates": [
          130.704806,
          33.842886
        ]
      },
      "properties": {
        "NO": 73382,
        "共通ID": "E4038200009111",
        "都道府県名及び市町村名": "福岡県水巻町",
        "施設・場所名": "高齢者福祉センター",
        "住所": "福岡県水巻町吉田団地6-1",
        "指定緊急避難場所との住所同一": "1",
        "その他市町村長が必要と認める事項": null,
        "受入対象者": null,
        "備考": ""
      }
    },
    {
      "type": "Feature",
      "geometry": {
        "type": "Point",
        "coordinates": [
          130.706786,
          33.848652
        ]
      },
      "properties": {
        "NO": 73383,
        "共通ID": "E4038200010111",
        "都道府県名及び市町村名": "福岡県水巻町",
        "施設・場所名": "吉田小学校",
        "住所": "福岡県水巻町吉田東3-5-1",
        "指定緊急避難場所との住所同一": "1",
        "その他市町村長が必要と認める事項": null,
        "受入対象者": null,
        "備考": ""
      }
    },
    {
      "type": "Feature",
      "geometry": {
        "type": "Point",
        "coordinates": [
          130.710154,
          33.836742
        ]
      },
      "properties": {
        "NO": 73384,
        "共通ID": "E4038200011111",
        "都道府県名及び市町村名": "福岡県水巻町",
        "施設・場所名": "福祉松快園",
        "住所": "福岡県水巻町吉田南2-9-1",
        "指定緊急避難場所との住所同一": "1",
        "その他市町村長が必要と認める事項": null,
        "受入対象者": null,
        "備考": ""
      }
    },
    {
      "type": "Feature",
      "geometry": {
        "type": "Point",
        "coordinates": [
          130.710154,
          33.836742
        ]
      },
      "properties": {
        "NO": 73385,
        "共通ID": "E4038200011121",
        "都道府県名及び市町村名": "福岡県水巻町",
        "施設・場所名": "福祉松快園",
        "住所": "福岡県水巻町吉田南2-9-1",
        "指定緊急避難場所との住所同一": "1",
        "その他市町村長が必要と認める事項": null,
        "受入対象者": "要配慮者",
        "備考": ""
      }
    },
    {
      "type": "Feature",
      "geometry": {
        "type": "Point",
        "coordinates": [
          130.687203,
          33.866106
        ]
      },
      "properties": {
        "NO": 73386,
        "共通ID": "E4038200012111",
        "都道府県名及び市町村名": "福岡県水巻町",
        "施設・場所名": "水巻町第二保育所",
        "住所": "福岡県水巻町古賀2-4-17",
        "指定緊急避難場所との住所同一": "1",
        "その他市町村長が必要と認める事項": null,
        "受入対象者": null,
        "備考": ""
      }
    },
    {
      "type": "Feature",
      "geometry": {
        "type": "Point",
        "coordinates": [
          130.698136,
          33.852425
        ]
      },
      "properties": {
        "NO": 73387,
        "共通ID": "E4038200013111",
        "都道府県名及び市町村名": "福岡県水巻町",
        "施設・場所名": "いきいきほーる",
        "住所": "福岡県水巻町頃末南3-11-1",
        "指定緊急避難場所との住所同一": "1",
        "その他市町村長が必要と認める事項": null,
        "受入対象者": null,
        "備考": ""
      }
    },
    {
      "type": "Feature",
      "geometry": {
        "type": "Point",
        "coordinates": [
          130.698136,
          33.852425
        ]
      },
      "properties": {
        "NO": 73388,
        "共通ID": "E4038200013121",
        "都道府県名及び市町村名": "福岡県水巻町",
        "施設・場所名": "いきいきほーる",
        "住所": "福岡県水巻町頃末南3-11-1",
        "指定緊急避難場所との住所同一": "1",
        "その他市町村長が必要と認める事項": null,
        "受入対象者": "要配慮者",
        "備考": ""
      }
    },
    {
      "type": "Feature",
      "geometry": {
        "type": "Point",
        "coordinates": [
          130.694228,
          33.85507
        ]
      },
      "properties": {
        "NO": 73389,
        "共通ID": "E4038200014111",
        "都道府県名及び市町村名": "福岡県水巻町",
        "施設・場所名": "中央公民館",
        "住所": "福岡県水巻町頃末北1-1-2",
        "指定緊急避難場所との住所同一": "1",
        "その他市町村長が必要と認める事項": null,
        "受入対象者": null,
        "備考": ""
      }
    },
    {
      "type": "Feature",
      "geometry": {
        "type": "Point",
        "coordinates": [
          130.695166,
          33.855542
        ]
      },
      "properties": {
        "NO": 73390,
        "共通ID": "E4038200015111",
        "都道府県名及び市町村名": "福岡県水巻町",
        "施設・場所名": "水巻第一保育所",
        "住所": "福岡県水巻町頃末北1-1-3",
        "指定緊急避難場所との住所同一": "1",
        "その他市町村長が必要と認める事項": null,
        "受入対象者": null,
        "備考": ""
      }
    },
    {
      "type": "Feature",
      "geometry": {
        "type": "Point",
        "coordinates": [
          130.693398,
          33.854237
        ]
      },
      "properties": {
        "NO": 73391,
        "共通ID": "E4038200016111",
        "都道府県名及び市町村名": "福岡県水巻町",
        "施設・場所名": "水巻町体育センター",
        "住所": "福岡県水巻町頃末北1-2-15",
        "指定緊急避難場所との住所同一": "1",
        "その他市町村長が必要と認める事項": null,
        "受入対象者": null,
        "備考": ""
      }
    },
    {
      "type": "Feature",
      "geometry": {
        "type": "Point",
        "coordinates": [
          130.699281,
          33.85819
        ]
      },
      "properties": {
        "NO": 73392,
        "共通ID": "E4038200018111",
        "都道府県名及び市町村名": "福岡県水巻町",
        "施設・場所名": "頃末小学校",
        "住所": "福岡県水巻町頃末北4-13-1",
        "指定緊急避難場所との住所同一": "1",
        "その他市町村長が必要と認める事項": null,
        "受入対象者": null,
        "備考": ""
      }
    },
    {
      "type": "Feature",
      "geometry": {
        "type": "Point",
        "coordinates": [
          130.693494,
          33.864207
        ]
      },
      "properties": {
        "NO": 73393,
        "共通ID": "E4038200019111",
        "都道府県名及び市町村名": "福岡県水巻町",
        "施設・場所名": "水巻中学校",
        "住所": "福岡県水巻町中央17-1",
        "指定緊急避難場所との住所同一": "1",
        "その他市町村長が必要と認める事項": null,
        "受入対象者": null,
        "備考": ""
      }
    },
    {
      "type": "Feature",
      "geometry": {
        "type": "Point",
        "coordinates": [
          130.687056,
          33.873106
        ]
      },
      "properties": {
        "NO": 73394,
        "共通ID": "E4038200021111",
        "都道府県名及び市町村名": "福岡県水巻町",
        "施設・場所名": "猪熊小学校",
        "住所": "福岡県水巻町猪熊3-4-1",
        "指定緊急避難場所との住所同一": "1",
        "その他市町村長が必要と認める事項": null,
        "受入対象者": null,
        "備考": ""
      }
    },
    {
      "type": "Feature",
      "geometry": {
        "type": "Point",
        "coordinates": [
          130.708376,
          33.870219
        ]
      },
      "properties": {
        "NO": 73395,
        "共通ID": "E4038200023111",
        "都道府県名及び市町村名": "福岡県水巻町",
        "施設・場所名": "学校法人福原学園九州女子大学・九州女子短期大学第２体育館",
        "住所": "福岡県北九州市八幡西区自由ケ丘1-1",
        "指定緊急避難場所との住所同一": "",
        "その他市町村長が必要と認める事項": null,
        "受入対象者": null,
        "備考": ""
      }
    },
    {
      "type": "Feature",
      "geometry": {
        "type": "Point",
        "coordinates": [
          130.708395,
          33.870582
        ]
      },
      "properties": {
        "NO": 73396,
        "共通ID": "E4038200024111",
        "都道府県名及び市町村名": "福岡県水巻町",
        "施設・場所名": "学校法人福原学園九州共立大学第２体育館",
        "住所": "福岡県北九州市八幡西区自由ケ丘1-8",
        "指定緊急避難場所との住所同一": "",
        "その他市町村長が必要と認める事項": null,
        "受入対象者": null,
        "備考": ""
      }
    },
    {
      "type": "Feature",
      "geometry": {
        "type": "Point",
        "coordinates": [
          130.703986,
          33.87242
        ]
      },
      "properties": {
        "NO": 73397,
        "共通ID": "E4038200024112",
        "都道府県名及び市町村名": "福岡県水巻町",
        "施設・場所名": "学校法人福原学園九州共立大学鶴鳴記念館",
        "住所": "福岡県北九州市八幡西区自由ケ丘1-8",
        "指定緊急避難場所との住所同一": "",
        "その他市町村長が必要と認める事項": null,
        "受入対象者": null,
        "備考": ""
      }
    },
    {
      "type": "Feature",
      "geometry": {
        "type": "Point",
        "coordinates": [
          130.70755,
          33.852868
        ]
      },
      "properties": {
        "NO": 73398,
        "共通ID": "E4038200025111",
        "都道府県名及び市町村名": "福岡県水巻町",
        "施設・場所名": "福岡県立折尾高等学校体育館",
        "住所": "福岡県北九州市八幡西区大膳2-23-1",
        "指定緊急避難場所との住所同一": "",
        "その他市町村長が必要と認める事項": null,
        "受入対象者": null,
        "備考": ""
      }
    }
  ]
}