{
  "type": "FeatureCollection",
  "name": "406465",
  "features": [
    {
      "type": "Feature",
      "geometry": {
        "type": "Point",
        "coordinates": [
          131.164753,
          33.569484
        ]
      },
      "properties": {
        "NO": 73755,
        "共通ID": "E4064600002111",
        "都道府県名及び市町村名": "福岡県上毛町",
        "施設・場所名": "上毛中学校",
        "住所": "福岡県上毛町大字下唐原2141-1",
        "指定緊急避難場所との住所同一": "1",
        "その他市町村長が必要と認める事項": null,
        "受入対象者": null,
        "備考": ""
      }
    },
    {
      "type": "Feature",
      "geometry": {
        "type": "Point",
        "coordinates": [
          131.144008,
          33.578418
        ]
      },
      "properties": {
        "NO": 73756,
        "共通ID": "E4064600004111",
        "都道府県名及び市町村名": "福岡県上毛町",
        "施設・場所名": "西吉富コミュニティセンター",
        "住所": "福岡県上毛町大字緒方588-1",
        "指定緊急避難場所との住所同一": "",
        "その他市町村長が必要と認める事項": null,
        "受入対象者": null,
        "備考": ""
      }
    },
    {
      "type": "Feature",
      "geometry": {
        "type": "Point",
        "coordinates": [
          131.18779,
          33.556702
        ]
      },
      "properties": {
        "NO": 73757,
        "共通ID": "E4064600003111",
        "都道府県名及び市町村名": "福岡県上毛町",
        "施設・場所名": "唐原コミュニティセンター",
        "住所": "福岡県上毛町大字上唐原1665-1",
        "指定緊急避難場所との住所同一": "",
        "その他市町村長が必要と認める事項": null,
        "受入対象者": null,
        "備考": ""
      }
    },
    {
      "type": "Feature",
      "geometry": {
        "type": "Point",
        "coordinates": [
          131.165579,
          33.580184
        ]
      },
      "properties": {
        "NO": 73758,
        "共通ID": "E4064600008111",
        "都道府県名及び市町村名": "福岡県上毛町",
        "施設・場所名": "南吉富小学校　講堂",
        "住所": "福岡県上毛町大字垂水1397",
        "指定緊急避難場所との住所同一": "1",
        "その他市町村長が必要と認める事項": null,
        "受入対象者": null,
        "備考": ""
      }
    },
    {
      "type": "Feature",
      "geometry": {
        "type": "Point",
        "coordinates": [
          131.155111,
          33.555216
        ]
      },
      "properties": {
        "NO": 73759,
        "共通ID": "E4064600013111",
        "都道府県名及び市町村名": "福岡県上毛町",
        "施設・場所名": "たいへいの里",
        "住所": "福岡県上毛町大字東下1512",
        "指定緊急避難場所との住所同一": "",
        "その他市町村長が必要と認める事項": null,
        "受入対象者": null,
        "備考": ""
      }
    },
    {
      "type": "Feature",
      "geometry": {
        "type": "Point",
        "coordinates": [
          131.153759,
          33.582122
        ]
      },
      "properties": {
        "NO": 73760,
        "共通ID": "E4064600001111",
        "都道府県名及び市町村名": "福岡県上毛町",
        "施設・場所名": "げんきの杜",
        "住所": "福岡県上毛町大字八ツ並143-1",
        "指定緊急避難場所との住所同一": "",
        "その他市町村長が必要と認める事項": null,
        "受入対象者": null,
        "備考": ""
      }
    },
    {
      "type": "Feature",
      "geometry": {
        "type": "Point",
        "coordinates": [
          131.153759,
          33.582122
        ]
      },
      "properties": {
        "NO": 73761,
        "共通ID": "E4064600001121",
        "都道府県名及び市町村名": "福岡県上毛町",
        "施設・場所名": "げんきの杜",
        "住所": "福岡県上毛町大字八ツ並143-1",
        "指定緊急避難場所との住所同一": "",
        "その他市町村長が必要と認める事項": null,
        "受入対象者": null,
        "備考": ""
      }
    }
  ]
}