{
  "type": "FeatureCollection",
  "name": "412015",
  "features": [
    {
      "type": "Feature",
      "geometry": {
        "type": "Point",
        "coordinates": [
          130.257802,
          33.240969
        ]
      },
      "properties": {
        "NO": 73789,
        "共通ID": "E4120100001111",
        "都道府県名及び市町村名": "佐賀県佐賀市",
        "施設・場所名": "嘉瀬小学校",
        "住所": "佐賀県佐賀市嘉瀬町十五12-1",
        "指定緊急避難場所との住所同一": "1",
        "その他市町村長が必要と認める事項": null,
        "受入対象者": null,
        "備考": ""
      }
    },
    {
      "type": "Feature",
      "geometry": {
        "type": "Point",
        "coordinates": [
          130.258947,
          33.241027
        ]
      },
      "properties": {
        "NO": 73790,
        "共通ID": "E4120100002111",
        "都道府県名及び市町村名": "佐賀県佐賀市",
        "施設・場所名": "嘉瀬公民館",
        "住所": "佐賀県佐賀市嘉瀬町中原1690",
        "指定緊急避難場所との住所同一": "1",
        "その他市町村長が必要と認める事項": null,
        "受入対象者": null,
        "備考": ""
      }
    },
    {
      "type": "Feature",
      "geometry": {
        "type": "Point",
        "coordinates": [
          130.314599,
          33.308287
        ]
      },
      "properties": {
        "NO": 73791,
        "共通ID": "E4120100003111",
        "都道府県名及び市町村名": "佐賀県佐賀市",
        "施設・場所名": "金泉中学校",
        "住所": "佐賀県佐賀市久保泉町上和泉2361-1",
        "指定緊急避難場所との住所同一": "1",
        "その他市町村長が必要と認める事項": null,
        "受入対象者": null,
        "備考": ""
      }
    },
    {
      "type": "Feature",
      "geometry": {
        "type": "Point",
        "coordinates": [
          130.325253,
          33.320492
        ]
      },
      "properties": {
        "NO": 73792,
        "共通ID": "E4120100004111",
        "都道府県名及び市町村名": "佐賀県佐賀市",
        "施設・場所名": "久保泉小学校",
        "住所": "佐賀県佐賀市久保泉町川久保1357-1",
        "指定緊急避難場所との住所同一": "1",
        "その他市町村長が必要と認める事項": null,
        "受入対象者": null,
        "備考": ""
      }
    },
    {
      "type": "Feature",
      "geometry": {
        "type": "Point",
        "coordinates": [
          130.325639,
          33.319331
        ]
      },
      "properties": {
        "NO": 73793,
        "共通ID": "E4120100005111",
        "都道府県名及び市町村名": "佐賀県佐賀市",
        "施設・場所名": "久保泉公民館",
        "住所": "佐賀県佐賀市久保泉町川久保1363-1",
        "指定緊急避難場所との住所同一": "1",
        "その他市町村長が必要と認める事項": null,
        "受入対象者": null,
        "備考": ""
      }
    },
    {
      "type": "Feature",
      "geometry": {
        "type": "Point",
        "coordinates": [
          130.228269,
          33.254301
        ]
      },
      "properties": {
        "NO": 73794,
        "共通ID": "E4120100006111",
        "都道府県名及び市町村名": "佐賀県佐賀市",
        "施設・場所名": "王子マテリア体育館",
        "住所": "佐賀県佐賀市久保田町久保田1",
        "指定緊急避難場所との住所同一": "1",
        "その他市町村長が必要と認める事項": null,
        "受入対象者": null,
        "備考": ""
      }
    },
    {
      "type": "Feature",
      "geometry": {
        "type": "Point",
        "coordinates": [
          130.238158,
          33.233938
        ]
      },
      "properties": {
        "NO": 73795,
        "共通ID": "E4120100007111",
        "都道府県名及び市町村名": "佐賀県佐賀市",
        "施設・場所名": "小中一貫校思斉館小学部",
        "住所": "佐賀県佐賀市久保田町新田1207",
        "指定緊急避難場所との住所同一": "1",
        "その他市町村長が必要と認める事項": null,
        "受入対象者": null,
        "備考": ""
      }
    },
    {
      "type": "Feature",
      "geometry": {
        "type": "Point",
        "coordinates": [
          130.237049,
          33.234157
        ]
      },
      "properties": {
        "NO": 73796,
        "共通ID": "E4120100008111",
        "都道府県名及び市町村名": "佐賀県佐賀市",
        "施設・場所名": "小中一貫校思斉館中学部",
        "住所": "佐賀県佐賀市久保田町新田1217",
        "指定緊急避難場所との住所同一": "1",
        "その他市町村長が必要と認める事項": null,
        "受入対象者": null,
        "備考": ""
      }
    },
    {
      "type": "Feature",
      "geometry": {
        "type": "Point",
        "coordinates": [
          130.237428,
          33.232569
        ]
      },
      "properties": {
        "NO": 73797,
        "共通ID": "E4120100010111",
        "都道府県名及び市町村名": "佐賀県佐賀市",
        "施設・場所名": "久保田農村環境改善センター",
        "住所": "佐賀県佐賀市久保田町新田3323-3",
        "指定緊急避難場所との住所同一": "1",
        "その他市町村長が必要と認める事項": null,
        "受入対象者": null,
        "備考": ""
      }
    },
    {
      "type": "Feature",
      "geometry": {
        "type": "Point",
        "coordinates": [
          130.238489,
          33.231912
        ]
      },
      "properties": {
        "NO": 73798,
        "共通ID": "E4120100112111",
        "都道府県名及び市町村名": "佐賀県佐賀市",
        "施設・場所名": "佐賀市立久保田公民館",
        "住所": "佐賀県佐賀市久保田町大字新田3331-3",
        "指定緊急避難場所との住所同一": "1",
        "その他市町村長が必要と認める事項": "",
        "受入対象者": "",
        "備考": ""
      }
    },
    {
      "type": "Feature",
      "geometry": {
        "type": "Point",
        "coordinates": [
          130.31665,
          33.258121
        ]
      },
      "properties": {
        "NO": 73799,
        "共通ID": "E4120100011111",
        "都道府県名及び市町村名": "佐賀県佐賀市",
        "施設・場所名": "城東中学校",
        "住所": "佐賀県佐賀市巨勢町牛島242",
        "指定緊急避難場所との住所同一": "1",
        "その他市町村長が必要と認める事項": null,
        "受入対象者": null,
        "備考": ""
      }
    },
    {
      "type": "Feature",
      "geometry": {
        "type": "Point",
        "coordinates": [
          130.329158,
          33.254656
        ]
      },
      "properties": {
        "NO": 73800,
        "共通ID": "E4120100012111",
        "都道府県名及び市町村名": "佐賀県佐賀市",
        "施設・場所名": "巨勢公民館",
        "住所": "佐賀県佐賀市巨勢町高尾104-17",
        "指定緊急避難場所との住所同一": "1",
        "その他市町村長が必要と認める事項": null,
        "受入対象者": null,
        "備考": ""
      }
    },
    {
      "type": "Feature",
      "geometry": {
        "type": "Point",
        "coordinates": [
          130.327904,
          33.256733
        ]
      },
      "properties": {
        "NO": 73801,
        "共通ID": "E4120100013111",
        "都道府県名及び市町村名": "佐賀県佐賀市",
        "施設・場所名": "巨勢小学校",
        "住所": "佐賀県佐賀市巨勢町高尾108",
        "指定緊急避難場所との住所同一": "1",
        "その他市町村長が必要と認める事項": null,
        "受入対象者": null,
        "備考": ""
      }
    },
    {
      "type": "Feature",
      "geometry": {
        "type": "Point",
        "coordinates": [
          130.30276,
          33.309343
        ]
      },
      "properties": {
        "NO": 73802,
        "共通ID": "E4120100015111",
        "都道府県名及び市町村名": "佐賀県佐賀市",
        "施設・場所名": "金立小学校",
        "住所": "佐賀県佐賀市金立町千布2144-1",
        "指定緊急避難場所との住所同一": "1",
        "その他市町村長が必要と認める事項": null,
        "受入対象者": null,
        "備考": ""
      }
    },
    {
      "type": "Feature",
      "geometry": {
        "type": "Point",
        "coordinates": [
          130.303127,
          33.307206
        ]
      },
      "properties": {
        "NO": 73803,
        "共通ID": "E4120100016111",
        "都道府県名及び市町村名": "佐賀県佐賀市",
        "施設・場所名": "金立公民館",
        "住所": "佐賀県佐賀市金立町千布2333-2",
        "指定緊急避難場所との住所同一": "1",
        "その他市町村長が必要と認める事項": null,
        "受入対象者": null,
        "備考": ""
      }
    },
    {
      "type": "Feature",
      "geometry": {
        "type": "Point",
        "coordinates": [
          130.30609,
          33.294381
        ]
      },
      "properties": {
        "NO": 73804,
        "共通ID": "E4120100114111",
        "都道府県名及び市町村名": "佐賀県佐賀市",
        "施設・場所名": "佐賀導水操作室",
        "住所": "佐賀県佐賀市金立町千布巨勢川調整池内",
        "指定緊急避難場所との住所同一": "1",
        "その他市町村長が必要と認める事項": "",
        "受入対象者": "",
        "備考": ""
      }
    },
    {
      "type": "Feature",
      "geometry": {
        "type": "Point",
        "coordinates": [
          130.285127,
          33.282398
        ]
      },
      "properties": {
        "NO": 73805,
        "共通ID": "E4120100017111",
        "都道府県名及び市町村名": "佐賀県佐賀市",
        "施設・場所名": "城北中学校",
        "住所": "佐賀県佐賀市高木瀬西3-1-50",
        "指定緊急避難場所との住所同一": "1",
        "その他市町村長が必要と認める事項": null,
        "受入対象者": null,
        "備考": ""
      }
    },
    {
      "type": "Feature",
      "geometry": {
        "type": "Point",
        "coordinates": [
          130.290074,
          33.286501
        ]
      },
      "properties": {
        "NO": 73806,
        "共通ID": "E4120100019111",
        "都道府県名及び市町村名": "佐賀県佐賀市",
        "施設・場所名": "高木瀬公民館",
        "住所": "佐賀県佐賀市高木瀬東5-1-12",
        "指定緊急避難場所との住所同一": "1",
        "その他市町村長が必要と認める事項": null,
        "受入対象者": null,
        "備考": ""
      }
    },
    {
      "type": "Feature",
      "geometry": {
        "type": "Point",
        "coordinates": [
          130.292436,
          33.286037
        ]
      },
      "properties": {
        "NO": 73807,
        "共通ID": "E4120100020111",
        "都道府県名及び市町村名": "佐賀県佐賀市",
        "施設・場所名": "高木瀬小学校",
        "住所": "佐賀県佐賀市高木瀬東5-6-12",
        "指定緊急避難場所との住所同一": "1",
        "その他市町村長が必要と認める事項": null,
        "受入対象者": null,
        "備考": ""
      }
    },
    {
      "type": "Feature",
      "geometry": {
        "type": "Point",
        "coordinates": [
          130.308053,
          33.256817
        ]
      },
      "properties": {
        "NO": 73808,
        "共通ID": "E4120100021111",
        "都道府県名及び市町村名": "佐賀県佐賀市",
        "施設・場所名": "循誘小学校",
        "住所": "佐賀県佐賀市高木町15-30",
        "指定緊急避難場所との住所同一": "1",
        "その他市町村長が必要と認める事項": null,
        "受入対象者": null,
        "備考": ""
      }
    },
    {
      "type": "Feature",
      "geometry": {
        "type": "Point",
        "coordinates": [
          130.279836,
          33.432463
        ]
      },
      "properties": {
        "NO": 73809,
        "共通ID": "E4120100022111",
        "都道府県名及び市町村名": "佐賀県佐賀市",
        "施設・場所名": "三瀬勤労福祉センター",
        "住所": "佐賀県佐賀市三瀬村三瀬2700-1",
        "指定緊急避難場所との住所同一": "1",
        "その他市町村長が必要と認める事項": null,
        "受入対象者": null,
        "備考": ""
      }
    },
    {
      "type": "Feature",
      "geometry": {
        "type": "Point",
        "coordinates": [
          130.278858,
          33.431801
        ]
      },
      "properties": {
        "NO": 73810,
        "共通ID": "E4120100023111",
        "都道府県名及び市町村名": "佐賀県佐賀市",
        "施設・場所名": "三瀬公民館",
        "住所": "佐賀県佐賀市三瀬村三瀬2762-2",
        "指定緊急避難場所との住所同一": "1",
        "その他市町村長が必要と認める事項": null,
        "受入対象者": null,
        "備考": ""
      }
    },
    {
      "type": "Feature",
      "geometry": {
        "type": "Point",
        "coordinates": [
          130.276422,
          33.433112
        ]
      },
      "properties": {
        "NO": 73811,
        "共通ID": "E4120100024111",
        "都道府県名及び市町村名": "佐賀県佐賀市",
        "施設・場所名": "小中一貫校三瀬校",
        "住所": "佐賀県佐賀市三瀬村三瀬2789",
        "指定緊急避難場所との住所同一": "1",
        "その他市町村長が必要と認める事項": null,
        "受入対象者": null,
        "備考": ""
      }
    },
    {
      "type": "Feature",
      "geometry": {
        "type": "Point",
        "coordinates": [
          130.275993,
          33.42101
        ]
      },
      "properties": {
        "NO": 73812,
        "共通ID": "E4120100025111",
        "都道府県名及び市町村名": "佐賀県佐賀市",
        "施設・場所名": "三瀬保健センター",
        "住所": "佐賀県佐賀市三瀬村藤原3882-6",
        "指定緊急避難場所との住所同一": "1",
        "その他市町村長が必要と認める事項": null,
        "受入対象者": null,
        "備考": ""
      }
    },
    {
      "type": "Feature",
      "geometry": {
        "type": "Point",
        "coordinates": [
          130.286623,
          33.275807
        ]
      },
      "properties": {
        "NO": 73813,
        "共通ID": "E4120100026111",
        "都道府県名及び市町村名": "佐賀県佐賀市",
        "施設・場所名": "若楠小学校",
        "住所": "佐賀県佐賀市若宮3-2-1",
        "指定緊急避難場所との住所同一": "1",
        "その他市町村長が必要と認める事項": null,
        "受入対象者": null,
        "備考": ""
      }
    },
    {
      "type": "Feature",
      "geometry": {
        "type": "Point",
        "coordinates": [
          130.287053,
          33.277386
        ]
      },
      "properties": {
        "NO": 73814,
        "共通ID": "E4120100027111",
        "都道府県名及び市町村名": "佐賀県佐賀市",
        "施設・場所名": "若楠公民館",
        "住所": "佐賀県佐賀市若楠2-13-1",
        "指定緊急避難場所との住所同一": "1",
        "その他市町村長が必要と認める事項": null,
        "受入対象者": null,
        "備考": ""
      }
    },
    {
      "type": "Feature",
      "geometry": {
        "type": "Point",
        "coordinates": [
          130.353755,
          33.221771
        ]
      },
      "properties": {
        "NO": 73815,
        "共通ID": "E4120100028111",
        "都道府県名及び市町村名": "佐賀県佐賀市",
        "施設・場所名": "佐賀市産業振興会館",
        "住所": "佐賀県佐賀市諸富町為重529-5",
        "指定緊急避難場所との住所同一": "1",
        "その他市町村長が必要と認める事項": null,
        "受入対象者": null,
        "備考": ""
      }
    },
    {
      "type": "Feature",
      "geometry": {
        "type": "Point",
        "coordinates": [
          130.34535,
          33.219059
        ]
      },
      "properties": {
        "NO": 73816,
        "共通ID": "E4120100029111",
        "都道府県名及び市町村名": "佐賀県佐賀市",
        "施設・場所名": "諸富南小学校",
        "住所": "佐賀県佐賀市諸富町為重920-1",
        "指定緊急避難場所との住所同一": "1",
        "その他市町村長が必要と認める事項": null,
        "受入対象者": null,
        "備考": ""
      }
    },
    {
      "type": "Feature",
      "geometry": {
        "type": "Point",
        "coordinates": [
          130.355052,
          33.222471
        ]
      },
      "properties": {
        "NO": 73817,
        "共通ID": "E4120100118111",
        "都道府県名及び市町村名": "佐賀県佐賀市",
        "施設・場所名": "諸富町公民館",
        "住所": "佐賀県佐賀市諸富町諸富津47-1",
        "指定緊急避難場所との住所同一": "1",
        "その他市町村長が必要と認める事項": "",
        "受入対象者": "",
        "備考": ""
      }
    },
    {
      "type": "Feature",
      "geometry": {
        "type": "Point",
        "coordinates": [
          130.354552,
          33.221608
        ]
      },
      "properties": {
        "NO": 73818,
        "共通ID": "E4120100030111",
        "都道府県名及び市町村名": "佐賀県佐賀市",
        "施設・場所名": "諸富文化体育館",
        "住所": "佐賀県佐賀市諸富町諸富津52",
        "指定緊急避難場所との住所同一": "1",
        "その他市町村長が必要と認める事項": null,
        "受入対象者": null,
        "備考": ""
      }
    },
    {
      "type": "Feature",
      "geometry": {
        "type": "Point",
        "coordinates": [
          130.356186,
          33.234604
        ]
      },
      "properties": {
        "NO": 73819,
        "共通ID": "E4120100032111",
        "都道府県名及び市町村名": "佐賀県佐賀市",
        "施設・場所名": "諸富北小学校",
        "住所": "佐賀県佐賀市諸富町大堂990",
        "指定緊急避難場所との住所同一": "1",
        "その他市町村長が必要と認める事項": null,
        "受入対象者": null,
        "備考": ""
      }
    },
    {
      "type": "Feature",
      "geometry": {
        "type": "Point",
        "coordinates": [
          130.355357,
          33.224164
        ]
      },
      "properties": {
        "NO": 73820,
        "共通ID": "E4120100033111",
        "都道府県名及び市町村名": "佐賀県佐賀市",
        "施設・場所名": "諸富中学校",
        "住所": "佐賀県佐賀市諸富町徳富2058-3",
        "指定緊急避難場所との住所同一": "1",
        "その他市町村長が必要と認める事項": null,
        "受入対象者": null,
        "備考": ""
      }
    },
    {
      "type": "Feature",
      "geometry": {
        "type": "Point",
        "coordinates": [
          130.28006,
          33.248822
        ]
      },
      "properties": {
        "NO": 73821,
        "共通ID": "E4120100034111",
        "都道府県名及び市町村名": "佐賀県佐賀市",
        "施設・場所名": "昭栄中学校",
        "住所": "佐賀県佐賀市昭栄町1-7",
        "指定緊急避難場所との住所同一": "1",
        "その他市町村長が必要と認める事項": null,
        "受入対象者": null,
        "備考": ""
      }
    },
    {
      "type": "Feature",
      "geometry": {
        "type": "Point",
        "coordinates": [
          130.298273,
          33.247132
        ]
      },
      "properties": {
        "NO": 73822,
        "共通ID": "E4120100035111",
        "都道府県名及び市町村名": "佐賀県佐賀市",
        "施設・場所名": "佐賀西高等学校",
        "住所": "佐賀県佐賀市城内1-4-25",
        "指定緊急避難場所との住所同一": "1",
        "その他市町村長が必要と認める事項": null,
        "受入対象者": null,
        "備考": ""
      }
    },
    {
      "type": "Feature",
      "geometry": {
        "type": "Point",
        "coordinates": [
          130.30188,
          33.249489
        ]
      },
      "properties": {
        "NO": 73823,
        "共通ID": "E4120100106111",
        "都道府県名及び市町村名": "佐賀県佐賀市",
        "施設・場所名": "市村記念体育館",
        "住所": "佐賀県佐賀市城内2-1-35",
        "指定緊急避難場所との住所同一": "1",
        "その他市町村長が必要と認める事項": null,
        "受入対象者": null,
        "備考": ""
      }
    },
    {
      "type": "Feature",
      "geometry": {
        "type": "Point",
        "coordinates": [
          130.275151,
          33.255766
        ]
      },
      "properties": {
        "NO": 73824,
        "共通ID": "E4120100036111",
        "都道府県名及び市町村名": "佐賀県佐賀市",
        "施設・場所名": "新栄小学校",
        "住所": "佐賀県佐賀市新栄東2-6-34",
        "指定緊急避難場所との住所同一": "1",
        "その他市町村長が必要と認める事項": null,
        "受入対象者": null,
        "備考": ""
      }
    },
    {
      "type": "Feature",
      "geometry": {
        "type": "Point",
        "coordinates": [
          130.278715,
          33.252265
        ]
      },
      "properties": {
        "NO": 73825,
        "共通ID": "E4120100037111",
        "都道府県名及び市町村名": "佐賀県佐賀市",
        "施設・場所名": "佐賀少年刑務所",
        "住所": "佐賀県佐賀市新生町2-1",
        "指定緊急避難場所との住所同一": "1",
        "その他市町村長が必要と認める事項": null,
        "受入対象者": null,
        "備考": ""
      }
    },
    {
      "type": "Feature",
      "geometry": {
        "type": "Point",
        "coordinates": [
          130.28967,
          33.263317
        ]
      },
      "properties": {
        "NO": 73826,
        "共通ID": "E4120100038111",
        "都道府県名及び市町村名": "佐賀県佐賀市",
        "施設・場所名": "神野公民館",
        "住所": "佐賀県佐賀市神野西1-4-7",
        "指定緊急避難場所との住所同一": "1",
        "その他市町村長が必要と認める事項": null,
        "受入対象者": null,
        "備考": ""
      }
    },
    {
      "type": "Feature",
      "geometry": {
        "type": "Point",
        "coordinates": [
          130.291511,
          33.264846
        ]
      },
      "properties": {
        "NO": 73827,
        "共通ID": "E4120100039111",
        "都道府県名及び市町村名": "佐賀県佐賀市",
        "施設・場所名": "神野小学校",
        "住所": "佐賀県佐賀市神野西2-4-8",
        "指定緊急避難場所との住所同一": "1",
        "その他市町村長が必要と認める事項": null,
        "受入対象者": null,
        "備考": ""
      }
    },
    {
      "type": "Feature",
      "geometry": {
        "type": "Point",
        "coordinates": [
          130.296652,
          33.271131
        ]
      },
      "properties": {
        "NO": 73828,
        "共通ID": "E4120100040111",
        "都道府県名及び市町村名": "佐賀県佐賀市",
        "施設・場所名": "佐賀商業高等学校",
        "住所": "佐賀県佐賀市神野東4-12-40",
        "指定緊急避難場所との住所同一": "1",
        "その他市町村長が必要と認める事項": null,
        "受入対象者": null,
        "備考": ""
      }
    },
    {
      "type": "Feature",
      "geometry": {
        "type": "Point",
        "coordinates": [
          130.298203,
          33.256323
        ]
      },
      "properties": {
        "NO": 73829,
        "共通ID": "E4120100041111",
        "都道府県名及び市町村名": "佐賀県佐賀市",
        "施設・場所名": "勧興公民館",
        "住所": "佐賀県佐賀市成章町1-8",
        "指定緊急避難場所との住所同一": "1",
        "その他市町村長が必要と認める事項": null,
        "受入対象者": null,
        "備考": ""
      }
    },
    {
      "type": "Feature",
      "geometry": {
        "type": "Point",
        "coordinates": [
          130.296936,
          33.256635
        ]
      },
      "properties": {
        "NO": 73830,
        "共通ID": "E4120100042111",
        "都道府県名及び市町村名": "佐賀県佐賀市",
        "施設・場所名": "勧興小学校",
        "住所": "佐賀県佐賀市成章町3-16",
        "指定緊急避難場所との住所同一": "1",
        "その他市町村長が必要と認める事項": null,
        "受入対象者": null,
        "備考": ""
      }
    },
    {
      "type": "Feature",
      "geometry": {
        "type": "Point",
        "coordinates": [
          130.294782,
          33.256517
        ]
      },
      "properties": {
        "NO": 73831,
        "共通ID": "E4120100043111",
        "都道府県名及び市町村名": "佐賀県佐賀市",
        "施設・場所名": "成章中学校",
        "住所": "佐賀県佐賀市成章町7-1",
        "指定緊急避難場所との住所同一": "1",
        "その他市町村長が必要と認める事項": null,
        "受入対象者": null,
        "備考": ""
      }
    },
    {
      "type": "Feature",
      "geometry": {
        "type": "Point",
        "coordinates": [
          130.274353,
          33.230116
        ]
      },
      "properties": {
        "NO": 73832,
        "共通ID": "E4120100044111",
        "都道府県名及び市町村名": "佐賀県佐賀市",
        "施設・場所名": "西与賀公民館",
        "住所": "佐賀県佐賀市西与賀町厘外1405",
        "指定緊急避難場所との住所同一": "1",
        "その他市町村長が必要と認める事項": null,
        "受入対象者": null,
        "備考": ""
      }
    },
    {
      "type": "Feature",
      "geometry": {
        "type": "Point",
        "coordinates": [
          130.273684,
          33.229337
        ]
      },
      "properties": {
        "NO": 73833,
        "共通ID": "E4120100045111",
        "都道府県名及び市町村名": "佐賀県佐賀市",
        "施設・場所名": "西与賀小学校",
        "住所": "佐賀県佐賀市西与賀町厘外1437",
        "指定緊急避難場所との住所同一": "1",
        "その他市町村長が必要と認める事項": null,
        "受入対象者": null,
        "備考": ""
      }
    },
    {
      "type": "Feature",
      "geometry": {
        "type": "Point",
        "coordinates": [
          130.321309,
          33.192357
        ]
      },
      "properties": {
        "NO": 73834,
        "共通ID": "E4120100046111",
        "都道府県名及び市町村名": "佐賀県佐賀市",
        "施設・場所名": "南川副公民館",
        "住所": "佐賀県佐賀市川副町鹿江422-1",
        "指定緊急避難場所との住所同一": "1",
        "その他市町村長が必要と認める事項": null,
        "受入対象者": null,
        "備考": ""
      }
    },
    {
      "type": "Feature",
      "geometry": {
        "type": "Point",
        "coordinates": [
          130.321025,
          33.192764
        ]
      },
      "properties": {
        "NO": 73835,
        "共通ID": "E4120100047112",
        "都道府県名及び市町村名": "佐賀県佐賀市",
        "施設・場所名": "川副保健センター",
        "住所": "佐賀県佐賀市川副町鹿江442",
        "指定緊急避難場所との住所同一": "1",
        "その他市町村長が必要と認める事項": null,
        "受入対象者": null,
        "備考": ""
      }
    },
    {
      "type": "Feature",
      "geometry": {
        "type": "Point",
        "coordinates": [
          130.321373,
          33.192787
        ]
      },
      "properties": {
        "NO": 73836,
        "共通ID": "E4120100047111",
        "都道府県名及び市町村名": "佐賀県佐賀市",
        "施設・場所名": "川副児童館",
        "住所": "佐賀県佐賀市川副町鹿江442",
        "指定緊急避難場所との住所同一": "1",
        "その他市町村長が必要と認める事項": null,
        "受入対象者": null,
        "備考": ""
      }
    },
    {
      "type": "Feature",
      "geometry": {
        "type": "Point",
        "coordinates": [
          130.318873,
          33.190165
        ]
      },
      "properties": {
        "NO": 73837,
        "共通ID": "E4120100048111",
        "都道府県名及び市町村名": "佐賀県佐賀市",
        "施設・場所名": "南川副小学校",
        "住所": "佐賀県佐賀市川副町鹿江674",
        "指定緊急避難場所との住所同一": "1",
        "その他市町村長が必要と認める事項": null,
        "受入対象者": null,
        "備考": ""
      }
    },
    {
      "type": "Feature",
      "geometry": {
        "type": "Point",
        "coordinates": [
          130.318299,
          33.192705
        ]
      },
      "properties": {
        "NO": 73838,
        "共通ID": "E4120100049111",
        "都道府県名及び市町村名": "佐賀県佐賀市",
        "施設・場所名": "スポーツパーク川副体育センター",
        "住所": "佐賀県佐賀市川副町鹿江700",
        "指定緊急避難場所との住所同一": "1",
        "その他市町村長が必要と認める事項": null,
        "受入対象者": null,
        "備考": ""
      }
    },
    {
      "type": "Feature",
      "geometry": {
        "type": "Point",
        "coordinates": [
          130.31845,
          33.192157
        ]
      },
      "properties": {
        "NO": 73839,
        "共通ID": "E4120100049112",
        "都道府県名及び市町村名": "佐賀県佐賀市",
        "施設・場所名": "スポーツパーク川副武道館",
        "住所": "佐賀県佐賀市川副町鹿江700",
        "指定緊急避難場所との住所同一": "1",
        "その他市町村長が必要と認める事項": null,
        "受入対象者": null,
        "備考": ""
      }
    },
    {
      "type": "Feature",
      "geometry": {
        "type": "Point",
        "coordinates": [
          130.318515,
          33.195044
        ]
      },
      "properties": {
        "NO": 73840,
        "共通ID": "E4120100050111",
        "都道府県名及び市町村名": "佐賀県佐賀市",
        "施設・場所名": "川副中学校",
        "住所": "佐賀県佐賀市川副町鹿江710",
        "指定緊急避難場所との住所同一": "1",
        "その他市町村長が必要と認める事項": null,
        "受入対象者": null,
        "備考": ""
      }
    },
    {
      "type": "Feature",
      "geometry": {
        "type": "Point",
        "coordinates": [
          130.313894,
          33.207115
        ]
      },
      "properties": {
        "NO": 73841,
        "共通ID": "E4120100116112",
        "都道府県名及び市町村名": "佐賀県佐賀市",
        "施設・場所名": "西川副公民館",
        "住所": "佐賀県佐賀市川副町西古賀968-11",
        "指定緊急避難場所との住所同一": "1",
        "その他市町村長が必要と認める事項": "",
        "受入対象者": "",
        "備考": ""
      }
    },
    {
      "type": "Feature",
      "geometry": {
        "type": "Point",
        "coordinates": [
          130.31161,
          33.207425
        ]
      },
      "properties": {
        "NO": 73842,
        "共通ID": "E4120100052111",
        "都道府県名及び市町村名": "佐賀県佐賀市",
        "施設・場所名": "西川副小学校",
        "住所": "佐賀県佐賀市川副町西古賀979",
        "指定緊急避難場所との住所同一": "1",
        "その他市町村長が必要と認める事項": null,
        "受入対象者": null,
        "備考": ""
      }
    },
    {
      "type": "Feature",
      "geometry": {
        "type": "Point",
        "coordinates": [
          130.339303,
          33.209228
        ]
      },
      "properties": {
        "NO": 73843,
        "共通ID": "E4120100117111",
        "都道府県名及び市町村名": "佐賀県佐賀市",
        "施設・場所名": "中川副公民館",
        "住所": "佐賀県佐賀市川副町早津江27-1",
        "指定緊急避難場所との住所同一": "1",
        "その他市町村長が必要と認める事項": "",
        "受入対象者": "",
        "備考": ""
      }
    },
    {
      "type": "Feature",
      "geometry": {
        "type": "Point",
        "coordinates": [
          130.343092,
          33.179482
        ]
      },
      "properties": {
        "NO": 73844,
        "共通ID": "E4120100054111",
        "都道府県名及び市町村名": "佐賀県佐賀市",
        "施設・場所名": "大詫間小学校",
        "住所": "佐賀県佐賀市川副町大詫間496",
        "指定緊急避難場所との住所同一": "1",
        "その他市町村長が必要と認める事項": null,
        "受入対象者": null,
        "備考": ""
      }
    },
    {
      "type": "Feature",
      "geometry": {
        "type": "Point",
        "coordinates": [
          130.343406,
          33.178596
        ]
      },
      "properties": {
        "NO": 73845,
        "共通ID": "E4120100055111",
        "都道府県名及び市町村名": "佐賀県佐賀市",
        "施設・場所名": "大詫間公民館",
        "住所": "佐賀県佐賀市川副町大詫間560-1",
        "指定緊急避難場所との住所同一": "1",
        "その他市町村長が必要と認める事項": null,
        "受入対象者": null,
        "備考": ""
      }
    },
    {
      "type": "Feature",
      "geometry": {
        "type": "Point",
        "coordinates": [
          130.333407,
          33.209933
        ]
      },
      "properties": {
        "NO": 73846,
        "共通ID": "E4120100056111",
        "都道府県名及び市町村名": "佐賀県佐賀市",
        "施設・場所名": "中川副小学校",
        "住所": "佐賀県佐賀市川副町福富1316",
        "指定緊急避難場所との住所同一": "1",
        "その他市町村長が必要と認める事項": null,
        "受入対象者": null,
        "備考": ""
      }
    },
    {
      "type": "Feature",
      "geometry": {
        "type": "Point",
        "coordinates": [
          130.306398,
          33.25714
        ]
      },
      "properties": {
        "NO": 73847,
        "共通ID": "E4120100057111",
        "都道府県名及び市町村名": "佐賀県佐賀市",
        "施設・場所名": "循誘公民館",
        "住所": "佐賀県佐賀市大財2-2-52",
        "指定緊急避難場所との住所同一": "1",
        "その他市町村長が必要と認める事項": null,
        "受入対象者": null,
        "備考": ""
      }
    },
    {
      "type": "Feature",
      "geometry": {
        "type": "Point",
        "coordinates": [
          130.286857,
          33.320512
        ]
      },
      "properties": {
        "NO": 73848,
        "共通ID": "E4120100058111",
        "都道府県名及び市町村名": "佐賀県佐賀市",
        "施設・場所名": "春日北公民館",
        "住所": "佐賀県佐賀市大和町久池井1756-1",
        "指定緊急避難場所との住所同一": "1",
        "その他市町村長が必要と認める事項": null,
        "受入対象者": null,
        "備考": ""
      }
    },
    {
      "type": "Feature",
      "geometry": {
        "type": "Point",
        "coordinates": [
          130.285857,
          33.320448
        ]
      },
      "properties": {
        "NO": 73849,
        "共通ID": "E4120100059111",
        "都道府県名及び市町村名": "佐賀県佐賀市",
        "施設・場所名": "春日北小学校",
        "住所": "佐賀県佐賀市大和町久池井1777-1",
        "指定緊急避難場所との住所同一": "1",
        "その他市町村長が必要と認める事項": null,
        "受入対象者": null,
        "備考": ""
      }
    },
    {
      "type": "Feature",
      "geometry": {
        "type": "Point",
        "coordinates": [
          130.26125,
          33.366251
        ]
      },
      "properties": {
        "NO": 73850,
        "共通ID": "E4120100060111",
        "都道府県名及び市町村名": "佐賀県佐賀市",
        "施設・場所名": "小中一貫校松梅校",
        "住所": "佐賀県佐賀市大和町松瀬2090-1",
        "指定緊急避難場所との住所同一": "1",
        "その他市町村長が必要と認める事項": null,
        "受入対象者": null,
        "備考": ""
      }
    },
    {
      "type": "Feature",
      "geometry": {
        "type": "Point",
        "coordinates": [
          130.256399,
          33.365146
        ]
      },
      "properties": {
        "NO": 73851,
        "共通ID": "E4120100061111",
        "都道府県名及び市町村名": "佐賀県佐賀市",
        "施設・場所名": "松梅公民館",
        "住所": "佐賀県佐賀市大和町松瀬2530-1",
        "指定緊急避難場所との住所同一": "1",
        "その他市町村長が必要と認める事項": null,
        "受入対象者": null,
        "備考": ""
      }
    },
    {
      "type": "Feature",
      "geometry": {
        "type": "Point",
        "coordinates": [
          130.257518,
          33.310235
        ]
      },
      "properties": {
        "NO": 73852,
        "共通ID": "E4120100063111",
        "都道府県名及び市町村名": "佐賀県佐賀市",
        "施設・場所名": "大和勤労者体育センター",
        "住所": "佐賀県佐賀市大和町川上3294",
        "指定緊急避難場所との住所同一": "1",
        "その他市町村長が必要と認める事項": null,
        "受入対象者": null,
        "備考": ""
      }
    },
    {
      "type": "Feature",
      "geometry": {
        "type": "Point",
        "coordinates": [
          130.253944,
          33.311004
        ]
      },
      "properties": {
        "NO": 73853,
        "共通ID": "E4120100113111",
        "都道府県名及び市町村名": "佐賀県佐賀市",
        "施設・場所名": "川上公民館",
        "住所": "佐賀県佐賀市大和町大字川上3203-1",
        "指定緊急避難場所との住所同一": "1",
        "その他市町村長が必要と認める事項": "",
        "受入対象者": "",
        "備考": ""
      }
    },
    {
      "type": "Feature",
      "geometry": {
        "type": "Point",
        "coordinates": [
          130.277579,
          33.311787
        ]
      },
      "properties": {
        "NO": 73854,
        "共通ID": "E4120100110111",
        "都道府県名及び市町村名": "佐賀県佐賀市",
        "施設・場所名": "大和支所",
        "住所": "佐賀県佐賀市大和町大字尼寺1870",
        "指定緊急避難場所との住所同一": "1",
        "その他市町村長が必要と認める事項": "",
        "受入対象者": "",
        "備考": ""
      }
    },
    {
      "type": "Feature",
      "geometry": {
        "type": "Point",
        "coordinates": [
          130.254431,
          33.305383
        ]
      },
      "properties": {
        "NO": 73855,
        "共通ID": "E4120100064111",
        "都道府県名及び市町村名": "佐賀県佐賀市",
        "施設・場所名": "川上小学校",
        "住所": "佐賀県佐賀市大和町東山田1807-1",
        "指定緊急避難場所との住所同一": "1",
        "その他市町村長が必要と認める事項": null,
        "受入対象者": null,
        "備考": ""
      }
    },
    {
      "type": "Feature",
      "geometry": {
        "type": "Point",
        "coordinates": [
          130.267768,
          33.310499
        ]
      },
      "properties": {
        "NO": 73856,
        "共通ID": "E4120100065111",
        "都道府県名及び市町村名": "佐賀県佐賀市",
        "施設・場所名": "大和中学校",
        "住所": "佐賀県佐賀市大和町東山田3554-1",
        "指定緊急避難場所との住所同一": "1",
        "その他市町村長が必要と認める事項": null,
        "受入対象者": null,
        "備考": ""
      }
    },
    {
      "type": "Feature",
      "geometry": {
        "type": "Point",
        "coordinates": [
          130.274303,
          33.303043
        ]
      },
      "properties": {
        "NO": 73857,
        "共通ID": "E4120100066113",
        "都道府県名及び市町村名": "佐賀県佐賀市",
        "施設・場所名": "さが水ものがたり館",
        "住所": "佐賀県佐賀市大和町尼寺",
        "指定緊急避難場所との住所同一": "1",
        "その他市町村長が必要と認める事項": "",
        "受入対象者": "",
        "備考": ""
      }
    },
    {
      "type": "Feature",
      "geometry": {
        "type": "Point",
        "coordinates": [
          130.282964,
          33.312175
        ]
      },
      "properties": {
        "NO": 73858,
        "共通ID": "E4120100067111",
        "都道府県名及び市町村名": "佐賀県佐賀市",
        "施設・場所名": "春日小学校",
        "住所": "佐賀県佐賀市大和町尼寺1439",
        "指定緊急避難場所との住所同一": "1",
        "その他市町村長が必要と認める事項": null,
        "受入対象者": null,
        "備考": ""
      }
    },
    {
      "type": "Feature",
      "geometry": {
        "type": "Point",
        "coordinates": [
          130.277566,
          33.314241
        ]
      },
      "properties": {
        "NO": 73859,
        "共通ID": "E4120100068111",
        "都道府県名及び市町村名": "佐賀県佐賀市",
        "施設・場所名": "高志館高等学校",
        "住所": "佐賀県佐賀市大和町尼寺1698",
        "指定緊急避難場所との住所同一": "1",
        "その他市町村長が必要と認める事項": null,
        "受入対象者": null,
        "備考": ""
      }
    },
    {
      "type": "Feature",
      "geometry": {
        "type": "Point",
        "coordinates": [
          130.277439,
          33.311136
        ]
      },
      "properties": {
        "NO": 73860,
        "共通ID": "E4120100069111",
        "都道府県名及び市町村名": "佐賀県佐賀市",
        "施設・場所名": "春日公民館",
        "住所": "佐賀県佐賀市大和町尼寺1875",
        "指定緊急避難場所との住所同一": "1",
        "その他市町村長が必要と認める事項": null,
        "受入対象者": null,
        "備考": ""
      }
    },
    {
      "type": "Feature",
      "geometry": {
        "type": "Point",
        "coordinates": [
          130.302501,
          33.242874
        ]
      },
      "properties": {
        "NO": 73861,
        "共通ID": "E4120100070111",
        "都道府県名及び市町村名": "佐賀県佐賀市",
        "施設・場所名": "赤松小学校",
        "住所": "佐賀県佐賀市中の館町1-39",
        "指定緊急避難場所との住所同一": "1",
        "その他市町村長が必要と認める事項": null,
        "受入対象者": null,
        "備考": ""
      }
    },
    {
      "type": "Feature",
      "geometry": {
        "type": "Point",
        "coordinates": [
          130.304162,
          33.242099
        ]
      },
      "properties": {
        "NO": 73862,
        "共通ID": "E4120100071111",
        "都道府県名及び市町村名": "佐賀県佐賀市",
        "施設・場所名": "赤松公民館",
        "住所": "佐賀県佐賀市中の館町4-10",
        "指定緊急避難場所との住所同一": "1",
        "その他市町村長が必要と認める事項": null,
        "受入対象者": null,
        "備考": ""
      }
    },
    {
      "type": "Feature",
      "geometry": {
        "type": "Point",
        "coordinates": [
          130.284568,
          33.249385
        ]
      },
      "properties": {
        "NO": 73863,
        "共通ID": "E4120100072111",
        "都道府県名及び市町村名": "佐賀県佐賀市",
        "施設・場所名": "日新公民館",
        "住所": "佐賀県佐賀市長瀬町1-20",
        "指定緊急避難場所との住所同一": "1",
        "その他市町村長が必要と認める事項": null,
        "受入対象者": null,
        "備考": ""
      }
    },
    {
      "type": "Feature",
      "geometry": {
        "type": "Point",
        "coordinates": [
          130.282705,
          33.251556
        ]
      },
      "properties": {
        "NO": 73864,
        "共通ID": "E4120100073111",
        "都道府県名及び市町村名": "佐賀県佐賀市",
        "施設・場所名": "日新小学校",
        "住所": "佐賀県佐賀市長瀬町9-15",
        "指定緊急避難場所との住所同一": "1",
        "その他市町村長が必要と認める事項": null,
        "受入対象者": null,
        "備考": ""
      }
    },
    {
      "type": "Feature",
      "geometry": {
        "type": "Point",
        "coordinates": [
          130.278922,
          33.257885
        ]
      },
      "properties": {
        "NO": 73865,
        "共通ID": "E4120100074111",
        "都道府県名及び市町村名": "佐賀県佐賀市",
        "施設・場所名": "佐賀北高等学校",
        "住所": "佐賀県佐賀市天祐2-6-1",
        "指定緊急避難場所との住所同一": "1",
        "その他市町村長が必要と認める事項": null,
        "受入対象者": null,
        "備考": ""
      }
    },
    {
      "type": "Feature",
      "geometry": {
        "type": "Point",
        "coordinates": [
          130.289202,
          33.209855
        ]
      },
      "properties": {
        "NO": 73866,
        "共通ID": "E4120100075111",
        "都道府県名及び市町村名": "佐賀県佐賀市",
        "施設・場所名": "東与賀中学校",
        "住所": "佐賀県佐賀市東与賀町下古賀1127-1",
        "指定緊急避難場所との住所同一": "1",
        "その他市町村長が必要と認める事項": null,
        "受入対象者": null,
        "備考": ""
      }
    },
    {
      "type": "Feature",
      "geometry": {
        "type": "Point",
        "coordinates": [
          130.289039,
          33.208108
        ]
      },
      "properties": {
        "NO": 73867,
        "共通ID": "E4120100076111",
        "都道府県名及び市町村名": "佐賀県佐賀市",
        "施設・場所名": "東与賀保健福祉センター",
        "住所": "佐賀県佐賀市東与賀町下古賀1193",
        "指定緊急避難場所との住所同一": "1",
        "その他市町村長が必要と認める事項": "",
        "受入対象者": "",
        "備考": ""
      }
    },
    {
      "type": "Feature",
      "geometry": {
        "type": "Point",
        "coordinates": [
          130.287727,
          33.207974
        ]
      },
      "properties": {
        "NO": 73868,
        "共通ID": "E4120100077111",
        "都道府県名及び市町村名": "佐賀県佐賀市",
        "施設・場所名": "東与賀文化ホール",
        "住所": "佐賀県佐賀市東与賀町下古賀1228-3",
        "指定緊急避難場所との住所同一": "1",
        "その他市町村長が必要と認める事項": null,
        "受入対象者": null,
        "備考": ""
      }
    },
    {
      "type": "Feature",
      "geometry": {
        "type": "Point",
        "coordinates": [
          130.285765,
          33.20965
        ]
      },
      "properties": {
        "NO": 73869,
        "共通ID": "E4120100078111",
        "都道府県名及び市町村名": "佐賀県佐賀市",
        "施設・場所名": "東与賀農村環境改善センター",
        "住所": "佐賀県佐賀市東与賀町田中425",
        "指定緊急避難場所との住所同一": "1",
        "その他市町村長が必要と認める事項": null,
        "受入対象者": null,
        "備考": ""
      }
    },
    {
      "type": "Feature",
      "geometry": {
        "type": "Point",
        "coordinates": [
          130.286324,
          33.208844
        ]
      },
      "properties": {
        "NO": 73870,
        "共通ID": "E4120100079111",
        "都道府県名及び市町村名": "佐賀県佐賀市",
        "施設・場所名": "東与賀小学校",
        "住所": "佐賀県佐賀市東与賀町田中453",
        "指定緊急避難場所との住所同一": "1",
        "その他市町村長が必要と認める事項": null,
        "受入対象者": null,
        "備考": ""
      }
    },
    {
      "type": "Feature",
      "geometry": {
        "type": "Point",
        "coordinates": [
          130.26994,
          33.274968
        ]
      },
      "properties": {
        "NO": 73871,
        "共通ID": "E4120100080111",
        "都道府県名及び市町村名": "佐賀県佐賀市",
        "施設・場所名": "鍋島公民館",
        "住所": "佐賀県佐賀市鍋島1-1-1",
        "指定緊急避難場所との住所同一": "1",
        "その他市町村長が必要と認める事項": null,
        "受入対象者": null,
        "備考": ""
      }
    },
    {
      "type": "Feature",
      "geometry": {
        "type": "Point",
        "coordinates": [
          130.270223,
          33.274353
        ]
      },
      "properties": {
        "NO": 73872,
        "共通ID": "E4120100081111",
        "都道府県名及び市町村名": "佐賀県佐賀市",
        "施設・場所名": "鍋島小学校",
        "住所": "佐賀県佐賀市鍋島1-1-2",
        "指定緊急避難場所との住所同一": "1",
        "その他市町村長が必要と認める事項": null,
        "受入対象者": null,
        "備考": ""
      }
    },
    {
      "type": "Feature",
      "geometry": {
        "type": "Point",
        "coordinates": [
          130.26426,
          33.276492
        ]
      },
      "properties": {
        "NO": 73873,
        "共通ID": "E4120100082111",
        "都道府県名及び市町村名": "佐賀県佐賀市",
        "施設・場所名": "鍋島中学校",
        "住所": "佐賀県佐賀市鍋島1-19-1",
        "指定緊急避難場所との住所同一": "1",
        "その他市町村長が必要と認める事項": null,
        "受入対象者": null,
        "備考": ""
      }
    },
    {
      "type": "Feature",
      "geometry": {
        "type": "Point",
        "coordinates": [
          130.270522,
          33.268152
        ]
      },
      "properties": {
        "NO": 73874,
        "共通ID": "E4120100083111",
        "都道府県名及び市町村名": "佐賀県佐賀市",
        "施設・場所名": "開成公民館",
        "住所": "佐賀県佐賀市鍋島町森田27-4",
        "指定緊急避難場所との住所同一": "1",
        "その他市町村長が必要と認める事項": null,
        "受入対象者": null,
        "備考": ""
      }
    },
    {
      "type": "Feature",
      "geometry": {
        "type": "Point",
        "coordinates": [
          130.269768,
          33.269515
        ]
      },
      "properties": {
        "NO": 73875,
        "共通ID": "E4120100084111",
        "都道府県名及び市町村名": "佐賀県佐賀市",
        "施設・場所名": "開成小学校",
        "住所": "佐賀県佐賀市鍋島町森田35-1",
        "指定緊急避難場所との住所同一": "1",
        "その他市町村長が必要と認める事項": null,
        "受入対象者": null,
        "備考": ""
      }
    },
    {
      "type": "Feature",
      "geometry": {
        "type": "Point",
        "coordinates": [
          130.271915,
          33.25391
        ]
      },
      "properties": {
        "NO": 73876,
        "共通ID": "E4120100085111",
        "都道府県名及び市町村名": "佐賀県佐賀市",
        "施設・場所名": "新栄公民館",
        "住所": "佐賀県佐賀市鍋島町八戸1285-3",
        "指定緊急避難場所との住所同一": "1",
        "その他市町村長が必要と認める事項": null,
        "受入対象者": null,
        "備考": ""
      }
    },
    {
      "type": "Feature",
      "geometry": {
        "type": "Point",
        "coordinates": [
          130.315549,
          33.238603
        ]
      },
      "properties": {
        "NO": 73877,
        "共通ID": "E4120100086111",
        "都道府県名及び市町村名": "佐賀県佐賀市",
        "施設・場所名": "城南中学校",
        "住所": "佐賀県佐賀市南佐賀1-20-1",
        "指定緊急避難場所との住所同一": "1",
        "その他市町村長が必要と認める事項": null,
        "受入対象者": null,
        "備考": ""
      }
    },
    {
      "type": "Feature",
      "geometry": {
        "type": "Point",
        "coordinates": [
          130.320543,
          33.236002
        ]
      },
      "properties": {
        "NO": 73878,
        "共通ID": "E4120100087111",
        "都道府県名及び市町村名": "佐賀県佐賀市",
        "施設・場所名": "佐賀東高等学校",
        "住所": "佐賀県佐賀市南佐賀3-11-15",
        "指定緊急避難場所との住所同一": "1",
        "その他市町村長が必要と認める事項": null,
        "受入対象者": null,
        "備考": ""
      }
    },
    {
      "type": "Feature",
      "geometry": {
        "type": "Point",
        "coordinates": [
          130.294981,
          33.277206
        ]
      },
      "properties": {
        "NO": 73879,
        "共通ID": "E4120100088111",
        "都道府県名及び市町村名": "佐賀県佐賀市",
        "施設・場所名": "佐賀市文化会館",
        "住所": "佐賀県佐賀市日の出1-21-10",
        "指定緊急避難場所との住所同一": "1",
        "その他市町村長が必要と認める事項": "",
        "受入対象者": "",
        "備考": ""
      }
    },
    {
      "type": "Feature",
      "geometry": {
        "type": "Point",
        "coordinates": [
          130.292777,
          33.274996
        ]
      },
      "properties": {
        "NO": 73880,
        "共通ID": "E4120100109111",
        "都道府県名及び市町村名": "佐賀県佐賀市",
        "施設・場所名": "ＳＡＧＡサンライズパーク（アリーナ）",
        "住所": "佐賀県佐賀市日の出2-1-10",
        "指定緊急避難場所との住所同一": "1",
        "その他市町村長が必要と認める事項": "",
        "受入対象者": "",
        "備考": ""
      }
    },
    {
      "type": "Feature",
      "geometry": {
        "type": "Point",
        "coordinates": [
          130.24952,
          33.440771
        ]
      },
      "properties": {
        "NO": 73881,
        "共通ID": "E4120100089111",
        "都道府県名及び市町村名": "佐賀県佐賀市",
        "施設・場所名": "北山東部小学校",
        "住所": "佐賀県佐賀市富士町古場1514-2",
        "指定緊急避難場所との住所同一": "1",
        "その他市町村長が必要と認める事項": null,
        "受入対象者": null,
        "備考": ""
      }
    },
    {
      "type": "Feature",
      "geometry": {
        "type": "Point",
        "coordinates": [
          130.206078,
          33.373856
        ]
      },
      "properties": {
        "NO": 73882,
        "共通ID": "E4120100090111",
        "都道府県名及び市町村名": "佐賀県佐賀市",
        "施設・場所名": "富士公民館",
        "住所": "佐賀県佐賀市富士町古湯2624",
        "指定緊急避難場所との住所同一": "1",
        "その他市町村長が必要と認める事項": null,
        "受入対象者": null,
        "備考": ""
      }
    },
    {
      "type": "Feature",
      "geometry": {
        "type": "Point",
        "coordinates": [
          130.208134,
          33.375208
        ]
      },
      "properties": {
        "NO": 73883,
        "共通ID": "E4120100091111",
        "都道府県名及び市町村名": "佐賀県佐賀市",
        "施設・場所名": "小中一貫校富士校中学部",
        "住所": "佐賀県佐賀市富士町古湯2735",
        "指定緊急避難場所との住所同一": "1",
        "その他市町村長が必要と認める事項": null,
        "受入対象者": null,
        "備考": ""
      }
    },
    {
      "type": "Feature",
      "geometry": {
        "type": "Point",
        "coordinates": [
          130.235802,
          33.364968
        ]
      },
      "properties": {
        "NO": 73884,
        "共通ID": "E4120100092111",
        "都道府県名及び市町村名": "佐賀県佐賀市",
        "施設・場所名": "小中一貫校富士校小学部",
        "住所": "佐賀県佐賀市富士町小副川1339-3",
        "指定緊急避難場所との住所同一": "1",
        "その他市町村長が必要と認める事項": null,
        "受入対象者": null,
        "備考": ""
      }
    },
    {
      "type": "Feature",
      "geometry": {
        "type": "Point",
        "coordinates": [
          130.208432,
          33.373792
        ]
      },
      "properties": {
        "NO": 73885,
        "共通ID": "E4120100111111",
        "都道府県名及び市町村名": "佐賀県佐賀市",
        "施設・場所名": "富士支所",
        "住所": "佐賀県佐賀市富士町大字古湯2685",
        "指定緊急避難場所との住所同一": "1",
        "その他市町村長が必要と認める事項": "",
        "受入対象者": "",
        "備考": ""
      }
    },
    {
      "type": "Feature",
      "geometry": {
        "type": "Point",
        "coordinates": [
          130.201334,
          33.431042
        ]
      },
      "properties": {
        "NO": 73886,
        "共通ID": "E4120100093111",
        "都道府県名及び市町村名": "佐賀県佐賀市",
        "施設・場所名": "小中一貫校北山校",
        "住所": "佐賀県佐賀市富士町中原342-2",
        "指定緊急避難場所との住所同一": "1",
        "その他市町村長が必要と認める事項": null,
        "受入対象者": null,
        "備考": ""
      }
    },
    {
      "type": "Feature",
      "geometry": {
        "type": "Point",
        "coordinates": [
          130.202678,
          33.432436
        ]
      },
      "properties": {
        "NO": 73887,
        "共通ID": "E4120100094111",
        "都道府県名及び市町村名": "佐賀県佐賀市",
        "施設・場所名": "富士北部コミュニティセンター",
        "住所": "佐賀県佐賀市富士町中原488-1",
        "指定緊急避難場所との住所同一": "1",
        "その他市町村長が必要と認める事項": null,
        "受入対象者": null,
        "備考": ""
      }
    },
    {
      "type": "Feature",
      "geometry": {
        "type": "Point",
        "coordinates": [
          130.250723,
          33.360226
        ]
      },
      "properties": {
        "NO": 73888,
        "共通ID": "E4120100095111",
        "都道府県名及び市町村名": "佐賀県佐賀市",
        "施設・場所名": "富士南部コミュニティセンター",
        "住所": "佐賀県佐賀市富士町内野40-2",
        "指定緊急避難場所との住所同一": "1",
        "その他市町村長が必要と認める事項": null,
        "受入対象者": null,
        "備考": ""
      }
    },
    {
      "type": "Feature",
      "geometry": {
        "type": "Point",
        "coordinates": [
          130.323897,
          33.273266
        ]
      },
      "properties": {
        "NO": 73889,
        "共通ID": "E4120100096112",
        "都道府県名及び市町村名": "佐賀県佐賀市",
        "施設・場所名": "兵庫公民館",
        "住所": "佐賀県佐賀市兵庫町渕1295",
        "指定緊急避難場所との住所同一": "1",
        "その他市町村長が必要と認める事項": null,
        "受入対象者": null,
        "備考": ""
      }
    },
    {
      "type": "Feature",
      "geometry": {
        "type": "Point",
        "coordinates": [
          130.322461,
          33.273384
        ]
      },
      "properties": {
        "NO": 73890,
        "共通ID": "E4120100096111",
        "都道府県名及び市町村名": "佐賀県佐賀市",
        "施設・場所名": "兵庫小学校",
        "住所": "佐賀県佐賀市兵庫町渕1295",
        "指定緊急避難場所との住所同一": "1",
        "その他市町村長が必要と認める事項": null,
        "受入対象者": null,
        "備考": ""
      }
    },
    {
      "type": "Feature",
      "geometry": {
        "type": "Point",
        "coordinates": [
          130.301999,
          33.273461
        ]
      },
      "properties": {
        "NO": 73891,
        "共通ID": "E4120100097111",
        "都道府県名及び市町村名": "佐賀県佐賀市",
        "施設・場所名": "致遠館高等学校・致遠館中学校",
        "住所": "佐賀県佐賀市兵庫北4-1-1",
        "指定緊急避難場所との住所同一": "1",
        "その他市町村長が必要と認める事項": "",
        "受入対象者": "",
        "備考": ""
      }
    },
    {
      "type": "Feature",
      "geometry": {
        "type": "Point",
        "coordinates": [
          130.292192,
          33.233189
        ]
      },
      "properties": {
        "NO": 73892,
        "共通ID": "E4120100107111",
        "都道府県名及び市町村名": "佐賀県佐賀市",
        "施設・場所名": "佐賀市立体育館",
        "住所": "佐賀県佐賀市本庄町大字本庄299-3",
        "指定緊急避難場所との住所同一": "1",
        "その他市町村長が必要と認める事項": null,
        "受入対象者": null,
        "備考": ""
      }
    },
    {
      "type": "Feature",
      "geometry": {
        "type": "Point",
        "coordinates": [
          130.285486,
          33.23583
        ]
      },
      "properties": {
        "NO": 73893,
        "共通ID": "E4120100098111",
        "都道府県名及び市町村名": "佐賀県佐賀市",
        "施設・場所名": "城西中学校",
        "住所": "佐賀県佐賀市本庄町本庄1021-1",
        "指定緊急避難場所との住所同一": "1",
        "その他市町村長が必要と認める事項": null,
        "受入対象者": null,
        "備考": ""
      }
    },
    {
      "type": "Feature",
      "geometry": {
        "type": "Point",
        "coordinates": [
          130.294303,
          33.234887
        ]
      },
      "properties": {
        "NO": 73894,
        "共通ID": "E4120100099111",
        "都道府県名及び市町村名": "佐賀県佐賀市",
        "施設・場所名": "本庄小学校",
        "住所": "佐賀県佐賀市本庄町本庄131-1",
        "指定緊急避難場所との住所同一": "1",
        "その他市町村長が必要と認める事項": null,
        "受入対象者": null,
        "備考": ""
      }
    },
    {
      "type": "Feature",
      "geometry": {
        "type": "Point",
        "coordinates": [
          130.292909,
          33.233193
        ]
      },
      "properties": {
        "NO": 73895,
        "共通ID": "E4120100100111",
        "都道府県名及び市町村名": "佐賀県佐賀市",
        "施設・場所名": "本庄公民館",
        "住所": "佐賀県佐賀市本庄町本庄279-8",
        "指定緊急避難場所との住所同一": "1",
        "その他市町村長が必要と認める事項": null,
        "受入対象者": null,
        "備考": ""
      }
    },
    {
      "type": "Feature",
      "geometry": {
        "type": "Point",
        "coordinates": [
          130.323188,
          33.241181
        ]
      },
      "properties": {
        "NO": 73896,
        "共通ID": "E4120100101111",
        "都道府県名及び市町村名": "佐賀県佐賀市",
        "施設・場所名": "北川副小学校",
        "住所": "佐賀県佐賀市木原3-12-1",
        "指定緊急避難場所との住所同一": "1",
        "その他市町村長が必要と認める事項": null,
        "受入対象者": null,
        "備考": ""
      }
    },
    {
      "type": "Feature",
      "geometry": {
        "type": "Point",
        "coordinates": [
          130.323339,
          33.239308
        ]
      },
      "properties": {
        "NO": 73897,
        "共通ID": "E4120100102111",
        "都道府県名及び市町村名": "佐賀県佐賀市",
        "施設・場所名": "北川副公民館",
        "住所": "佐賀県佐賀市木原3-12-8",
        "指定緊急避難場所との住所同一": "1",
        "その他市町村長が必要と認める事項": null,
        "受入対象者": null,
        "備考": ""
      }
    },
    {
      "type": "Feature",
      "geometry": {
        "type": "Point",
        "coordinates": [
          130.285333,
          33.257782
        ]
      },
      "properties": {
        "NO": 73898,
        "共通ID": "E4120100103111",
        "都道府県名及び市町村名": "佐賀県佐賀市",
        "施設・場所名": "佐賀工業高等学校",
        "住所": "佐賀県佐賀市緑小路1-1",
        "指定緊急避難場所との住所同一": "1",
        "その他市町村長が必要と認める事項": null,
        "受入対象者": null,
        "備考": ""
      }
    },
    {
      "type": "Feature",
      "geometry": {
        "type": "Point",
        "coordinates": [
          130.364793,
          33.250281
        ]
      },
      "properties": {
        "NO": 73899,
        "共通ID": "E4120100104111",
        "都道府県名及び市町村名": "佐賀県佐賀市",
        "施設・場所名": "小中一貫校芙蓉校",
        "住所": "佐賀県佐賀市蓮池町小松1000",
        "指定緊急避難場所との住所同一": "1",
        "その他市町村長が必要と認める事項": null,
        "受入対象者": null,
        "備考": ""
      }
    },
    {
      "type": "Feature",
      "geometry": {
        "type": "Point",
        "coordinates": [
          130.360071,
          33.245748
        ]
      },
      "properties": {
        "NO": 73900,
        "共通ID": "E4120100105111",
        "都道府県名及び市町村名": "佐賀県佐賀市",
        "施設・場所名": "蓮池公民館",
        "住所": "佐賀県佐賀市蓮池町蓮池6-49",
        "指定緊急避難場所との住所同一": "1",
        "その他市町村長が必要と認める事項": null,
        "受入対象者": null,
        "備考": ""
      }
    }
  ]
}