{
  "type": "FeatureCollection",
  "name": "412058",
  "features": [
    {
      "type": "Feature",
      "geometry": {
        "type": "Point",
        "coordinates": [
          129.853373,
          33.331347
        ]
      },
      "properties": {
        "NO": 74076,
        "共通ID": "E4120500001111",
        "都道府県名及び市町村名": "佐賀県伊万里市",
        "施設・場所名": "黒川コミュニティセンター",
        "住所": "佐賀県伊万里市黒川町塩屋504-1",
        "指定緊急避難場所との住所同一": "",
        "その他市町村長が必要と認める事項": "",
        "受入対象者": "",
        "備考": ""
      }
    },
    {
      "type": "Feature",
      "geometry": {
        "type": "Point",
        "coordinates": [
          129.855216,
          33.35214
        ]
      },
      "properties": {
        "NO": 74077,
        "共通ID": "E4120500003111",
        "都道府県名及び市町村名": "佐賀県伊万里市",
        "施設・場所名": "青嶺中学校",
        "住所": "佐賀県伊万里市黒川町福田66",
        "指定緊急避難場所との住所同一": "1",
        "その他市町村長が必要と認める事項": null,
        "受入対象者": null,
        "備考": ""
      }
    },
    {
      "type": "Feature",
      "geometry": {
        "type": "Point",
        "coordinates": [
          129.809774,
          33.310923
        ]
      },
      "properties": {
        "NO": 74078,
        "共通ID": "E4120500004111",
        "都道府県名及び市町村名": "佐賀県伊万里市",
        "施設・場所名": "山代コミュニティセンター",
        "住所": "佐賀県伊万里市山代町久原2697-2",
        "指定緊急避難場所との住所同一": "",
        "その他市町村長が必要と認める事項": null,
        "受入対象者": null,
        "備考": ""
      }
    },
    {
      "type": "Feature",
      "geometry": {
        "type": "Point",
        "coordinates": [
          129.807499,
          33.315201
        ]
      },
      "properties": {
        "NO": 74079,
        "共通ID": "E4120500005111",
        "都道府県名及び市町村名": "佐賀県伊万里市",
        "施設・場所名": "山代中学校",
        "住所": "佐賀県伊万里市山代町久原3080-1",
        "指定緊急避難場所との住所同一": "1",
        "その他市町村長が必要と認める事項": null,
        "受入対象者": null,
        "備考": ""
      }
    },
    {
      "type": "Feature",
      "geometry": {
        "type": "Point",
        "coordinates": [
          129.812602,
          33.305423
        ]
      },
      "properties": {
        "NO": 74080,
        "共通ID": "E4120500006111",
        "都道府県名及び市町村名": "佐賀県伊万里市",
        "施設・場所名": "山代東小学校体育館",
        "住所": "佐賀県伊万里市山代町久原65",
        "指定緊急避難場所との住所同一": "",
        "その他市町村長が必要と認める事項": null,
        "受入対象者": null,
        "備考": ""
      }
    },
    {
      "type": "Feature",
      "geometry": {
        "type": "Point",
        "coordinates": [
          129.785093,
          33.323805
        ]
      },
      "properties": {
        "NO": 74081,
        "共通ID": "E4120500007111",
        "都道府県名及び市町村名": "佐賀県伊万里市",
        "施設・場所名": "山代西小学校",
        "住所": "佐賀県伊万里市山代町西分4475-1",
        "指定緊急避難場所との住所同一": "1",
        "その他市町村長が必要と認める事項": null,
        "受入対象者": null,
        "備考": ""
      }
    },
    {
      "type": "Feature",
      "geometry": {
        "type": "Point",
        "coordinates": [
          129.943303,
          33.267719
        ]
      },
      "properties": {
        "NO": 74082,
        "共通ID": "E4120500011111",
        "都道府県名及び市町村名": "佐賀県伊万里市",
        "施設・場所名": "松浦コミュニティセンター",
        "住所": "佐賀県伊万里市松浦町山形5490-2",
        "指定緊急避難場所との住所同一": "",
        "その他市町村長が必要と認める事項": null,
        "受入対象者": null,
        "備考": ""
      }
    },
    {
      "type": "Feature",
      "geometry": {
        "type": "Point",
        "coordinates": [
          129.964601,
          33.28592
        ]
      },
      "properties": {
        "NO": 74083,
        "共通ID": "E4120500012111",
        "都道府県名及び市町村名": "佐賀県伊万里市",
        "施設・場所名": "東陵中学校",
        "住所": "佐賀県伊万里市松浦町提川200",
        "指定緊急避難場所との住所同一": "1",
        "その他市町村長が必要と認める事項": null,
        "受入対象者": null,
        "備考": ""
      }
    },
    {
      "type": "Feature",
      "geometry": {
        "type": "Point",
        "coordinates": [
          129.947774,
          33.268719
        ]
      },
      "properties": {
        "NO": 74084,
        "共通ID": "E4120500013111",
        "都道府県名及び市町村名": "佐賀県伊万里市",
        "施設・場所名": "松浦小学校",
        "住所": "佐賀県伊万里市松浦町桃川4430-2",
        "指定緊急避難場所との住所同一": "1",
        "その他市町村長が必要と認める事項": null,
        "受入対象者": null,
        "備考": ""
      }
    },
    {
      "type": "Feature",
      "geometry": {
        "type": "Point",
        "coordinates": [
          129.876193,
          33.278087
        ]
      },
      "properties": {
        "NO": 74085,
        "共通ID": "E4120500014111",
        "都道府県名及び市町村名": "佐賀県伊万里市",
        "施設・場所名": "伊万里コミュニティセンター",
        "住所": "佐賀県伊万里市松島町350-4",
        "指定緊急避難場所との住所同一": "",
        "その他市町村長が必要と認める事項": "",
        "受入対象者": "",
        "備考": ""
      }
    },
    {
      "type": "Feature",
      "geometry": {
        "type": "Point",
        "coordinates": [
          129.971252,
          33.302992
        ]
      },
      "properties": {
        "NO": 74086,
        "共通ID": "E4120500016111",
        "都道府県名及び市町村名": "佐賀県伊万里市",
        "施設・場所名": "大川小学校",
        "住所": "佐賀県伊万里市大川町大川野2050-1",
        "指定緊急避難場所との住所同一": "1",
        "その他市町村長が必要と認める事項": null,
        "受入対象者": null,
        "備考": ""
      }
    },
    {
      "type": "Feature",
      "geometry": {
        "type": "Point",
        "coordinates": [
          129.973594,
          33.304812
        ]
      },
      "properties": {
        "NO": 74087,
        "共通ID": "E4120500017111",
        "都道府県名及び市町村名": "佐賀県伊万里市",
        "施設・場所名": "大川体育館",
        "住所": "佐賀県伊万里市大川町大川野3340-1",
        "指定緊急避難場所との住所同一": "",
        "その他市町村長が必要と認める事項": "",
        "受入対象者": "",
        "備考": ""
      }
    },
    {
      "type": "Feature",
      "geometry": {
        "type": "Point",
        "coordinates": [
          129.972726,
          33.304961
        ]
      },
      "properties": {
        "NO": 74088,
        "共通ID": "E4120500017112",
        "都道府県名及び市町村名": "佐賀県伊万里市",
        "施設・場所名": "大川コミュニティセンター",
        "住所": "佐賀県伊万里市大川町大川野3340-1",
        "指定緊急避難場所との住所同一": "",
        "その他市町村長が必要と認める事項": "",
        "受入対象者": "",
        "備考": ""
      }
    },
    {
      "type": "Feature",
      "geometry": {
        "type": "Point",
        "coordinates": [
          129.902425,
          33.257546
        ]
      },
      "properties": {
        "NO": 74089,
        "共通ID": "E4120500018111",
        "都道府県名及び市町村名": "佐賀県伊万里市",
        "施設・場所名": "大川内小学校",
        "住所": "佐賀県伊万里市大川内町甲3280-1",
        "指定緊急避難場所との住所同一": "1",
        "その他市町村長が必要と認める事項": null,
        "受入対象者": null,
        "備考": ""
      }
    },
    {
      "type": "Feature",
      "geometry": {
        "type": "Point",
        "coordinates": [
          129.895072,
          33.259709
        ]
      },
      "properties": {
        "NO": 74090,
        "共通ID": "E4120500019111",
        "都道府県名及び市町村名": "佐賀県伊万里市",
        "施設・場所名": "大川内コミュニティセンター",
        "住所": "佐賀県伊万里市大川内町丙2410-1",
        "指定緊急避難場所との住所同一": "",
        "その他市町村長が必要と認める事項": null,
        "受入対象者": null,
        "備考": ""
      }
    },
    {
      "type": "Feature",
      "geometry": {
        "type": "Point",
        "coordinates": [
          129.88786,
          33.27708
        ]
      },
      "properties": {
        "NO": 74091,
        "共通ID": "E4120500020111",
        "都道府県名及び市町村名": "佐賀県伊万里市",
        "施設・場所名": "大坪小学校",
        "住所": "佐賀県伊万里市大坪町甲2501-3",
        "指定緊急避難場所との住所同一": "1",
        "その他市町村長が必要と認める事項": null,
        "受入対象者": null,
        "備考": ""
      }
    },
    {
      "type": "Feature",
      "geometry": {
        "type": "Point",
        "coordinates": [
          129.886967,
          33.274619
        ]
      },
      "properties": {
        "NO": 74092,
        "共通ID": "E4120500021111",
        "都道府県名及び市町村名": "佐賀県伊万里市",
        "施設・場所名": "大坪コミュニティセンター",
        "住所": "佐賀県伊万里市大坪町甲2863-1",
        "指定緊急避難場所との住所同一": "",
        "その他市町村長が必要と認める事項": "",
        "受入対象者": "",
        "備考": ""
      }
    },
    {
      "type": "Feature",
      "geometry": {
        "type": "Point",
        "coordinates": [
          129.773619,
          33.28516
        ]
      },
      "properties": {
        "NO": 74093,
        "共通ID": "E4120500022111",
        "都道府県名及び市町村名": "佐賀県伊万里市",
        "施設・場所名": "夢耕房たきの",
        "住所": "佐賀県伊万里市東山代町川内野4518-1",
        "指定緊急避難場所との住所同一": "",
        "その他市町村長が必要と認める事項": null,
        "受入対象者": null,
        "備考": ""
      }
    },
    {
      "type": "Feature",
      "geometry": {
        "type": "Point",
        "coordinates": [
          129.850201,
          33.266386
        ]
      },
      "properties": {
        "NO": 74094,
        "共通ID": "E4120500024111",
        "都道府県名及び市町村名": "佐賀県伊万里市",
        "施設・場所名": "国見中学校",
        "住所": "佐賀県伊万里市東山代町長浜1750",
        "指定緊急避難場所との住所同一": "1",
        "その他市町村長が必要と認める事項": null,
        "受入対象者": null,
        "備考": ""
      }
    },
    {
      "type": "Feature",
      "geometry": {
        "type": "Point",
        "coordinates": [
          129.835795,
          33.284877
        ]
      },
      "properties": {
        "NO": 74095,
        "共通ID": "E4120500025111",
        "都道府県名及び市町村名": "佐賀県伊万里市",
        "施設・場所名": "東山代コミュニティセンター",
        "住所": "佐賀県伊万里市東山代町里105",
        "指定緊急避難場所との住所同一": "",
        "その他市町村長が必要と認める事項": null,
        "受入対象者": null,
        "備考": ""
      }
    },
    {
      "type": "Feature",
      "geometry": {
        "type": "Point",
        "coordinates": [
          129.837535,
          33.283742
        ]
      },
      "properties": {
        "NO": 74096,
        "共通ID": "E4120500026111",
        "都道府県名及び市町村名": "佐賀県伊万里市",
        "施設・場所名": "東山代小学校",
        "住所": "佐賀県伊万里市東山代町里70-1",
        "指定緊急避難場所との住所同一": "1",
        "その他市町村長が必要と認める事項": null,
        "受入対象者": null,
        "備考": ""
      }
    },
    {
      "type": "Feature",
      "geometry": {
        "type": "Point",
        "coordinates": [
          129.930767,
          33.312513
        ]
      },
      "properties": {
        "NO": 74097,
        "共通ID": "E4120500027111",
        "都道府県名及び市町村名": "佐賀県伊万里市",
        "施設・場所名": "南波多コミュニティセンター",
        "住所": "佐賀県伊万里市南波多町井手野2685-1",
        "指定緊急避難場所との住所同一": "",
        "その他市町村長が必要と認める事項": null,
        "受入対象者": null,
        "備考": ""
      }
    },
    {
      "type": "Feature",
      "geometry": {
        "type": "Point",
        "coordinates": [
          129.928487,
          33.318174
        ]
      },
      "properties": {
        "NO": 74098,
        "共通ID": "E4120500028111",
        "都道府県名及び市町村名": "佐賀県伊万里市",
        "施設・場所名": "南波多ミニスポーツ会館",
        "住所": "佐賀県伊万里市南波多町井手野2896",
        "指定緊急避難場所との住所同一": "",
        "その他市町村長が必要と認める事項": null,
        "受入対象者": null,
        "備考": ""
      }
    },
    {
      "type": "Feature",
      "geometry": {
        "type": "Point",
        "coordinates": [
          129.855351,
          33.258644
        ]
      },
      "properties": {
        "NO": 74099,
        "共通ID": "E4120500030111",
        "都道府県名及び市町村名": "佐賀県伊万里市",
        "施設・場所名": "二里小学校",
        "住所": "佐賀県伊万里市二里町大里乙284-1",
        "指定緊急避難場所との住所同一": "",
        "その他市町村長が必要と認める事項": "",
        "受入対象者": "",
        "備考": ""
      }
    },
    {
      "type": "Feature",
      "geometry": {
        "type": "Point",
        "coordinates": [
          129.854731,
          33.256731
        ]
      },
      "properties": {
        "NO": 74100,
        "共通ID": "E4120500031111",
        "都道府県名及び市町村名": "佐賀県伊万里市",
        "施設・場所名": "二里コミュニティセンター",
        "住所": "佐賀県伊万里市二里町大里乙321-3",
        "指定緊急避難場所との住所同一": "",
        "その他市町村長が必要と認める事項": null,
        "受入対象者": null,
        "備考": ""
      }
    },
    {
      "type": "Feature",
      "geometry": {
        "type": "Point",
        "coordinates": [
          129.870433,
          33.267588
        ]
      },
      "properties": {
        "NO": 74101,
        "共通ID": "E4120500032111",
        "都道府県名及び市町村名": "佐賀県伊万里市",
        "施設・場所名": "国見台体育館",
        "住所": "佐賀県伊万里市二里町大里甲2153-1",
        "指定緊急避難場所との住所同一": "1",
        "その他市町村長が必要と認める事項": null,
        "受入対象者": null,
        "備考": ""
      }
    },
    {
      "type": "Feature",
      "geometry": {
        "type": "Point",
        "coordinates": [
          129.872003,
          33.372189
        ]
      },
      "properties": {
        "NO": 74102,
        "共通ID": "E4120500033111",
        "都道府県名及び市町村名": "佐賀県伊万里市",
        "施設・場所名": "波多津コミュニティセンター",
        "住所": "佐賀県伊万里市波多津町辻2989-5",
        "指定緊急避難場所との住所同一": "",
        "その他市町村長が必要と認める事項": "",
        "受入対象者": "",
        "備考": ""
      }
    },
    {
      "type": "Feature",
      "geometry": {
        "type": "Point",
        "coordinates": [
          129.891721,
          33.379299
        ]
      },
      "properties": {
        "NO": 74103,
        "共通ID": "E4120500034111",
        "都道府県名及び市町村名": "佐賀県伊万里市",
        "施設・場所名": "波多津小学校校舎",
        "住所": "佐賀県伊万里市波多津町筒井11",
        "指定緊急避難場所との住所同一": "1",
        "その他市町村長が必要と認める事項": null,
        "受入対象者": null,
        "備考": ""
      }
    },
    {
      "type": "Feature",
      "geometry": {
        "type": "Point",
        "coordinates": [
          129.874265,
          33.285467
        ]
      },
      "properties": {
        "NO": 74104,
        "共通ID": "E4120500035111",
        "都道府県名及び市町村名": "佐賀県伊万里市",
        "施設・場所名": "啓成中学校",
        "住所": "佐賀県伊万里市木須町131",
        "指定緊急避難場所との住所同一": "1",
        "その他市町村長が必要と認める事項": null,
        "受入対象者": null,
        "備考": ""
      }
    },
    {
      "type": "Feature",
      "geometry": {
        "type": "Point",
        "coordinates": [
          129.855541,
          33.295962
        ]
      },
      "properties": {
        "NO": 74105,
        "共通ID": "E4120500036111",
        "都道府県名及び市町村名": "佐賀県伊万里市",
        "施設・場所名": "牧島コミュニティセンター",
        "住所": "佐賀県伊万里市木須町5832-2",
        "指定緊急避難場所との住所同一": "",
        "その他市町村長が必要と認める事項": null,
        "受入対象者": null,
        "備考": ""
      }
    },
    {
      "type": "Feature",
      "geometry": {
        "type": "Point",
        "coordinates": [
          129.882761,
          33.265885
        ]
      },
      "properties": {
        "NO": 74106,
        "共通ID": "E4120500037111",
        "都道府県名及び市町村名": "佐賀県伊万里市",
        "施設・場所名": "同和教育集会所",
        "住所": "佐賀県伊万里市立花町1542-29",
        "指定緊急避難場所との住所同一": "",
        "その他市町村長が必要と認める事項": null,
        "受入対象者": null,
        "備考": ""
      }
    },
    {
      "type": "Feature",
      "geometry": {
        "type": "Point",
        "coordinates": [
          129.883103,
          33.258467
        ]
      },
      "properties": {
        "NO": 74107,
        "共通ID": "E4120500038111",
        "都道府県名及び市町村名": "佐賀県伊万里市",
        "施設・場所名": "立花コミュニティセンター",
        "住所": "佐賀県伊万里市立花町1891-79",
        "指定緊急避難場所との住所同一": "",
        "その他市町村長が必要と認める事項": null,
        "受入対象者": null,
        "備考": ""
      }
    },
    {
      "type": "Feature",
      "geometry": {
        "type": "Point",
        "coordinates": [
          129.884629,
          33.259579
        ]
      },
      "properties": {
        "NO": 74108,
        "共通ID": "E4120500039111",
        "都道府県名及び市町村名": "佐賀県伊万里市",
        "施設・場所名": "立花小学校",
        "住所": "佐賀県伊万里市立花町1901-1",
        "指定緊急避難場所との住所同一": "1",
        "その他市町村長が必要と認める事項": null,
        "受入対象者": null,
        "備考": ""
      }
    },
    {
      "type": "Feature",
      "geometry": {
        "type": "Point",
        "coordinates": [
          129.883906,
          33.275722
        ]
      },
      "properties": {
        "NO": 74109,
        "共通ID": "E4120500040111",
        "都道府県名及び市町村名": "佐賀県伊万里市",
        "施設・場所名": "伊万里中学校",
        "住所": "佐賀県伊万里市立花町4063-1",
        "指定緊急避難場所との住所同一": "",
        "その他市町村長が必要と認める事項": null,
        "受入対象者": null,
        "備考": ""
      }
    },
    {
      "type": "Feature",
      "geometry": {
        "type": "Point",
        "coordinates": [
          129.878764,
          33.282858
        ]
      },
      "properties": {
        "NO": 74110,
        "共通ID": "E4120500041111",
        "都道府県名及び市町村名": "佐賀県伊万里市",
        "施設・場所名": "伊万里小学校",
        "住所": "佐賀県伊万里市脇田町1419-1",
        "指定緊急避難場所との住所同一": "1",
        "その他市町村長が必要と認める事項": "",
        "受入対象者": "",
        "備考": ""
      }
    }
  ]
}