{
  "type": "FeatureCollection",
  "name": "422100",
  "features": [
    {
      "type": "Feature",
      "geometry": {
        "type": "Point",
        "coordinates": [
          129.762472,
          33.80287
        ]
      },
      "properties": {
        "NO": 75366,
        "共通ID": "E4221000001111",
        "都道府県名及び市町村名": "長崎県壱岐市",
        "施設・場所名": "芦辺地区公民館",
        "住所": "長崎県壱岐市芦辺町芦辺浦524",
        "指定緊急避難場所との住所同一": "1",
        "その他市町村長が必要と認める事項": "",
        "受入対象者": "",
        "備考": ""
      }
    },
    {
      "type": "Feature",
      "geometry": {
        "type": "Point",
        "coordinates": [
          129.761665,
          33.803276
        ]
      },
      "properties": {
        "NO": 75367,
        "共通ID": "E4221000002111",
        "都道府県名及び市町村名": "長崎県壱岐市",
        "施設・場所名": "芦辺小学校",
        "住所": "長崎県壱岐市芦辺町芦辺浦546",
        "指定緊急避難場所との住所同一": "1",
        "その他市町村長が必要と認める事項": null,
        "受入対象者": null,
        "備考": ""
      }
    },
    {
      "type": "Feature",
      "geometry": {
        "type": "Point",
        "coordinates": [
          129.757827,
          33.802543
        ]
      },
      "properties": {
        "NO": 75368,
        "共通ID": "E4221000003111",
        "都道府県名及び市町村名": "長崎県壱岐市",
        "施設・場所名": "芦辺浦住民集会所",
        "住所": "長崎県壱岐市芦辺町芦辺浦85-3",
        "指定緊急避難場所との住所同一": "1",
        "その他市町村長が必要と認める事項": null,
        "受入対象者": null,
        "備考": ""
      }
    },
    {
      "type": "Feature",
      "geometry": {
        "type": "Point",
        "coordinates": [
          129.743561,
          33.806419
        ]
      },
      "properties": {
        "NO": 75369,
        "共通ID": "E4221000005111",
        "都道府県名及び市町村名": "長崎県壱岐市",
        "施設・場所名": "壱岐島開発総合センター",
        "住所": "長崎県壱岐市芦辺町諸吉大石触197",
        "指定緊急避難場所との住所同一": "1",
        "その他市町村長が必要と認める事項": null,
        "受入対象者": null,
        "備考": ""
      }
    },
    {
      "type": "Feature",
      "geometry": {
        "type": "Point",
        "coordinates": [
          129.783331,
          33.787172
        ]
      },
      "properties": {
        "NO": 75370,
        "共通ID": "E4221000007111",
        "都道府県名及び市町村名": "長崎県壱岐市",
        "施設・場所名": "八幡小学校",
        "住所": "長崎県壱岐市芦辺町諸吉南触1565",
        "指定緊急避難場所との住所同一": "1",
        "その他市町村長が必要と認める事項": null,
        "受入対象者": null,
        "備考": ""
      }
    },
    {
      "type": "Feature",
      "geometry": {
        "type": "Point",
        "coordinates": [
          129.754651,
          33.78374
        ]
      },
      "properties": {
        "NO": 75371,
        "共通ID": "E4221000008111",
        "都道府県名及び市町村名": "長崎県壱岐市",
        "施設・場所名": "田河小学校",
        "住所": "長崎県壱岐市芦辺町諸吉二亦触1659",
        "指定緊急避難場所との住所同一": "1",
        "その他市町村長が必要と認める事項": "",
        "受入対象者": "",
        "備考": ""
      }
    },
    {
      "type": "Feature",
      "geometry": {
        "type": "Point",
        "coordinates": [
          129.721339,
          33.790337
        ]
      },
      "properties": {
        "NO": 75372,
        "共通ID": "E4221000013111",
        "都道府県名及び市町村名": "長崎県壱岐市",
        "施設・場所名": "那賀地区公民館",
        "住所": "長崎県壱岐市芦辺町中野郷西触362",
        "指定緊急避難場所との住所同一": "1",
        "その他市町村長が必要と認める事項": null,
        "受入対象者": null,
        "備考": ""
      }
    },
    {
      "type": "Feature",
      "geometry": {
        "type": "Point",
        "coordinates": [
          129.720978,
          33.79213
        ]
      },
      "properties": {
        "NO": 75373,
        "共通ID": "E4221000014111",
        "都道府県名及び市町村名": "長崎県壱岐市",
        "施設・場所名": "芦辺中学校",
        "住所": "長崎県壱岐市芦辺町中野郷西触400",
        "指定緊急避難場所との住所同一": "1",
        "その他市町村長が必要と認める事項": "",
        "受入対象者": "",
        "備考": ""
      }
    },
    {
      "type": "Feature",
      "geometry": {
        "type": "Point",
        "coordinates": [
          129.755247,
          33.817243
        ]
      },
      "properties": {
        "NO": 75374,
        "共通ID": "E4221000018111",
        "都道府県名及び市町村名": "長崎県壱岐市",
        "施設・場所名": "箱崎地区公民館",
        "住所": "長崎県壱岐市芦辺町箱崎大左右触924",
        "指定緊急避難場所との住所同一": "1",
        "その他市町村長が必要と認める事項": null,
        "受入対象者": null,
        "備考": ""
      }
    },
    {
      "type": "Feature",
      "geometry": {
        "type": "Point",
        "coordinates": [
          129.747133,
          33.809604
        ]
      },
      "properties": {
        "NO": 75375,
        "共通ID": "E4221000019111",
        "都道府県名及び市町村名": "長崎県壱岐市",
        "施設・場所名": "芦辺町クオリティーライフセンターつばさ",
        "住所": "長崎県壱岐市芦辺町箱崎中山触2548",
        "指定緊急避難場所との住所同一": "1",
        "その他市町村長が必要と認める事項": null,
        "受入対象者": null,
        "備考": ""
      }
    },
    {
      "type": "Feature",
      "geometry": {
        "type": "Point",
        "coordinates": [
          129.74716,
          33.809633
        ]
      },
      "properties": {
        "NO": 75376,
        "共通ID": "E4221000019121",
        "都道府県名及び市町村名": "長崎県壱岐市",
        "施設・場所名": "芦辺町クオリティライフセンターつばさ",
        "住所": "長崎県壱岐市芦辺町箱崎中山触2548",
        "指定緊急避難場所との住所同一": "1",
        "その他市町村長が必要と認める事項": null,
        "受入対象者": "要配慮者",
        "備考": ""
      }
    },
    {
      "type": "Feature",
      "geometry": {
        "type": "Point",
        "coordinates": [
          129.737928,
          33.825492
        ]
      },
      "properties": {
        "NO": 75377,
        "共通ID": "E4221000020111",
        "都道府県名及び市町村名": "長崎県壱岐市",
        "施設・場所名": "箱崎僻地保健福祉館",
        "住所": "長崎県壱岐市芦辺町箱崎釘ノ尾触1293",
        "指定緊急避難場所との住所同一": "1",
        "その他市町村長が必要と認める事項": null,
        "受入対象者": null,
        "備考": ""
      }
    },
    {
      "type": "Feature",
      "geometry": {
        "type": "Point",
        "coordinates": [
          129.740794,
          33.826739
        ]
      },
      "properties": {
        "NO": 75378,
        "共通ID": "E4221000021111",
        "都道府県名及び市町村名": "長崎県壱岐市",
        "施設・場所名": "箱崎小学校",
        "住所": "長崎県壱岐市芦辺町箱崎釘ノ尾触652",
        "指定緊急避難場所との住所同一": "1",
        "その他市町村長が必要と認める事項": null,
        "受入対象者": null,
        "備考": ""
      }
    },
    {
      "type": "Feature",
      "geometry": {
        "type": "Point",
        "coordinates": [
          129.648949,
          33.726064
        ]
      },
      "properties": {
        "NO": 75379,
        "共通ID": "E4221000022111",
        "都道府県名及び市町村名": "長崎県壱岐市",
        "施設・場所名": "旧三島小学校原島分校",
        "住所": "長崎県壱岐市郷ノ浦町原島305",
        "指定緊急避難場所との住所同一": "1",
        "その他市町村長が必要と認める事項": null,
        "受入対象者": null,
        "備考": ""
      }
    },
    {
      "type": "Feature",
      "geometry": {
        "type": "Point",
        "coordinates": [
          129.648851,
          33.723086
        ]
      },
      "properties": {
        "NO": 75380,
        "共通ID": "E4221000023111",
        "都道府県名及び市町村名": "長崎県壱岐市",
        "施設・場所名": "原島老人憩いの家",
        "住所": "長崎県壱岐市郷ノ浦町原島487-2",
        "指定緊急避難場所との住所同一": "1",
        "その他市町村長が必要と認める事項": null,
        "受入対象者": null,
        "備考": ""
      }
    },
    {
      "type": "Feature",
      "geometry": {
        "type": "Point",
        "coordinates": [
          129.702875,
          33.71926
        ]
      },
      "properties": {
        "NO": 75381,
        "共通ID": "E4221000025111",
        "都道府県名及び市町村名": "長崎県壱岐市",
        "施設・場所名": "初山小学校",
        "住所": "長崎県壱岐市郷ノ浦町初山西触807-1",
        "指定緊急避難場所との住所同一": "1",
        "その他市町村長が必要と認める事項": "",
        "受入対象者": "",
        "備考": ""
      }
    },
    {
      "type": "Feature",
      "geometry": {
        "type": "Point",
        "coordinates": [
          129.704345,
          33.718751
        ]
      },
      "properties": {
        "NO": 75382,
        "共通ID": "E4221000026111",
        "都道府県名及び市町村名": "長崎県壱岐市",
        "施設・場所名": "初山地区公民館",
        "住所": "長崎県壱岐市郷ノ浦町初山東触237-2",
        "指定緊急避難場所との住所同一": "1",
        "その他市町村長が必要と認める事項": null,
        "受入対象者": null,
        "備考": ""
      }
    },
    {
      "type": "Feature",
      "geometry": {
        "type": "Point",
        "coordinates": [
          129.67206,
          33.788764
        ]
      },
      "properties": {
        "NO": 75383,
        "共通ID": "E4221000027111",
        "都道府県名及び市町村名": "長崎県壱岐市",
        "施設・場所名": "沼津小学校",
        "住所": "長崎県壱岐市郷ノ浦町小牧東触184",
        "指定緊急避難場所との住所同一": "1",
        "その他市町村長が必要と認める事項": null,
        "受入対象者": null,
        "備考": ""
      }
    },
    {
      "type": "Feature",
      "geometry": {
        "type": "Point",
        "coordinates": [
          129.72068,
          33.753899
        ]
      },
      "properties": {
        "NO": 75384,
        "共通ID": "E4221000028111",
        "都道府県名及び市町村名": "長崎県壱岐市",
        "施設・場所名": "志原小学校",
        "住所": "長崎県壱岐市郷ノ浦町大原触115",
        "指定緊急避難場所との住所同一": "1",
        "その他市町村長が必要と認める事項": null,
        "受入対象者": null,
        "備考": ""
      }
    },
    {
      "type": "Feature",
      "geometry": {
        "type": "Point",
        "coordinates": [
          129.637751,
          33.739128
        ]
      },
      "properties": {
        "NO": 75385,
        "共通ID": "E4221000029111",
        "都道府県名及び市町村名": "長崎県壱岐市",
        "施設・場所名": "大島僻地保健福祉館",
        "住所": "長崎県壱岐市郷ノ浦町大島607",
        "指定緊急避難場所との住所同一": "1",
        "その他市町村長が必要と認める事項": null,
        "受入対象者": null,
        "備考": ""
      }
    },
    {
      "type": "Feature",
      "geometry": {
        "type": "Point",
        "coordinates": [
          129.634696,
          33.738375
        ]
      },
      "properties": {
        "NO": 75386,
        "共通ID": "E4221000030111",
        "都道府県名及び市町村名": "長崎県壱岐市",
        "施設・場所名": "三島小学校",
        "住所": "長崎県壱岐市郷ノ浦町大島815",
        "指定緊急避難場所との住所同一": "1",
        "その他市町村長が必要と認める事項": null,
        "受入対象者": null,
        "備考": ""
      }
    },
    {
      "type": "Feature",
      "geometry": {
        "type": "Point",
        "coordinates": [
          129.634456,
          33.728195
        ]
      },
      "properties": {
        "NO": 75387,
        "共通ID": "E4221000032111",
        "都道府県名及び市町村名": "長崎県壱岐市",
        "施設・場所名": "長島老人憩いの家",
        "住所": "長崎県壱岐市郷ノ浦町長島672",
        "指定緊急避難場所との住所同一": "1",
        "その他市町村長が必要と認める事項": null,
        "受入対象者": null,
        "備考": ""
      }
    },
    {
      "type": "Feature",
      "geometry": {
        "type": "Point",
        "coordinates": [
          129.673383,
          33.791835
        ]
      },
      "properties": {
        "NO": 75388,
        "共通ID": "E4221000033111",
        "都道府県名及び市町村名": "長崎県壱岐市",
        "施設・場所名": "沼津地区公民館",
        "住所": "長崎県壱岐市郷ノ浦町長峰本村触836-3",
        "指定緊急避難場所との住所同一": "1",
        "その他市町村長が必要と認める事項": null,
        "受入対象者": null,
        "備考": ""
      }
    },
    {
      "type": "Feature",
      "geometry": {
        "type": "Point",
        "coordinates": [
          129.696835,
          33.732338
        ]
      },
      "properties": {
        "NO": 75389,
        "共通ID": "E4221000034111",
        "都道府県名及び市町村名": "長崎県壱岐市",
        "施設・場所名": "郷ノ浦町デイサービスセンター",
        "住所": "長崎県壱岐市郷ノ浦町坪触3099",
        "指定緊急避難場所との住所同一": "1",
        "その他市町村長が必要と認める事項": "",
        "受入対象者": "",
        "備考": ""
      }
    },
    {
      "type": "Feature",
      "geometry": {
        "type": "Point",
        "coordinates": [
          129.69751,
          33.732153
        ]
      },
      "properties": {
        "NO": 75390,
        "共通ID": "E4221000034121",
        "都道府県名及び市町村名": "長崎県壱岐市",
        "施設・場所名": "郷ノ浦町デイサービスセンター",
        "住所": "長崎県壱岐市郷ノ浦町坪触3099",
        "指定緊急避難場所との住所同一": "1",
        "その他市町村長が必要と認める事項": null,
        "受入対象者": "要配慮者",
        "備考": ""
      }
    },
    {
      "type": "Feature",
      "geometry": {
        "type": "Point",
        "coordinates": [
          129.695646,
          33.759728
        ]
      },
      "properties": {
        "NO": 75391,
        "共通ID": "E4221000035111",
        "都道府県名及び市町村名": "長崎県壱岐市",
        "施設・場所名": "大谷公園体育館",
        "住所": "長崎県壱岐市郷ノ浦町田中触1223",
        "指定緊急避難場所との住所同一": "1",
        "その他市町村長が必要と認める事項": null,
        "受入対象者": null,
        "備考": ""
      }
    },
    {
      "type": "Feature",
      "geometry": {
        "type": "Point",
        "coordinates": [
          129.662614,
          33.756589
        ]
      },
      "properties": {
        "NO": 75392,
        "共通ID": "E4221000036111",
        "都道府県名及び市町村名": "長崎県壱岐市",
        "施設・場所名": "渡良小学校",
        "住所": "長崎県壱岐市郷ノ浦町渡良東触365",
        "指定緊急避難場所との住所同一": "",
        "その他市町村長が必要と認める事項": null,
        "受入対象者": null,
        "備考": ""
      }
    },
    {
      "type": "Feature",
      "geometry": {
        "type": "Point",
        "coordinates": [
          129.661784,
          33.755914
        ]
      },
      "properties": {
        "NO": 75393,
        "共通ID": "E4221000067111",
        "都道府県名及び市町村名": "長崎県壱岐市",
        "施設・場所名": "壱岐市渡良事務所",
        "住所": "長崎県壱岐市郷ノ浦町渡良南触422-1",
        "指定緊急避難場所との住所同一": "1",
        "その他市町村長が必要と認める事項": "",
        "受入対象者": "",
        "備考": ""
      }
    },
    {
      "type": "Feature",
      "geometry": {
        "type": "Point",
        "coordinates": [
          129.692684,
          33.746265
        ]
      },
      "properties": {
        "NO": 75394,
        "共通ID": "E4221000037111",
        "都道府県名及び市町村名": "長崎県壱岐市",
        "施設・場所名": "壱岐高等学校",
        "住所": "長崎県壱岐市郷ノ浦町片原触88",
        "指定緊急避難場所との住所同一": "1",
        "その他市町村長が必要と認める事項": null,
        "受入対象者": null,
        "備考": ""
      }
    },
    {
      "type": "Feature",
      "geometry": {
        "type": "Point",
        "coordinates": [
          129.687184,
          33.749031
        ]
      },
      "properties": {
        "NO": 75395,
        "共通ID": "E4221000038111",
        "都道府県名及び市町村名": "長崎県壱岐市",
        "施設・場所名": "壱岐の島ホール",
        "住所": "長崎県壱岐市郷ノ浦町本村触445",
        "指定緊急避難場所との住所同一": "1",
        "その他市町村長が必要と認める事項": "",
        "受入対象者": "",
        "備考": ""
      }
    },
    {
      "type": "Feature",
      "geometry": {
        "type": "Point",
        "coordinates": [
          129.694971,
          33.751291
        ]
      },
      "properties": {
        "NO": 75396,
        "共通ID": "E4221000040111",
        "都道府県名及び市町村名": "長崎県壱岐市",
        "施設・場所名": "郷ノ浦中学校",
        "住所": "長崎県壱岐市郷ノ浦町本村触75",
        "指定緊急避難場所との住所同一": "1",
        "その他市町村長が必要と認める事項": "",
        "受入対象者": "",
        "備考": ""
      }
    },
    {
      "type": "Feature",
      "geometry": {
        "type": "Point",
        "coordinates": [
          129.701434,
          33.766378
        ]
      },
      "properties": {
        "NO": 75397,
        "共通ID": "E4221000041111",
        "都道府県名及び市町村名": "長崎県壱岐市",
        "施設・場所名": "柳田小学校",
        "住所": "長崎県壱岐市郷ノ浦町柳田触885",
        "指定緊急避難場所との住所同一": "1",
        "その他市町村長が必要と認める事項": null,
        "受入対象者": null,
        "備考": ""
      }
    },
    {
      "type": "Feature",
      "geometry": {
        "type": "Point",
        "coordinates": [
          129.693301,
          33.851171
        ]
      },
      "properties": {
        "NO": 75398,
        "共通ID": "E4221000043111",
        "都道府県名及び市町村名": "長崎県壱岐市",
        "施設・場所名": "勝本地区公民館",
        "住所": "長崎県壱岐市勝本町勝本浦211-3",
        "指定緊急避難場所との住所同一": "1",
        "その他市町村長が必要と認める事項": null,
        "受入対象者": null,
        "備考": ""
      }
    },
    {
      "type": "Feature",
      "geometry": {
        "type": "Point",
        "coordinates": [
          129.690447,
          33.853671
        ]
      },
      "properties": {
        "NO": 75399,
        "共通ID": "E4221000044111",
        "都道府県名及び市町村名": "長崎県壱岐市",
        "施設・場所名": "西部地区老人憩いの家",
        "住所": "長崎県壱岐市勝本町勝本浦389",
        "指定緊急避難場所との住所同一": "1",
        "その他市町村長が必要と認める事項": null,
        "受入対象者": null,
        "備考": ""
      }
    },
    {
      "type": "Feature",
      "geometry": {
        "type": "Point",
        "coordinates": [
          129.694591,
          33.854177
        ]
      },
      "properties": {
        "NO": 75400,
        "共通ID": "E4221000045111",
        "都道府県名及び市町村名": "長崎県壱岐市",
        "施設・場所名": "勝本町漁村センター",
        "住所": "長崎県壱岐市勝本町勝本浦575-61",
        "指定緊急避難場所との住所同一": "1",
        "その他市町村長が必要と認める事項": null,
        "受入対象者": null,
        "備考": ""
      }
    },
    {
      "type": "Feature",
      "geometry": {
        "type": "Point",
        "coordinates": [
          129.705305,
          33.824382
        ]
      },
      "properties": {
        "NO": 75401,
        "共通ID": "E4221000046111",
        "都道府県名及び市町村名": "長崎県壱岐市",
        "施設・場所名": "勝本海洋センターＢ＆Ｇ体育館",
        "住所": "長崎県壱岐市勝本町新城西触1694",
        "指定緊急避難場所との住所同一": "1",
        "その他市町村長が必要と認める事項": null,
        "受入対象者": null,
        "備考": ""
      }
    },
    {
      "type": "Feature",
      "geometry": {
        "type": "Point",
        "coordinates": [
          129.713986,
          33.832346
        ]
      },
      "properties": {
        "NO": 75402,
        "共通ID": "E4221000047111",
        "都道府県名及び市町村名": "長崎県壱岐市",
        "施設・場所名": "壱岐商業高等高校",
        "住所": "長崎県壱岐市勝本町新城西触282",
        "指定緊急避難場所との住所同一": "1",
        "その他市町村長が必要と認める事項": null,
        "受入対象者": null,
        "備考": ""
      }
    },
    {
      "type": "Feature",
      "geometry": {
        "type": "Point",
        "coordinates": [
          129.692105,
          33.84867
        ]
      },
      "properties": {
        "NO": 75403,
        "共通ID": "E4221000048111",
        "都道府県名及び市町村名": "長崎県壱岐市",
        "施設・場所名": "壱岐西部開発総合センター",
        "住所": "長崎県壱岐市勝本町西戸触182-5",
        "指定緊急避難場所との住所同一": "1",
        "その他市町村長が必要と認める事項": null,
        "受入対象者": null,
        "備考": ""
      }
    },
    {
      "type": "Feature",
      "geometry": {
        "type": "Point",
        "coordinates": [
          129.691782,
          33.843874
        ]
      },
      "properties": {
        "NO": 75404,
        "共通ID": "E4221000050121",
        "都道府県名及び市町村名": "長崎県壱岐市",
        "施設・場所名": "勝本町ふれあいセンターかざはや",
        "住所": "長崎県壱岐市勝本町大久保触1736-2",
        "指定緊急避難場所との住所同一": "1",
        "その他市町村長が必要と認める事項": null,
        "受入対象者": "要配慮者",
        "備考": ""
      }
    },
    {
      "type": "Feature",
      "geometry": {
        "type": "Point",
        "coordinates": [
          129.691782,
          33.843874
        ]
      },
      "properties": {
        "NO": 75405,
        "共通ID": "E4221000050111",
        "都道府県名及び市町村名": "長崎県壱岐市",
        "施設・場所名": "勝本町ふれあいセンターかざはや",
        "住所": "長崎県壱岐市勝本町大久保触1736-2",
        "指定緊急避難場所との住所同一": "1",
        "その他市町村長が必要と認める事項": null,
        "受入対象者": null,
        "備考": ""
      }
    },
    {
      "type": "Feature",
      "geometry": {
        "type": "Point",
        "coordinates": [
          129.698026,
          33.850319
        ]
      },
      "properties": {
        "NO": 75406,
        "共通ID": "E4221000051111",
        "都道府県名及び市町村名": "長崎県壱岐市",
        "施設・場所名": "勝本中学校",
        "住所": "長崎県壱岐市勝本町仲触1846",
        "指定緊急避難場所との住所同一": "1",
        "その他市町村長が必要と認める事項": "",
        "受入対象者": "",
        "備考": ""
      }
    },
    {
      "type": "Feature",
      "geometry": {
        "type": "Point",
        "coordinates": [
          129.698361,
          33.803521
        ]
      },
      "properties": {
        "NO": 75407,
        "共通ID": "E4221000052111",
        "都道府県名及び市町村名": "長崎県壱岐市",
        "施設・場所名": "布気地区老人憩いの家",
        "住所": "長崎県壱岐市勝本町百合畑触398",
        "指定緊急避難場所との住所同一": "1",
        "その他市町村長が必要と認める事項": null,
        "受入対象者": null,
        "備考": ""
      }
    },
    {
      "type": "Feature",
      "geometry": {
        "type": "Point",
        "coordinates": [
          129.690195,
          33.80485
        ]
      },
      "properties": {
        "NO": 75408,
        "共通ID": "E4221000053111",
        "都道府県名及び市町村名": "長崎県壱岐市",
        "施設・場所名": "湯本地区公民館",
        "住所": "長崎県壱岐市勝本町布気触818-10",
        "指定緊急避難場所との住所同一": "1",
        "その他市町村長が必要と認める事項": null,
        "受入対象者": null,
        "備考": ""
      }
    },
    {
      "type": "Feature",
      "geometry": {
        "type": "Point",
        "coordinates": [
          129.714956,
          33.830926
        ]
      },
      "properties": {
        "NO": 75409,
        "共通ID": "E4221000054111",
        "都道府県名及び市町村名": "長崎県壱岐市",
        "施設・場所名": "新城地区老人憩いの家",
        "住所": "長崎県壱岐市勝本町北触37",
        "指定緊急避難場所との住所同一": "1",
        "その他市町村長が必要と認める事項": null,
        "受入対象者": null,
        "備考": ""
      }
    },
    {
      "type": "Feature",
      "geometry": {
        "type": "Point",
        "coordinates": [
          129.689233,
          33.804086
        ]
      },
      "properties": {
        "NO": 75410,
        "共通ID": "E4221000055111",
        "都道府県名及び市町村名": "長崎県壱岐市",
        "施設・場所名": "鯨伏小学校",
        "住所": "長崎県壱岐市勝本町立石南触1137-10",
        "指定緊急避難場所との住所同一": "1",
        "その他市町村長が必要と認める事項": null,
        "受入対象者": null,
        "備考": ""
      }
    },
    {
      "type": "Feature",
      "geometry": {
        "type": "Point",
        "coordinates": [
          129.690217,
          33.803945
        ]
      },
      "properties": {
        "NO": 75411,
        "共通ID": "E4221000056111",
        "都道府県名及び市町村名": "長崎県壱岐市",
        "施設・場所名": "旧鯨伏中学校",
        "住所": "長崎県壱岐市勝本町立石南触1137-2",
        "指定緊急避難場所との住所同一": "",
        "その他市町村長が必要と認める事項": null,
        "受入対象者": null,
        "備考": ""
      }
    },
    {
      "type": "Feature",
      "geometry": {
        "type": "Point",
        "coordinates": [
          129.684756,
          33.799413
        ]
      },
      "properties": {
        "NO": 75412,
        "共通ID": "E4221000057111",
        "都道府県名及び市町村名": "長崎県壱岐市",
        "施設・場所名": "立石地区老人憩いの家",
        "住所": "長崎県壱岐市勝本町立石南触583",
        "指定緊急避難場所との住所同一": "1",
        "その他市町村長が必要と認める事項": null,
        "受入対象者": null,
        "備考": ""
      }
    },
    {
      "type": "Feature",
      "geometry": {
        "type": "Point",
        "coordinates": [
          129.732845,
          33.73881
        ]
      },
      "properties": {
        "NO": 75413,
        "共通ID": "E4221000058111",
        "都道府県名及び市町村名": "長崎県壱岐市",
        "施設・場所名": "久喜地区住民センター",
        "住所": "長崎県壱岐市石田町久喜触181",
        "指定緊急避難場所との住所同一": "1",
        "その他市町村長が必要と認める事項": null,
        "受入対象者": null,
        "備考": ""
      }
    },
    {
      "type": "Feature",
      "geometry": {
        "type": "Point",
        "coordinates": [
          129.755285,
          33.747194
        ]
      },
      "properties": {
        "NO": 75414,
        "共通ID": "E4221000060111",
        "都道府県名及び市町村名": "長崎県壱岐市",
        "施設・場所名": "石田スポーツセンター",
        "住所": "長崎県壱岐市石田町石田西触1264-4",
        "指定緊急避難場所との住所同一": "1",
        "その他市町村長が必要と認める事項": null,
        "受入対象者": null,
        "備考": ""
      }
    },
    {
      "type": "Feature",
      "geometry": {
        "type": "Point",
        "coordinates": [
          129.75315,
          33.745193
        ]
      },
      "properties": {
        "NO": 75415,
        "共通ID": "E4221000061111",
        "都道府県名及び市町村名": "長崎県壱岐市",
        "施設・場所名": "石田町総合福祉センター",
        "住所": "長崎県壱岐市石田町石田西触1486-1",
        "指定緊急避難場所との住所同一": "1",
        "その他市町村長が必要と認める事項": "",
        "受入対象者": "",
        "備考": ""
      }
    },
    {
      "type": "Feature",
      "geometry": {
        "type": "Point",
        "coordinates": [
          129.753218,
          33.745184
        ]
      },
      "properties": {
        "NO": 75416,
        "共通ID": "E4221000061121",
        "都道府県名及び市町村名": "長崎県壱岐市",
        "施設・場所名": "石田町総合福祉センター",
        "住所": "長崎県壱岐市石田町石田西触1486-1",
        "指定緊急避難場所との住所同一": "1",
        "その他市町村長が必要と認める事項": null,
        "受入対象者": "要配慮者",
        "備考": ""
      }
    },
    {
      "type": "Feature",
      "geometry": {
        "type": "Point",
        "coordinates": [
          129.756047,
          33.746162
        ]
      },
      "properties": {
        "NO": 75417,
        "共通ID": "E4221000062111",
        "都道府県名及び市町村名": "長崎県壱岐市",
        "施設・場所名": "石田中学校",
        "住所": "長崎県壱岐市石田町石田西触1547",
        "指定緊急避難場所との住所同一": "1",
        "その他市町村長が必要と認める事項": null,
        "受入対象者": null,
        "備考": ""
      }
    },
    {
      "type": "Feature",
      "geometry": {
        "type": "Point",
        "coordinates": [
          129.751475,
          33.744357
        ]
      },
      "properties": {
        "NO": 75418,
        "共通ID": "E4221000063111",
        "都道府県名及び市町村名": "長崎県壱岐市",
        "施設・場所名": "石田農村環境改善センター",
        "住所": "長崎県壱岐市石田町池田東触671-1",
        "指定緊急避難場所との住所同一": "1",
        "その他市町村長が必要と認める事項": null,
        "受入対象者": null,
        "備考": ""
      }
    },
    {
      "type": "Feature",
      "geometry": {
        "type": "Point",
        "coordinates": [
          129.773309,
          33.761023
        ]
      },
      "properties": {
        "NO": 75419,
        "共通ID": "E4221000064111",
        "都道府県名及び市町村名": "長崎県壱岐市",
        "施設・場所名": "筒城地区公民館",
        "住所": "長崎県壱岐市石田町筒城西触157",
        "指定緊急避難場所との住所同一": "1",
        "その他市町村長が必要と認める事項": null,
        "受入対象者": null,
        "備考": ""
      }
    },
    {
      "type": "Feature",
      "geometry": {
        "type": "Point",
        "coordinates": [
          129.773181,
          33.759167
        ]
      },
      "properties": {
        "NO": 75420,
        "共通ID": "E4221000065111",
        "都道府県名及び市町村名": "長崎県壱岐市",
        "施設・場所名": "筒城小学校",
        "住所": "長崎県壱岐市石田町筒城西触191",
        "指定緊急避難場所との住所同一": "1",
        "その他市町村長が必要と認める事項": null,
        "受入対象者": null,
        "備考": ""
      }
    },
    {
      "type": "Feature",
      "geometry": {
        "type": "Point",
        "coordinates": [
          129.78988,
          33.758798
        ]
      },
      "properties": {
        "NO": 75421,
        "共通ID": "E4221000068111",
        "都道府県名及び市町村名": "長崎県壱岐市",
        "施設・場所名": "筒城浜ふれあいセンター",
        "住所": "長崎県壱岐市石田町筒城仲触1885",
        "指定緊急避難場所との住所同一": "1",
        "その他市町村長が必要と認める事項": "",
        "受入対象者": "",
        "備考": ""
      }
    }
  ]
}