{
  "type": "FeatureCollection",
  "name": "423912",
  "features": [
    {
      "type": "Feature",
      "geometry": {
        "type": "Point",
        "coordinates": [
          129.653782,
          33.223557
        ]
      },
      "properties": {
        "NO": 75794,
        "共通ID": "E4239100003111",
        "都道府県名及び市町村名": "長崎県佐々町",
        "施設・場所名": "南部地区体育館",
        "住所": "長崎県佐々町口石免1336-1",
        "指定緊急避難場所との住所同一": "",
        "その他市町村長が必要と認める事項": "",
        "受入対象者": "",
        "備考": ""
      }
    },
    {
      "type": "Feature",
      "geometry": {
        "type": "Point",
        "coordinates": [
          129.647682,
          33.233716
        ]
      },
      "properties": {
        "NO": 75795,
        "共通ID": "E4239100004111",
        "都道府県名及び市町村名": "長崎県佐々町",
        "施設・場所名": "佐々町総合福祉センター",
        "住所": "長崎県佐々町市場免23-1",
        "指定緊急避難場所との住所同一": "",
        "その他市町村長が必要と認める事項": "",
        "受入対象者": "",
        "備考": ""
      }
    },
    {
      "type": "Feature",
      "geometry": {
        "type": "Point",
        "coordinates": [
          129.650257,
          33.210686
        ]
      },
      "properties": {
        "NO": 75796,
        "共通ID": "E4239100006111",
        "都道府県名及び市町村名": "長崎県佐々町",
        "施設・場所名": "クリーンセンター",
        "住所": "長崎県佐々町小浦免1163-20",
        "指定緊急避難場所との住所同一": "",
        "その他市町村長が必要と認める事項": "",
        "受入対象者": "",
        "備考": ""
      }
    },
    {
      "type": "Feature",
      "geometry": {
        "type": "Point",
        "coordinates": [
          129.650112,
          33.221681
        ]
      },
      "properties": {
        "NO": 75797,
        "共通ID": "E4239100008111",
        "都道府県名及び市町村名": "長崎県佐々町",
        "施設・場所名": "第２保育所",
        "住所": "長崎県佐々町小浦免746",
        "指定緊急避難場所との住所同一": "",
        "その他市町村長が必要と認める事項": "",
        "受入対象者": "",
        "備考": ""
      }
    },
    {
      "type": "Feature",
      "geometry": {
        "type": "Point",
        "coordinates": [
          129.665825,
          33.258947
        ]
      },
      "properties": {
        "NO": 75798,
        "共通ID": "E4239100009111",
        "都道府県名及び市町村名": "長崎県佐々町",
        "施設・場所名": "北部地区体育館",
        "住所": "長崎県佐々町神田免21-12",
        "指定緊急避難場所との住所同一": "",
        "その他市町村長が必要と認める事項": "",
        "受入対象者": "",
        "備考": ""
      }
    },
    {
      "type": "Feature",
      "geometry": {
        "type": "Point",
        "coordinates": [
          129.650082,
          33.227703
        ]
      },
      "properties": {
        "NO": 75799,
        "共通ID": "E4239100010111",
        "都道府県名及び市町村名": "長崎県佐々町",
        "施設・場所名": "口石小学校校舎・体育館",
        "住所": "長崎県佐々町須崎免389",
        "指定緊急避難場所との住所同一": "1",
        "その他市町村長が必要と認める事項": "",
        "受入対象者": "",
        "備考": ""
      }
    },
    {
      "type": "Feature",
      "geometry": {
        "type": "Point",
        "coordinates": [
          129.657747,
          33.25029
        ]
      },
      "properties": {
        "NO": 75800,
        "共通ID": "E4239100011111",
        "都道府県名及び市町村名": "長崎県佐々町",
        "施設・場所名": "佐々小学校校舎・体育館",
        "住所": "長崎県佐々町中川原免111-1",
        "指定緊急避難場所との住所同一": "1",
        "その他市町村長が必要と認める事項": "",
        "受入対象者": "",
        "備考": ""
      }
    },
    {
      "type": "Feature",
      "geometry": {
        "type": "Point",
        "coordinates": [
          129.667752,
          33.237153
        ]
      },
      "properties": {
        "NO": 75801,
        "共通ID": "E4239100012111",
        "都道府県名及び市町村名": "長崎県佐々町",
        "施設・場所名": "佐々町農業体験施設",
        "住所": "長崎県佐々町平野免220",
        "指定緊急避難場所との住所同一": "",
        "その他市町村長が必要と認める事項": "",
        "受入対象者": "",
        "備考": ""
      }
    },
    {
      "type": "Feature",
      "geometry": {
        "type": "Point",
        "coordinates": [
          129.652314,
          33.240473
        ]
      },
      "properties": {
        "NO": 75802,
        "共通ID": "E4239100013111",
        "都道府県名及び市町村名": "長崎県佐々町",
        "施設・場所名": "佐々中学校校舎・体育館",
        "住所": "長崎県佐々町本田原免111",
        "指定緊急避難場所との住所同一": "1",
        "その他市町村長が必要と認める事項": "",
        "受入対象者": "",
        "備考": ""
      }
    },
    {
      "type": "Feature",
      "geometry": {
        "type": "Point",
        "coordinates": [
          129.652218,
          33.23832
        ]
      },
      "properties": {
        "NO": 75803,
        "共通ID": "E4239100014111",
        "都道府県名及び市町村名": "長崎県佐々町",
        "施設・場所名": "佐々町地域交流センター",
        "住所": "長崎県佐々町本田原免123",
        "指定緊急避難場所との住所同一": "",
        "その他市町村長が必要と認める事項": "",
        "受入対象者": "",
        "備考": ""
      }
    },
    {
      "type": "Feature",
      "geometry": {
        "type": "Point",
        "coordinates": [
          129.652185,
          33.238697
        ]
      },
      "properties": {
        "NO": 75804,
        "共通ID": "E4239100014112",
        "都道府県名及び市町村名": "長崎県佐々町",
        "施設・場所名": "佐々町民体育館",
        "住所": "長崎県佐々町本田原免123",
        "指定緊急避難場所との住所同一": "",
        "その他市町村長が必要と認める事項": "",
        "受入対象者": "",
        "備考": ""
      }
    },
    {
      "type": "Feature",
      "geometry": {
        "type": "Point",
        "coordinates": [
          129.651906,
          33.238418
        ]
      },
      "properties": {
        "NO": 75805,
        "共通ID": "E4239100014113",
        "都道府県名及び市町村名": "長崎県佐々町",
        "施設・場所名": "佐々町公民館",
        "住所": "長崎県佐々町本田原免123",
        "指定緊急避難場所との住所同一": "",
        "その他市町村長が必要と認める事項": "",
        "受入対象者": "",
        "備考": ""
      }
    },
    {
      "type": "Feature",
      "geometry": {
        "type": "Point",
        "coordinates": [
          129.651018,
          33.238508
        ]
      },
      "properties": {
        "NO": 75806,
        "共通ID": "E4239100015111",
        "都道府県名及び市町村名": "長崎県佐々町",
        "施設・場所名": "佐々町文化会館",
        "住所": "長崎県佐々町本田原免146",
        "指定緊急避難場所との住所同一": "",
        "その他市町村長が必要と認める事項": "",
        "受入対象者": "",
        "備考": ""
      }
    }
  ]
}