{
  "type": "FeatureCollection",
  "name": "424111",
  "features": [
    {
      "type": "Feature",
      "geometry": {
        "type": "Point",
        "coordinates": [
          129.100709,
          32.965706
        ]
      },
      "properties": {
        "NO": 75807,
        "共通ID": "E4241100001111",
        "都道府県名及び市町村名": "長崎県新上五島町",
        "施設・場所名": "東浦小学校",
        "住所": "長崎県新上五島町阿瀬津郷422-2",
        "指定緊急避難場所との住所同一": "1",
        "その他市町村長が必要と認める事項": "",
        "受入対象者": "",
        "備考": ""
      }
    },
    {
      "type": "Feature",
      "geometry": {
        "type": "Point",
        "coordinates": [
          129.104188,
          32.96269
        ]
      },
      "properties": {
        "NO": 75808,
        "共通ID": "E4241100002111",
        "都道府県名及び市町村名": "長崎県新上五島町",
        "施設・場所名": "奥浦公民館",
        "住所": "長崎県新上五島町阿瀬津郷554-4",
        "指定緊急避難場所との住所同一": "1",
        "その他市町村長が必要と認める事項": "",
        "受入対象者": "",
        "備考": ""
      }
    },
    {
      "type": "Feature",
      "geometry": {
        "type": "Point",
        "coordinates": [
          129.109172,
          32.953341
        ]
      },
      "properties": {
        "NO": 75809,
        "共通ID": "E4241100003111",
        "都道府県名及び市町村名": "長崎県新上五島町",
        "施設・場所名": "阿瀬津公民館",
        "住所": "長崎県新上五島町阿瀬津郷660-42",
        "指定緊急避難場所との住所同一": "1",
        "その他市町村長が必要と認める事項": "",
        "受入対象者": "",
        "備考": ""
      }
    },
    {
      "type": "Feature",
      "geometry": {
        "type": "Point",
        "coordinates": [
          129.087481,
          32.985628
        ]
      },
      "properties": {
        "NO": 75810,
        "共通ID": "E4241100004111",
        "都道府県名及び市町村名": "長崎県新上五島町",
        "施設・場所名": "浦桑生活館",
        "住所": "長崎県新上五島町浦桑郷1281",
        "指定緊急避難場所との住所同一": "1",
        "その他市町村長が必要と認める事項": "",
        "受入対象者": "",
        "備考": ""
      }
    },
    {
      "type": "Feature",
      "geometry": {
        "type": "Point",
        "coordinates": [
          129.081636,
          32.988125
        ]
      },
      "properties": {
        "NO": 75811,
        "共通ID": "E4241100005111",
        "都道府県名及び市町村名": "長崎県新上五島町",
        "施設・場所名": "上五島高校体育館",
        "住所": "長崎県新上五島町浦桑郷306",
        "指定緊急避難場所との住所同一": "1",
        "その他市町村長が必要と認める事項": "",
        "受入対象者": "",
        "備考": ""
      }
    },
    {
      "type": "Feature",
      "geometry": {
        "type": "Point",
        "coordinates": [
          129.092149,
          32.996697
        ]
      },
      "properties": {
        "NO": 75812,
        "共通ID": "E4241100006111",
        "都道府県名及び市町村名": "長崎県新上五島町",
        "施設・場所名": "榎津生活館",
        "住所": "長崎県新上五島町榎津郷195-22",
        "指定緊急避難場所との住所同一": "1",
        "その他市町村長が必要と認める事項": "",
        "受入対象者": "",
        "備考": ""
      }
    },
    {
      "type": "Feature",
      "geometry": {
        "type": "Point",
        "coordinates": [
          129.089112,
          32.999077
        ]
      },
      "properties": {
        "NO": 75813,
        "共通ID": "E4241100007111",
        "都道府県名及び市町村名": "長崎県新上五島町",
        "施設・場所名": "魚目小学校",
        "住所": "長崎県新上五島町榎津郷401",
        "指定緊急避難場所との住所同一": "1",
        "その他市町村長が必要と認める事項": "",
        "受入対象者": "",
        "備考": ""
      }
    },
    {
      "type": "Feature",
      "geometry": {
        "type": "Point",
        "coordinates": [
          129.089434,
          33.001623
        ]
      },
      "properties": {
        "NO": 75814,
        "共通ID": "E4241100008111",
        "都道府県名及び市町村名": "長崎県新上五島町",
        "施設・場所名": "離島開発総合センター",
        "住所": "長崎県新上五島町榎津郷488-2",
        "指定緊急避難場所との住所同一": "1",
        "その他市町村長が必要と認める事項": "",
        "受入対象者": "",
        "備考": ""
      }
    },
    {
      "type": "Feature",
      "geometry": {
        "type": "Point",
        "coordinates": [
          129.089509,
          33.002158
        ]
      },
      "properties": {
        "NO": 75815,
        "共通ID": "E4241100009111",
        "都道府県名及び市町村名": "長崎県新上五島町",
        "施設・場所名": "新魚目支所",
        "住所": "長崎県新上五島町榎津郷491",
        "指定緊急避難場所との住所同一": "1",
        "その他市町村長が必要と認める事項": "",
        "受入対象者": "",
        "備考": ""
      }
    },
    {
      "type": "Feature",
      "geometry": {
        "type": "Point",
        "coordinates": [
          128.981654,
          32.871734
        ]
      },
      "properties": {
        "NO": 75816,
        "共通ID": "E4241100010111",
        "都道府県名及び市町村名": "長崎県新上五島町",
        "施設・場所名": "滝ヶ原集会所",
        "住所": "長崎県新上五島町間伏郷1200",
        "指定緊急避難場所との住所同一": "1",
        "その他市町村長が必要と認める事項": "",
        "受入対象者": "",
        "備考": ""
      }
    },
    {
      "type": "Feature",
      "geometry": {
        "type": "Point",
        "coordinates": [
          128.999517,
          32.87587
        ]
      },
      "properties": {
        "NO": 75817,
        "共通ID": "E4241100011111",
        "都道府県名及び市町村名": "長崎県新上五島町",
        "施設・場所名": "鵜ノ瀬地区集会所",
        "住所": "長崎県新上五島町間伏郷167-1",
        "指定緊急避難場所との住所同一": "1",
        "その他市町村長が必要と認める事項": "",
        "受入対象者": "",
        "備考": ""
      }
    },
    {
      "type": "Feature",
      "geometry": {
        "type": "Point",
        "coordinates": [
          129.004541,
          32.881777
        ]
      },
      "properties": {
        "NO": 75818,
        "共通ID": "E4241100012111",
        "都道府県名及び市町村名": "長崎県新上五島町",
        "施設・場所名": "若松中央小学校",
        "住所": "長崎県新上五島町間伏郷74",
        "指定緊急避難場所との住所同一": "1",
        "その他市町村長が必要と認める事項": "",
        "受入対象者": "",
        "備考": ""
      }
    },
    {
      "type": "Feature",
      "geometry": {
        "type": "Point",
        "coordinates": [
          128.97471,
          32.879096
        ]
      },
      "properties": {
        "NO": 75819,
        "共通ID": "E4241100013111",
        "都道府県名及び市町村名": "長崎県新上五島町",
        "施設・場所名": "堤地区集会所",
        "住所": "長崎県新上五島町間伏郷897",
        "指定緊急避難場所との住所同一": "1",
        "その他市町村長が必要と認める事項": "",
        "受入対象者": "",
        "備考": ""
      }
    },
    {
      "type": "Feature",
      "geometry": {
        "type": "Point",
        "coordinates": [
          129.092406,
          33.003665
        ]
      },
      "properties": {
        "NO": 75820,
        "共通ID": "E4241100015111",
        "都道府県名及び市町村名": "長崎県新上五島町",
        "施設・場所名": "新魚目総合体育館",
        "住所": "長崎県新上五島町丸尾郷335-3",
        "指定緊急避難場所との住所同一": "1",
        "その他市町村長が必要と認める事項": "",
        "受入対象者": "",
        "備考": ""
      }
    },
    {
      "type": "Feature",
      "geometry": {
        "type": "Point",
        "coordinates": [
          129.089568,
          33.003931
        ]
      },
      "properties": {
        "NO": 75821,
        "共通ID": "E4241100016111",
        "都道府県名及び市町村名": "長崎県新上五島町",
        "施設・場所名": "魚目中学校",
        "住所": "長崎県新上五島町丸尾郷412",
        "指定緊急避難場所との住所同一": "1",
        "その他市町村長が必要と認める事項": "",
        "受入対象者": "",
        "備考": ""
      }
    },
    {
      "type": "Feature",
      "geometry": {
        "type": "Point",
        "coordinates": [
          129.092072,
          33.005969
        ]
      },
      "properties": {
        "NO": 75822,
        "共通ID": "E4241100017111",
        "都道府県名及び市町村名": "長崎県新上五島町",
        "施設・場所名": "丸尾生活館",
        "住所": "長崎県新上五島町丸尾郷731-2",
        "指定緊急避難場所との住所同一": "1",
        "その他市町村長が必要と認める事項": "",
        "受入対象者": "",
        "備考": ""
      }
    },
    {
      "type": "Feature",
      "geometry": {
        "type": "Point",
        "coordinates": [
          129.092019,
          32.87182
        ]
      },
      "properties": {
        "NO": 75823,
        "共通ID": "E4241100018111",
        "都道府県名及び市町村名": "長崎県新上五島町",
        "施設・場所名": "須崎公民館",
        "住所": "長崎県新上五島町岩瀬浦郷245-20",
        "指定緊急避難場所との住所同一": "1",
        "その他市町村長が必要と認める事項": "",
        "受入対象者": "",
        "備考": ""
      }
    },
    {
      "type": "Feature",
      "geometry": {
        "type": "Point",
        "coordinates": [
          129.076821,
          32.863133
        ]
      },
      "properties": {
        "NO": 75824,
        "共通ID": "E4241100019111",
        "都道府県名及び市町村名": "長崎県新上五島町",
        "施設・場所名": "福見公民館",
        "住所": "長崎県新上五島町岩瀬浦郷33-1",
        "指定緊急避難場所との住所同一": "1",
        "その他市町村長が必要と認める事項": "",
        "受入対象者": "",
        "備考": ""
      }
    },
    {
      "type": "Feature",
      "geometry": {
        "type": "Point",
        "coordinates": [
          129.076306,
          32.877154
        ]
      },
      "properties": {
        "NO": 75825,
        "共通ID": "E4241100020111",
        "都道府県名及び市町村名": "長崎県新上五島町",
        "施設・場所名": "中山公民館",
        "住所": "長崎県新上五島町岩瀬浦郷545-17",
        "指定緊急避難場所との住所同一": "1",
        "その他市町村長が必要と認める事項": "",
        "受入対象者": "",
        "備考": ""
      }
    },
    {
      "type": "Feature",
      "geometry": {
        "type": "Point",
        "coordinates": [
          129.075875,
          32.877889
        ]
      },
      "properties": {
        "NO": 75826,
        "共通ID": "E4241100021111",
        "都道府県名及び市町村名": "長崎県新上五島町",
        "施設・場所名": "清和園",
        "住所": "長崎県新上五島町岩瀬浦郷596-3",
        "指定緊急避難場所との住所同一": "1",
        "その他市町村長が必要と認める事項": "",
        "受入対象者": "",
        "備考": ""
      }
    },
    {
      "type": "Feature",
      "geometry": {
        "type": "Point",
        "coordinates": [
          129.082468,
          32.892683
        ]
      },
      "properties": {
        "NO": 75827,
        "共通ID": "E4241100022111",
        "都道府県名及び市町村名": "長崎県新上五島町",
        "施設・場所名": "浜串生活館",
        "住所": "長崎県新上五島町岩瀬浦郷754-7",
        "指定緊急避難場所との住所同一": "1",
        "その他市町村長が必要と認める事項": "",
        "受入対象者": "",
        "備考": ""
      }
    },
    {
      "type": "Feature",
      "geometry": {
        "type": "Point",
        "coordinates": [
          129.082385,
          32.881308
        ]
      },
      "properties": {
        "NO": 75828,
        "共通ID": "E4241100023111",
        "都道府県名及び市町村名": "長崎県新上五島町",
        "施設・場所名": "岩瀬浦公民館",
        "住所": "長崎県新上五島町岩瀬浦郷776-1",
        "指定緊急避難場所との住所同一": "1",
        "その他市町村長が必要と認める事項": "",
        "受入対象者": "",
        "備考": ""
      }
    },
    {
      "type": "Feature",
      "geometry": {
        "type": "Point",
        "coordinates": [
          128.964776,
          32.90842
        ]
      },
      "properties": {
        "NO": 75829,
        "共通ID": "E4241100024111",
        "都道府県名及び市町村名": "長崎県新上五島町",
        "施設・場所名": "漁生浦集会所",
        "住所": "長崎県新上五島町漁生浦郷165-1",
        "指定緊急避難場所との住所同一": "1",
        "その他市町村長が必要と認める事項": "",
        "受入対象者": "",
        "備考": ""
      }
    },
    {
      "type": "Feature",
      "geometry": {
        "type": "Point",
        "coordinates": [
          129.048372,
          32.865602
        ]
      },
      "properties": {
        "NO": 75830,
        "共通ID": "E4241100025111",
        "都道府県名及び市町村名": "長崎県新上五島町",
        "施設・場所名": "桐古里集会所",
        "住所": "長崎県新上五島町桐古里郷429-1",
        "指定緊急避難場所との住所同一": "1",
        "その他市町村長が必要と認める事項": "",
        "受入対象者": "",
        "備考": ""
      }
    },
    {
      "type": "Feature",
      "geometry": {
        "type": "Point",
        "coordinates": [
          129.174173,
          32.99033
        ]
      },
      "properties": {
        "NO": 75831,
        "共通ID": "E4241100026111",
        "都道府県名及び市町村名": "長崎県新上五島町",
        "施設・場所名": "江ノ浜地区交流センター",
        "住所": "長崎県新上五島町江ノ浜郷417-3",
        "指定緊急避難場所との住所同一": "1",
        "その他市町村長が必要と認める事項": "",
        "受入対象者": "",
        "備考": ""
      }
    },
    {
      "type": "Feature",
      "geometry": {
        "type": "Point",
        "coordinates": [
          129.051234,
          32.921912
        ]
      },
      "properties": {
        "NO": 75832,
        "共通ID": "E4241100027111",
        "都道府県名及び市町村名": "長崎県新上五島町",
        "施設・場所名": "荒川郷集会所",
        "住所": "長崎県新上五島町荒川郷126-10",
        "指定緊急避難場所との住所同一": "1",
        "その他市町村長が必要と認める事項": "",
        "受入対象者": "",
        "備考": ""
      }
    },
    {
      "type": "Feature",
      "geometry": {
        "type": "Point",
        "coordinates": [
          129.049783,
          32.922087
        ]
      },
      "properties": {
        "NO": 75833,
        "共通ID": "E4241100028111",
        "都道府県名及び市町村名": "長崎県新上五島町",
        "施設・場所名": "荒川体育館",
        "住所": "長崎県新上五島町荒川郷143-2",
        "指定緊急避難場所との住所同一": "1",
        "その他市町村長が必要と認める事項": "",
        "受入対象者": "",
        "備考": ""
      }
    },
    {
      "type": "Feature",
      "geometry": {
        "type": "Point",
        "coordinates": [
          129.036758,
          32.92582
        ]
      },
      "properties": {
        "NO": 75834,
        "共通ID": "E4241100029111",
        "都道府県名及び市町村名": "長崎県新上五島町",
        "施設・場所名": "郷ノ首地区集会所",
        "住所": "長崎県新上五島町荒川郷330-4",
        "指定緊急避難場所との住所同一": "1",
        "その他市町村長が必要と認める事項": "",
        "受入対象者": "",
        "備考": ""
      }
    },
    {
      "type": "Feature",
      "geometry": {
        "type": "Point",
        "coordinates": [
          129.041132,
          32.930737
        ]
      },
      "properties": {
        "NO": 75835,
        "共通ID": "E4241100030111",
        "都道府県名及び市町村名": "長崎県新上五島町",
        "施設・場所名": "高仏地区集会所",
        "住所": "長崎県新上五島町荒川郷537",
        "指定緊急避難場所との住所同一": "1",
        "その他市町村長が必要と認める事項": "",
        "受入対象者": "",
        "備考": ""
      }
    },
    {
      "type": "Feature",
      "geometry": {
        "type": "Point",
        "coordinates": [
          129.048616,
          32.960629
        ]
      },
      "properties": {
        "NO": 75836,
        "共通ID": "E4241100031111",
        "都道府県名及び市町村名": "長崎県新上五島町",
        "施設・場所名": "今里公民館",
        "住所": "長崎県新上五島町今里郷195-13",
        "指定緊急避難場所との住所同一": "1",
        "その他市町村長が必要と認める事項": "",
        "受入対象者": "",
        "備考": ""
      }
    },
    {
      "type": "Feature",
      "geometry": {
        "type": "Point",
        "coordinates": [
          129.048363,
          32.95953
        ]
      },
      "properties": {
        "NO": 75837,
        "共通ID": "E4241100032111",
        "都道府県名及び市町村名": "長崎県新上五島町",
        "施設・場所名": "今里小学校",
        "住所": "長崎県新上五島町今里郷245-9",
        "指定緊急避難場所との住所同一": "1",
        "その他市町村長が必要と認める事項": "",
        "受入対象者": "",
        "備考": ""
      }
    },
    {
      "type": "Feature",
      "geometry": {
        "type": "Point",
        "coordinates": [
          129.036915,
          32.971876
        ]
      },
      "properties": {
        "NO": 75838,
        "共通ID": "E4241100033111",
        "都道府県名及び市町村名": "長崎県新上五島町",
        "施設・場所名": "小浜公民館",
        "住所": "長崎県新上五島町今里郷字観音平無",
        "指定緊急避難場所との住所同一": "1",
        "その他市町村長が必要と認める事項": "",
        "受入対象者": "",
        "備考": ""
      }
    },
    {
      "type": "Feature",
      "geometry": {
        "type": "Point",
        "coordinates": [
          129.038618,
          32.939332
        ]
      },
      "properties": {
        "NO": 75839,
        "共通ID": "E4241100034111",
        "都道府県名及び市町村名": "長崎県新上五島町",
        "施設・場所名": "真手ノ浦公民館",
        "住所": "長崎県新上五島町今里郷字仏崎無",
        "指定緊急避難場所との住所同一": "1",
        "その他市町村長が必要と認める事項": "",
        "受入対象者": "",
        "備考": ""
      }
    },
    {
      "type": "Feature",
      "geometry": {
        "type": "Point",
        "coordinates": [
          128.988585,
          32.907636
        ]
      },
      "properties": {
        "NO": 75840,
        "共通ID": "E4241100035111",
        "都道府県名及び市町村名": "長崎県新上五島町",
        "施設・場所名": "月ノ浦地区集会所",
        "住所": "長崎県新上五島町榊ノ浦郷244-6",
        "指定緊急避難場所との住所同一": "1",
        "その他市町村長が必要と認める事項": "",
        "受入対象者": "",
        "備考": ""
      }
    },
    {
      "type": "Feature",
      "geometry": {
        "type": "Point",
        "coordinates": [
          129.00326,
          32.902853
        ]
      },
      "properties": {
        "NO": 75841,
        "共通ID": "E4241100036111",
        "都道府県名及び市町村名": "長崎県新上五島町",
        "施設・場所名": "榊ノ浦地区集会所",
        "住所": "長崎県新上五島町榊ノ浦郷646",
        "指定緊急避難場所との住所同一": "1",
        "その他市町村長が必要と認める事項": "",
        "受入対象者": "",
        "備考": ""
      }
    },
    {
      "type": "Feature",
      "geometry": {
        "type": "Point",
        "coordinates": [
          129.052384,
          32.972168
        ]
      },
      "properties": {
        "NO": 75842,
        "共通ID": "E4241100037111",
        "都道府県名及び市町村名": "長崎県新上五島町",
        "施設・場所名": "跡次公民館",
        "住所": "長崎県新上五島町三日ノ浦郷1-391",
        "指定緊急避難場所との住所同一": "1",
        "その他市町村長が必要と認める事項": "",
        "受入対象者": "",
        "備考": ""
      }
    },
    {
      "type": "Feature",
      "geometry": {
        "type": "Point",
        "coordinates": [
          129.05422,
          32.962352
        ]
      },
      "properties": {
        "NO": 75843,
        "共通ID": "E4241100038111",
        "都道府県名及び市町村名": "長崎県新上五島町",
        "施設・場所名": "三日ノ浦公民館",
        "住所": "長崎県新上五島町三日ノ浦郷142-12",
        "指定緊急避難場所との住所同一": "1",
        "その他市町村長が必要と認める事項": "",
        "受入対象者": "",
        "備考": ""
      }
    },
    {
      "type": "Feature",
      "geometry": {
        "type": "Point",
        "coordinates": [
          129.089202,
          33.017422
        ]
      },
      "properties": {
        "NO": 75844,
        "共通ID": "E4241100039111",
        "都道府県名及び市町村名": "長崎県新上五島町",
        "施設・場所名": "似首公民館",
        "住所": "長崎県新上五島町似首郷373-10",
        "指定緊急避難場所との住所同一": "1",
        "その他市町村長が必要と認める事項": "",
        "受入対象者": "",
        "備考": ""
      }
    },
    {
      "type": "Feature",
      "geometry": {
        "type": "Point",
        "coordinates": [
          129.090517,
          32.980246
        ]
      },
      "properties": {
        "NO": 75845,
        "共通ID": "E4241100040111",
        "都道府県名及び市町村名": "長崎県新上五島町",
        "施設・場所名": "七目区コミュニティセンター",
        "住所": "長崎県新上五島町七目郷65-13",
        "指定緊急避難場所との住所同一": "1",
        "その他市町村長が必要と認める事項": "",
        "受入対象者": "",
        "備考": ""
      }
    },
    {
      "type": "Feature",
      "geometry": {
        "type": "Point",
        "coordinates": [
          129.097325,
          32.977906
        ]
      },
      "properties": {
        "NO": 75846,
        "共通ID": "E4241100041111",
        "都道府県名及び市町村名": "長崎県新上五島町",
        "施設・場所名": "消防本部",
        "住所": "長崎県新上五島町七目郷902-1",
        "指定緊急避難場所との住所同一": "1",
        "その他市町村長が必要と認める事項": "",
        "受入対象者": "",
        "備考": ""
      }
    },
    {
      "type": "Feature",
      "geometry": {
        "type": "Point",
        "coordinates": [
          129.021353,
          32.889038
        ]
      },
      "properties": {
        "NO": 75847,
        "共通ID": "E4241100042111",
        "都道府県名及び市町村名": "長崎県新上五島町",
        "施設・場所名": "若松地区集会所",
        "住所": "長崎県新上五島町若松郷160",
        "指定緊急避難場所との住所同一": "1",
        "その他市町村長が必要と認める事項": "",
        "受入対象者": "",
        "備考": ""
      }
    },
    {
      "type": "Feature",
      "geometry": {
        "type": "Point",
        "coordinates": [
          129.021183,
          32.887984
        ]
      },
      "properties": {
        "NO": 75848,
        "共通ID": "E4241100044111",
        "都道府県名及び市町村名": "長崎県新上五島町",
        "施設・場所名": "若松支所",
        "住所": "長崎県新上五島町若松郷277-7",
        "指定緊急避難場所との住所同一": "1",
        "その他市町村長が必要と認める事項": "",
        "受入対象者": "",
        "備考": ""
      }
    },
    {
      "type": "Feature",
      "geometry": {
        "type": "Point",
        "coordinates": [
          129.020351,
          32.874812
        ]
      },
      "properties": {
        "NO": 75849,
        "共通ID": "E4241100045111",
        "都道府県名及び市町村名": "長崎県新上五島町",
        "施設・場所名": "神部地区集会所",
        "住所": "長崎県新上五島町若松郷630-1",
        "指定緊急避難場所との住所同一": "1",
        "その他市町村長が必要と認める事項": "",
        "受入対象者": "",
        "備考": ""
      }
    },
    {
      "type": "Feature",
      "geometry": {
        "type": "Point",
        "coordinates": [
          129.021278,
          32.874911
        ]
      },
      "properties": {
        "NO": 75850,
        "共通ID": "E4241100046111",
        "都道府県名及び市町村名": "長崎県新上五島町",
        "施設・場所名": "神部漁協",
        "住所": "長崎県新上五島町若松郷639-18",
        "指定緊急避難場所との住所同一": "1",
        "その他市町村長が必要と認める事項": "",
        "受入対象者": "",
        "備考": ""
      }
    },
    {
      "type": "Feature",
      "geometry": {
        "type": "Point",
        "coordinates": [
          129.009583,
          32.866864
        ]
      },
      "properties": {
        "NO": 75851,
        "共通ID": "E4241100047111",
        "都道府県名及び市町村名": "長崎県新上五島町",
        "施設・場所名": "土井ノ浦地区集会所",
        "住所": "長崎県新上五島町若松郷８３３－２地先",
        "指定緊急避難場所との住所同一": "1",
        "その他市町村長が必要と認める事項": "",
        "受入対象者": "",
        "備考": ""
      }
    },
    {
      "type": "Feature",
      "geometry": {
        "type": "Point",
        "coordinates": [
          129.068175,
          32.903893
        ]
      },
      "properties": {
        "NO": 75852,
        "共通ID": "E4241100048111",
        "都道府県名及び市町村名": "長崎県新上五島町",
        "施設・場所名": "中ノ浦地区集会所",
        "住所": "長崎県新上五島町宿ノ浦郷1105-16",
        "指定緊急避難場所との住所同一": "1",
        "その他市町村長が必要と認める事項": "",
        "受入対象者": "",
        "備考": ""
      }
    },
    {
      "type": "Feature",
      "geometry": {
        "type": "Point",
        "coordinates": [
          129.059781,
          32.883498
        ]
      },
      "properties": {
        "NO": 75853,
        "共通ID": "E4241100049111",
        "都道府県名及び市町村名": "長崎県新上五島町",
        "施設・場所名": "中五島高校体育館",
        "住所": "長崎県新上五島町宿ノ浦郷162-1",
        "指定緊急避難場所との住所同一": "1",
        "その他市町村長が必要と認める事項": "",
        "受入対象者": "",
        "備考": ""
      }
    },
    {
      "type": "Feature",
      "geometry": {
        "type": "Point",
        "coordinates": [
          129.059524,
          32.883128
        ]
      },
      "properties": {
        "NO": 75854,
        "共通ID": "E4241100050111",
        "都道府県名及び市町村名": "長崎県新上五島町",
        "施設・場所名": "白魚地区集会所",
        "住所": "長崎県新上五島町宿ノ浦郷162-69",
        "指定緊急避難場所との住所同一": "1",
        "その他市町村長が必要と認める事項": "",
        "受入対象者": "",
        "備考": ""
      }
    },
    {
      "type": "Feature",
      "geometry": {
        "type": "Point",
        "coordinates": [
          129.059721,
          32.886953
        ]
      },
      "properties": {
        "NO": 75855,
        "共通ID": "E4241100051111",
        "都道府県名及び市町村名": "長崎県新上五島町",
        "施設・場所名": "消防署若松支署",
        "住所": "長崎県新上五島町宿ノ浦郷209-8",
        "指定緊急避難場所との住所同一": "1",
        "その他市町村長が必要と認める事項": "",
        "受入対象者": "",
        "備考": ""
      }
    },
    {
      "type": "Feature",
      "geometry": {
        "type": "Point",
        "coordinates": [
          129.046416,
          32.894074
        ]
      },
      "properties": {
        "NO": 75856,
        "共通ID": "E4241100052111",
        "都道府県名及び市町村名": "長崎県新上五島町",
        "施設・場所名": "宿ノ浦地区集会所",
        "住所": "長崎県新上五島町宿ノ浦郷452-1",
        "指定緊急避難場所との住所同一": "1",
        "その他市町村長が必要と認める事項": "",
        "受入対象者": "",
        "備考": ""
      }
    },
    {
      "type": "Feature",
      "geometry": {
        "type": "Point",
        "coordinates": [
          129.061422,
          32.895106
        ]
      },
      "properties": {
        "NO": 75857,
        "共通ID": "E4241100053111",
        "都道府県名及び市町村名": "長崎県新上五島町",
        "施設・場所名": "若松東小学校",
        "住所": "長崎県新上五島町宿ノ浦郷646-1",
        "指定緊急避難場所との住所同一": "1",
        "その他市町村長が必要と認める事項": "",
        "受入対象者": "",
        "備考": ""
      }
    },
    {
      "type": "Feature",
      "geometry": {
        "type": "Point",
        "coordinates": [
          129.050992,
          32.873938
        ]
      },
      "properties": {
        "NO": 75858,
        "共通ID": "E4241100054111",
        "都道府県名及び市町村名": "長崎県新上五島町",
        "施設・場所名": "築地地区集会所",
        "住所": "長崎県新上五島町宿ノ浦郷66",
        "指定緊急避難場所との住所同一": "1",
        "その他市町村長が必要と認める事項": "",
        "受入対象者": "",
        "備考": ""
      }
    },
    {
      "type": "Feature",
      "geometry": {
        "type": "Point",
        "coordinates": [
          129.064167,
          32.891638
        ]
      },
      "properties": {
        "NO": 75859,
        "共通ID": "E4241100055111",
        "都道府県名及び市町村名": "長崎県新上五島町",
        "施設・場所名": "大浦地区集会所",
        "住所": "長崎県新上五島町宿ノ浦郷684-1",
        "指定緊急避難場所との住所同一": "1",
        "その他市町村長が必要と認める事項": "",
        "受入対象者": "",
        "備考": ""
      }
    },
    {
      "type": "Feature",
      "geometry": {
        "type": "Point",
        "coordinates": [
          129.063381,
          32.897507
        ]
      },
      "properties": {
        "NO": 75860,
        "共通ID": "E4241100056111",
        "都道府県名及び市町村名": "長崎県新上五島町",
        "施設・場所名": "笛吹地区集会所",
        "住所": "長崎県新上五島町宿ノ浦郷822-2",
        "指定緊急避難場所との住所同一": "1",
        "その他市町村長が必要と認める事項": "",
        "受入対象者": "",
        "備考": ""
      }
    },
    {
      "type": "Feature",
      "geometry": {
        "type": "Point",
        "coordinates": [
          129.063711,
          32.909059
        ]
      },
      "properties": {
        "NO": 75861,
        "共通ID": "E4241100057111",
        "都道府県名及び市町村名": "長崎県新上五島町",
        "施設・場所名": "梼ノ木地区集会所",
        "住所": "長崎県新上五島町宿ノ浦郷無",
        "指定緊急避難場所との住所同一": "1",
        "その他市町村長が必要と認める事項": "",
        "受入対象者": "",
        "備考": ""
      }
    },
    {
      "type": "Feature",
      "geometry": {
        "type": "Point",
        "coordinates": [
          129.131374,
          32.98741
        ]
      },
      "properties": {
        "NO": 75862,
        "共通ID": "E4241100058111",
        "都道府県名及び市町村名": "長崎県新上五島町",
        "施設・場所名": "小河原漁村センター",
        "住所": "長崎県新上五島町小河原郷616-2",
        "指定緊急避難場所との住所同一": "1",
        "その他市町村長が必要と認める事項": "",
        "受入対象者": "",
        "備考": ""
      }
    },
    {
      "type": "Feature",
      "geometry": {
        "type": "Point",
        "coordinates": [
          129.097115,
          33.054613
        ]
      },
      "properties": {
        "NO": 75863,
        "共通ID": "E4241100059111",
        "都道府県名及び市町村名": "長崎県新上五島町",
        "施設・場所名": "新魚目高齢者生活福祉センターやすらぎの里",
        "住所": "長崎県新上五島町小串郷1448",
        "指定緊急避難場所との住所同一": "1",
        "その他市町村長が必要と認める事項": "",
        "受入対象者": "",
        "備考": ""
      }
    },
    {
      "type": "Feature",
      "geometry": {
        "type": "Point",
        "coordinates": [
          129.100065,
          33.057455
        ]
      },
      "properties": {
        "NO": 75864,
        "共通ID": "E4241100060111",
        "都道府県名及び市町村名": "長崎県新上五島町",
        "施設・場所名": "北魚目小学校",
        "住所": "長崎県新上五島町小串郷1665",
        "指定緊急避難場所との住所同一": "1",
        "その他市町村長が必要と認める事項": "",
        "受入対象者": "",
        "備考": ""
      }
    },
    {
      "type": "Feature",
      "geometry": {
        "type": "Point",
        "coordinates": [
          129.100859,
          33.048934
        ]
      },
      "properties": {
        "NO": 75865,
        "共通ID": "E4241100061111",
        "都道府県名及び市町村名": "長崎県新上五島町",
        "施設・場所名": "小串公民館",
        "住所": "長崎県新上五島町小串郷420-3",
        "指定緊急避難場所との住所同一": "1",
        "その他市町村長が必要と認める事項": "",
        "受入対象者": "",
        "備考": ""
      }
    },
    {
      "type": "Feature",
      "geometry": {
        "type": "Point",
        "coordinates": [
          129.096719,
          33.052432
        ]
      },
      "properties": {
        "NO": 75866,
        "共通ID": "E4241100062111",
        "都道府県名及び市町村名": "長崎県新上五島町",
        "施設・場所名": "北魚目体育館",
        "住所": "長崎県新上五島町小串郷770",
        "指定緊急避難場所との住所同一": "1",
        "その他市町村長が必要と認める事項": "",
        "受入対象者": "",
        "備考": ""
      }
    },
    {
      "type": "Feature",
      "geometry": {
        "type": "Point",
        "coordinates": [
          129.002852,
          32.920074
        ]
      },
      "properties": {
        "NO": 75867,
        "共通ID": "E4241100064111",
        "都道府県名及び市町村名": "長崎県新上五島町",
        "施設・場所名": "大平地区集会所",
        "住所": "長崎県新上五島町西神ノ浦郷50-80",
        "指定緊急避難場所との住所同一": "1",
        "その他市町村長が必要と認める事項": "",
        "受入対象者": "",
        "備考": ""
      }
    },
    {
      "type": "Feature",
      "geometry": {
        "type": "Point",
        "coordinates": [
          129.020729,
          32.902272
        ]
      },
      "properties": {
        "NO": 75868,
        "共通ID": "E4241100063111",
        "都道府県名及び市町村名": "長崎県新上五島町",
        "施設・場所名": "西神ノ浦地区集会所",
        "住所": "長崎県新上五島町西神ノ浦郷２８１－２地先",
        "指定緊急避難場所との住所同一": "1",
        "その他市町村長が必要と認める事項": "",
        "受入対象者": "",
        "備考": ""
      }
    },
    {
      "type": "Feature",
      "geometry": {
        "type": "Point",
        "coordinates": [
          129.068512,
          32.985048
        ]
      },
      "properties": {
        "NO": 75869,
        "共通ID": "E4241100065111",
        "都道府県名及び市町村名": "長崎県新上五島町",
        "施設・場所名": "新上五島町総合福祉センター",
        "住所": "長崎県新上五島町青方郷1379-1",
        "指定緊急避難場所との住所同一": "1",
        "その他市町村長が必要と認める事項": "",
        "受入対象者": "",
        "備考": ""
      }
    },
    {
      "type": "Feature",
      "geometry": {
        "type": "Point",
        "coordinates": [
          129.068587,
          32.985394
        ]
      },
      "properties": {
        "NO": 75870,
        "共通ID": "E4241100066111",
        "都道府県名及び市町村名": "長崎県新上五島町",
        "施設・場所名": "新上五島町友愛センター",
        "住所": "長崎県新上五島町青方郷1380",
        "指定緊急避難場所との住所同一": "1",
        "その他市町村長が必要と認める事項": "",
        "受入対象者": "",
        "備考": ""
      }
    },
    {
      "type": "Feature",
      "geometry": {
        "type": "Point",
        "coordinates": [
          129.072712,
          32.986663
        ]
      },
      "properties": {
        "NO": 75871,
        "共通ID": "E4241100067111",
        "都道府県名及び市町村名": "長崎県新上五島町",
        "施設・場所名": "青方小学校",
        "住所": "長崎県新上五島町青方郷1460-1",
        "指定緊急避難場所との住所同一": "1",
        "その他市町村長が必要と認める事項": "",
        "受入対象者": "",
        "備考": ""
      }
    },
    {
      "type": "Feature",
      "geometry": {
        "type": "Point",
        "coordinates": [
          129.070014,
          32.98327
        ]
      },
      "properties": {
        "NO": 75872,
        "共通ID": "E4241100068111",
        "都道府県名及び市町村名": "長崎県新上五島町",
        "施設・場所名": "新上五島町石油備蓄記念会館",
        "住所": "長崎県新上五島町青方郷1549-6",
        "指定緊急避難場所との住所同一": "1",
        "その他市町村長が必要と認める事項": "",
        "受入対象者": "",
        "備考": ""
      }
    },
    {
      "type": "Feature",
      "geometry": {
        "type": "Point",
        "coordinates": [
          129.050037,
          32.986829
        ]
      },
      "properties": {
        "NO": 75873,
        "共通ID": "E4241100069111",
        "都道府県名及び市町村名": "長崎県新上五島町",
        "施設・場所名": "大曽公民館",
        "住所": "長崎県新上五島町青方郷2088-8",
        "指定緊急避難場所との住所同一": "1",
        "その他市町村長が必要と認める事項": "",
        "受入対象者": "",
        "備考": ""
      }
    },
    {
      "type": "Feature",
      "geometry": {
        "type": "Point",
        "coordinates": [
          129.066919,
          32.992584
        ]
      },
      "properties": {
        "NO": 75874,
        "共通ID": "E4241100070111",
        "都道府県名及び市町村名": "長崎県新上五島町",
        "施設・場所名": "上五島中学校",
        "住所": "長崎県新上五島町青方郷538",
        "指定緊急避難場所との住所同一": "1",
        "その他市町村長が必要と認める事項": "",
        "受入対象者": "",
        "備考": ""
      }
    },
    {
      "type": "Feature",
      "geometry": {
        "type": "Point",
        "coordinates": [
          129.161526,
          33.000498
        ]
      },
      "properties": {
        "NO": 75875,
        "共通ID": "E4241100071111",
        "都道府県名及び市町村名": "長崎県新上五島町",
        "施設・場所名": "赤尾区コミュニティセンター",
        "住所": "長崎県新上五島町赤尾郷326-2",
        "指定緊急避難場所との住所同一": "1",
        "その他市町村長が必要と認める事項": "",
        "受入対象者": "",
        "備考": ""
      }
    },
    {
      "type": "Feature",
      "geometry": {
        "type": "Point",
        "coordinates": [
          129.050337,
          32.995207
        ]
      },
      "properties": {
        "NO": 75876,
        "共通ID": "E4241100072111",
        "都道府県名及び市町村名": "長崎県新上五島町",
        "施設・場所名": "船崎地区街なみ交流センター",
        "住所": "長崎県新上五島町船崎郷493-2",
        "指定緊急避難場所との住所同一": "1",
        "その他市町村長が必要と認める事項": "",
        "受入対象者": "",
        "備考": ""
      }
    },
    {
      "type": "Feature",
      "geometry": {
        "type": "Point",
        "coordinates": [
          129.09864,
          33.073248
        ]
      },
      "properties": {
        "NO": 75877,
        "共通ID": "E4241100073111",
        "都道府県名及び市町村名": "長崎県新上五島町",
        "施設・場所名": "大水集会所",
        "住所": "長崎県新上五島町曽根郷436-2",
        "指定緊急避難場所との住所同一": "1",
        "その他市町村長が必要と認める事項": "",
        "受入対象者": "",
        "備考": ""
      }
    },
    {
      "type": "Feature",
      "geometry": {
        "type": "Point",
        "coordinates": [
          129.088869,
          33.056528
        ]
      },
      "properties": {
        "NO": 75878,
        "共通ID": "E4241100074111",
        "都道府県名及び市町村名": "長崎県新上五島町",
        "施設・場所名": "曽根公教倶楽部",
        "住所": "長崎県新上五島町曽根郷630-9",
        "指定緊急避難場所との住所同一": "1",
        "その他市町村長が必要と認める事項": "",
        "受入対象者": "",
        "備考": ""
      }
    },
    {
      "type": "Feature",
      "geometry": {
        "type": "Point",
        "coordinates": [
          129.080061,
          33.057567
        ]
      },
      "properties": {
        "NO": 75879,
        "共通ID": "E4241100075111",
        "都道府県名及び市町村名": "長崎県新上五島町",
        "施設・場所名": "曽根公民館",
        "住所": "長崎県新上五島町曽根郷985",
        "指定緊急避難場所との住所同一": "1",
        "その他市町村長が必要と認める事項": "",
        "受入対象者": "",
        "備考": ""
      }
    },
    {
      "type": "Feature",
      "geometry": {
        "type": "Point",
        "coordinates": [
          129.057826,
          32.978167
        ]
      },
      "properties": {
        "NO": 75880,
        "共通ID": "E4241100076111",
        "都道府県名及び市町村名": "長崎県新上五島町",
        "施設・場所名": "青方港ターミナルビル",
        "住所": "長崎県新上五島町相河郷192-68",
        "指定緊急避難場所との住所同一": "1",
        "その他市町村長が必要と認める事項": "",
        "受入対象者": "",
        "備考": ""
      }
    },
    {
      "type": "Feature",
      "geometry": {
        "type": "Point",
        "coordinates": [
          129.06056,
          32.975265
        ]
      },
      "properties": {
        "NO": 75881,
        "共通ID": "E4241100077111",
        "都道府県名及び市町村名": "長崎県新上五島町",
        "施設・場所名": "相河公民館",
        "住所": "長崎県新上五島町相河郷240",
        "指定緊急避難場所との住所同一": "1",
        "その他市町村長が必要と認める事項": "",
        "受入対象者": "",
        "備考": ""
      }
    },
    {
      "type": "Feature",
      "geometry": {
        "type": "Point",
        "coordinates": [
          129.029041,
          32.961025
        ]
      },
      "properties": {
        "NO": 75882,
        "共通ID": "E4241100078111",
        "都道府県名及び市町村名": "長崎県新上五島町",
        "施設・場所名": "浜ノ浦小学校",
        "住所": "長崎県新上五島町続浜ノ浦郷167",
        "指定緊急避難場所との住所同一": "1",
        "その他市町村長が必要と認める事項": "",
        "受入対象者": "",
        "備考": ""
      }
    },
    {
      "type": "Feature",
      "geometry": {
        "type": "Point",
        "coordinates": [
          129.027544,
          32.960876
        ]
      },
      "properties": {
        "NO": 75883,
        "共通ID": "E4241100079111",
        "都道府県名及び市町村名": "長崎県新上五島町",
        "施設・場所名": "上五島海洋青少年の家",
        "住所": "長崎県新上五島町続浜ノ浦郷172-1",
        "指定緊急避難場所との住所同一": "1",
        "その他市町村長が必要と認める事項": "",
        "受入対象者": "",
        "備考": ""
      }
    },
    {
      "type": "Feature",
      "geometry": {
        "type": "Point",
        "coordinates": [
          129.024288,
          32.965201
        ]
      },
      "properties": {
        "NO": 75884,
        "共通ID": "E4241100080111",
        "都道府県名及び市町村名": "長崎県新上五島町",
        "施設・場所名": "浜ノ浦児童館",
        "住所": "長崎県新上五島町続浜ノ浦郷406-10",
        "指定緊急避難場所との住所同一": "1",
        "その他市町村長が必要と認める事項": "",
        "受入対象者": "",
        "備考": ""
      }
    },
    {
      "type": "Feature",
      "geometry": {
        "type": "Point",
        "coordinates": [
          129.148394,
          32.956663
        ]
      },
      "properties": {
        "NO": 75885,
        "共通ID": "E4241100081111",
        "都道府県名及び市町村名": "長崎県新上五島町",
        "施設・場所名": "太田区コミュニティセンター",
        "住所": "長崎県新上五島町太田郷1670-10",
        "指定緊急避難場所との住所同一": "1",
        "その他市町村長が必要と認める事項": "",
        "受入対象者": "",
        "備考": ""
      }
    },
    {
      "type": "Feature",
      "geometry": {
        "type": "Point",
        "coordinates": [
          129.100066,
          32.966174
        ]
      },
      "properties": {
        "NO": 75886,
        "共通ID": "E4241100082111",
        "都道府県名及び市町村名": "長崎県新上五島町",
        "施設・場所名": "中野地区コミュニティ消防センター",
        "住所": "長崎県新上五島町鯛ノ浦郷338-14",
        "指定緊急避難場所との住所同一": "1",
        "その他市町村長が必要と認める事項": "",
        "受入対象者": "",
        "備考": ""
      }
    },
    {
      "type": "Feature",
      "geometry": {
        "type": "Point",
        "coordinates": [
          129.100843,
          32.950384
        ]
      },
      "properties": {
        "NO": 75887,
        "共通ID": "E4241100083111",
        "都道府県名及び市町村名": "長崎県新上五島町",
        "施設・場所名": "鯛ノ浦公民館",
        "住所": "長崎県新上五島町鯛ノ浦郷78-10",
        "指定緊急避難場所との住所同一": "1",
        "その他市町村長が必要と認める事項": "",
        "受入対象者": "",
        "備考": ""
      }
    },
    {
      "type": "Feature",
      "geometry": {
        "type": "Point",
        "coordinates": [
          129.111841,
          33.151089
        ]
      },
      "properties": {
        "NO": 75888,
        "共通ID": "E4241100084111",
        "都道府県名及び市町村名": "長崎県新上五島町",
        "施設・場所名": "津和崎公民館",
        "住所": "長崎県新上五島町津和崎郷166",
        "指定緊急避難場所との住所同一": "1",
        "その他市町村長が必要と認める事項": "",
        "受入対象者": "",
        "備考": ""
      }
    },
    {
      "type": "Feature",
      "geometry": {
        "type": "Point",
        "coordinates": [
          129.110956,
          33.139963
        ]
      },
      "properties": {
        "NO": 75889,
        "共通ID": "E4241100085111",
        "都道府県名及び市町村名": "長崎県新上五島町",
        "施設・場所名": "米山集会所",
        "住所": "長崎県新上五島町津和崎郷570-2",
        "指定緊急避難場所との住所同一": "1",
        "その他市町村長が必要と認める事項": "",
        "受入対象者": "",
        "備考": ""
      }
    },
    {
      "type": "Feature",
      "geometry": {
        "type": "Point",
        "coordinates": [
          129.102324,
          33.117429
        ]
      },
      "properties": {
        "NO": 75890,
        "共通ID": "E4241100086111",
        "都道府県名及び市町村名": "長崎県新上五島町",
        "施設・場所名": "青空デイサービスセンター",
        "住所": "長崎県新上五島町津和崎郷978-1",
        "指定緊急避難場所との住所同一": "1",
        "その他市町村長が必要と認める事項": "",
        "受入対象者": "",
        "備考": ""
      }
    },
    {
      "type": "Feature",
      "geometry": {
        "type": "Point",
        "coordinates": [
          129.084353,
          32.926432
        ]
      },
      "properties": {
        "NO": 75891,
        "共通ID": "E4241100087111",
        "都道府県名及び市町村名": "長崎県新上五島町",
        "施設・場所名": "神ノ浦漁村センター",
        "住所": "長崎県新上五島町東神ノ浦郷162-4",
        "指定緊急避難場所との住所同一": "1",
        "その他市町村長が必要と認める事項": "",
        "受入対象者": "",
        "備考": ""
      }
    },
    {
      "type": "Feature",
      "geometry": {
        "type": "Point",
        "coordinates": [
          129.071496,
          32.935194
        ]
      },
      "properties": {
        "NO": 75892,
        "共通ID": "E4241100088111",
        "都道府県名及び市町村名": "長崎県新上五島町",
        "施設・場所名": "佐野原公民館",
        "住所": "長崎県新上五島町東神ノ浦郷188",
        "指定緊急避難場所との住所同一": "1",
        "その他市町村長が必要と認める事項": "",
        "受入対象者": "",
        "備考": ""
      }
    },
    {
      "type": "Feature",
      "geometry": {
        "type": "Point",
        "coordinates": [
          129.092525,
          32.937752
        ]
      },
      "properties": {
        "NO": 75893,
        "共通ID": "E4241100089111",
        "都道府県名及び市町村名": "長崎県新上五島町",
        "施設・場所名": "大瀬良公民館",
        "住所": "長崎県新上五島町東神ノ浦郷247-244",
        "指定緊急避難場所との住所同一": "1",
        "その他市町村長が必要と認める事項": "",
        "受入対象者": "",
        "備考": ""
      }
    },
    {
      "type": "Feature",
      "geometry": {
        "type": "Point",
        "coordinates": [
          129.088978,
          32.910176
        ]
      },
      "properties": {
        "NO": 75894,
        "共通ID": "E4241100090111",
        "都道府県名及び市町村名": "長崎県新上五島町",
        "施設・場所名": "船隠公民館",
        "住所": "長崎県新上五島町東神ノ浦郷50-12",
        "指定緊急避難場所との住所同一": "1",
        "その他市町村長が必要と認める事項": "",
        "受入対象者": "",
        "備考": ""
      }
    },
    {
      "type": "Feature",
      "geometry": {
        "type": "Point",
        "coordinates": [
          129.03367,
          32.945472
        ]
      },
      "properties": {
        "NO": 75895,
        "共通ID": "E4241100091111",
        "都道府県名及び市町村名": "長崎県新上五島町",
        "施設・場所名": "道土井地区漁民研修集会施設",
        "住所": "長崎県新上五島町道土井郷149-4",
        "指定緊急避難場所との住所同一": "1",
        "その他市町村長が必要と認める事項": "",
        "受入対象者": "",
        "備考": ""
      }
    },
    {
      "type": "Feature",
      "geometry": {
        "type": "Point",
        "coordinates": [
          129.068555,
          33.019086
        ]
      },
      "properties": {
        "NO": 75896,
        "共通ID": "E4241100092111",
        "都道府県名及び市町村名": "長崎県新上五島町",
        "施設・場所名": "上郷小学校",
        "住所": "長崎県新上五島町奈摩郷10-1",
        "指定緊急避難場所との住所同一": "1",
        "その他市町村長が必要と認める事項": "",
        "受入対象者": "",
        "備考": ""
      }
    },
    {
      "type": "Feature",
      "geometry": {
        "type": "Point",
        "coordinates": [
          129.087802,
          33.026453
        ]
      },
      "properties": {
        "NO": 75897,
        "共通ID": "E4241100093111",
        "都道府県名及び市町村名": "長崎県新上五島町",
        "施設・場所名": "青砂ヶ浦公民館",
        "住所": "長崎県新上五島町奈摩郷1402-8",
        "指定緊急避難場所との住所同一": "1",
        "その他市町村長が必要と認める事項": "",
        "受入対象者": "",
        "備考": ""
      }
    },
    {
      "type": "Feature",
      "geometry": {
        "type": "Point",
        "coordinates": [
          129.071222,
          33.017174
        ]
      },
      "properties": {
        "NO": 75898,
        "共通ID": "E4241100094111",
        "都道府県名及び市町村名": "長崎県新上五島町",
        "施設・場所名": "奈摩老人クラブ",
        "住所": "長崎県新上五島町奈摩郷159-10",
        "指定緊急避難場所との住所同一": "1",
        "その他市町村長が必要と認める事項": "",
        "受入対象者": "",
        "備考": ""
      }
    },
    {
      "type": "Feature",
      "geometry": {
        "type": "Point",
        "coordinates": [
          129.070814,
          33.019023
        ]
      },
      "properties": {
        "NO": 75899,
        "共通ID": "E4241100095111",
        "都道府県名及び市町村名": "長崎県新上五島町",
        "施設・場所名": "奈摩地区水産物荷捌所・漁民研修集会施設",
        "住所": "長崎県新上五島町奈摩郷162-78",
        "指定緊急避難場所との住所同一": "1",
        "その他市町村長が必要と認める事項": "",
        "受入対象者": "",
        "備考": ""
      }
    },
    {
      "type": "Feature",
      "geometry": {
        "type": "Point",
        "coordinates": [
          129.055948,
          32.848524
        ]
      },
      "properties": {
        "NO": 75900,
        "共通ID": "E4241100096111",
        "都道府県名及び市町村名": "長崎県新上五島町",
        "施設・場所名": "地域福祉センターしおさい",
        "住所": "長崎県新上五島町奈良尾郷1069-1",
        "指定緊急避難場所との住所同一": "1",
        "その他市町村長が必要と認める事項": "",
        "受入対象者": "",
        "備考": ""
      }
    },
    {
      "type": "Feature",
      "geometry": {
        "type": "Point",
        "coordinates": [
          129.062284,
          32.838563
        ]
      },
      "properties": {
        "NO": 75901,
        "共通ID": "E4241100097111",
        "都道府県名及び市町村名": "長崎県新上五島町",
        "施設・場所名": "消防会館",
        "住所": "長崎県新上五島町奈良尾郷190-9",
        "指定緊急避難場所との住所同一": "1",
        "その他市町村長が必要と認める事項": "",
        "受入対象者": "",
        "備考": ""
      }
    },
    {
      "type": "Feature",
      "geometry": {
        "type": "Point",
        "coordinates": [
          129.060728,
          32.839974
        ]
      },
      "properties": {
        "NO": 75902,
        "共通ID": "E4241100098111",
        "都道府県名及び市町村名": "長崎県新上五島町",
        "施設・場所名": "奈良尾支所",
        "住所": "長崎県新上五島町奈良尾郷379",
        "指定緊急避難場所との住所同一": "1",
        "その他市町村長が必要と認める事項": "",
        "受入対象者": "",
        "備考": ""
      }
    },
    {
      "type": "Feature",
      "geometry": {
        "type": "Point",
        "coordinates": [
          129.06329,
          32.839915
        ]
      },
      "properties": {
        "NO": 75903,
        "共通ID": "E4241100099111",
        "都道府県名及び市町村名": "長崎県新上五島町",
        "施設・場所名": "奈良尾総合体育館",
        "住所": "長崎県新上五島町奈良尾郷473-3",
        "指定緊急避難場所との住所同一": "1",
        "その他市町村長が必要と認める事項": null,
        "受入対象者": null,
        "備考": ""
      }
    },
    {
      "type": "Feature",
      "geometry": {
        "type": "Point",
        "coordinates": [
          129.058121,
          32.849948
        ]
      },
      "properties": {
        "NO": 75904,
        "共通ID": "E4241100100111",
        "都道府県名及び市町村名": "長崎県新上五島町",
        "施設・場所名": "小奈良尾公民館",
        "住所": "長崎県新上五島町奈良尾郷879",
        "指定緊急避難場所との住所同一": "1",
        "その他市町村長が必要と認める事項": "",
        "受入対象者": "",
        "備考": ""
      }
    },
    {
      "type": "Feature",
      "geometry": {
        "type": "Point",
        "coordinates": [
          129.065052,
          32.865039
        ]
      },
      "properties": {
        "NO": 75905,
        "共通ID": "E4241100101111",
        "都道府県名及び市町村名": "長崎県新上五島町",
        "施設・場所名": "高井旅公民館",
        "住所": "長崎県新上五島町奈良尾郷914-5",
        "指定緊急避難場所との住所同一": "1",
        "その他市町村長が必要と認める事項": "",
        "受入対象者": "",
        "備考": ""
      }
    },
    {
      "type": "Feature",
      "geometry": {
        "type": "Point",
        "coordinates": [
          128.961835,
          32.919075
        ]
      },
      "properties": {
        "NO": 75906,
        "共通ID": "E4241100102111",
        "都道府県名及び市町村名": "長崎県新上五島町",
        "施設・場所名": "日島地区集会所",
        "住所": "長崎県新上五島町日島郷無",
        "指定緊急避難場所との住所同一": "1",
        "その他市町村長が必要と認める事項": "",
        "受入対象者": "",
        "備考": ""
      }
    },
    {
      "type": "Feature",
      "geometry": {
        "type": "Point",
        "coordinates": [
          129.069225,
          33.022019
        ]
      },
      "properties": {
        "NO": 75907,
        "共通ID": "E4241100103111",
        "都道府県名及び市町村名": "長崎県新上五島町",
        "施設・場所名": "網上公民館",
        "住所": "長崎県新上五島町網上郷362-5",
        "指定緊急避難場所との住所同一": "1",
        "その他市町村長が必要と認める事項": "",
        "受入対象者": "",
        "備考": ""
      }
    },
    {
      "type": "Feature",
      "geometry": {
        "type": "Point",
        "coordinates": [
          129.066286,
          33.033326
        ]
      },
      "properties": {
        "NO": 75908,
        "共通ID": "E4241100104111",
        "都道府県名及び市町村名": "長崎県新上五島町",
        "施設・場所名": "冷水公民館",
        "住所": "長崎県新上五島町網上郷645-5",
        "指定緊急避難場所との住所同一": "1",
        "その他市町村長が必要と認める事項": "",
        "受入対象者": "",
        "備考": ""
      }
    },
    {
      "type": "Feature",
      "geometry": {
        "type": "Point",
        "coordinates": [
          129.173454,
          32.999189
        ]
      },
      "properties": {
        "NO": 75909,
        "共通ID": "E4241100105111",
        "都道府県名及び市町村名": "長崎県新上五島町",
        "施設・場所名": "友住公民館",
        "住所": "長崎県新上五島町友住郷142-1",
        "指定緊急避難場所との住所同一": "1",
        "その他市町村長が必要と認める事項": "",
        "受入対象者": "",
        "備考": ""
      }
    },
    {
      "type": "Feature",
      "geometry": {
        "type": "Point",
        "coordinates": [
          129.18308,
          33.013414
        ]
      },
      "properties": {
        "NO": 75910,
        "共通ID": "E4241100106111",
        "都道府県名及び市町村名": "長崎県新上五島町",
        "施設・場所名": "白浜公園ビジターセンター",
        "住所": "長崎県新上五島町友住郷607-1",
        "指定緊急避難場所との住所同一": "1",
        "その他市町村長が必要と認める事項": "",
        "受入対象者": "",
        "備考": ""
      }
    },
    {
      "type": "Feature",
      "geometry": {
        "type": "Point",
        "coordinates": [
          129.12016,
          32.978433
        ]
      },
      "properties": {
        "NO": 75911,
        "共通ID": "E4241100107111",
        "都道府県名及び市町村名": "長崎県新上五島町",
        "施設・場所名": "有川小学校",
        "住所": "長崎県新上五島町有川郷1719-2",
        "指定緊急避難場所との住所同一": "1",
        "その他市町村長が必要と認める事項": "",
        "受入対象者": "",
        "備考": ""
      }
    },
    {
      "type": "Feature",
      "geometry": {
        "type": "Point",
        "coordinates": [
          129.11006,
          32.979418
        ]
      },
      "properties": {
        "NO": 75912,
        "共通ID": "E4241100108111",
        "都道府県名及び市町村名": "長崎県新上五島町",
        "施設・場所名": "地域福祉センターふれあい",
        "住所": "長崎県新上五島町有川郷2360-8",
        "指定緊急避難場所との住所同一": "1",
        "その他市町村長が必要と認める事項": "",
        "受入対象者": "",
        "備考": ""
      }
    },
    {
      "type": "Feature",
      "geometry": {
        "type": "Point",
        "coordinates": [
          129.106481,
          32.979706
        ]
      },
      "properties": {
        "NO": 75913,
        "共通ID": "E4241100109111",
        "都道府県名及び市町村名": "長崎県新上五島町",
        "施設・場所名": "有川総合体育館",
        "住所": "長崎県新上五島町有川郷2525-1",
        "指定緊急避難場所との住所同一": "1",
        "その他市町村長が必要と認める事項": "",
        "受入対象者": "",
        "備考": ""
      }
    },
    {
      "type": "Feature",
      "geometry": {
        "type": "Point",
        "coordinates": [
          129.112702,
          32.986744
        ]
      },
      "properties": {
        "NO": 75914,
        "共通ID": "E4241100111111",
        "都道府県名及び市町村名": "長崎県新上五島町",
        "施設・場所名": "有川港多目的ターミナル鯨賓館",
        "住所": "長崎県新上五島町有川郷578-36",
        "指定緊急避難場所との住所同一": "1",
        "その他市町村長が必要と認める事項": "",
        "受入対象者": "",
        "備考": ""
      }
    },
    {
      "type": "Feature",
      "geometry": {
        "type": "Point",
        "coordinates": [
          129.117655,
          32.982514
        ]
      },
      "properties": {
        "NO": 75915,
        "共通ID": "E4241100112111",
        "都道府県名及び市町村名": "長崎県新上五島町",
        "施設・場所名": "有川総合文化センター",
        "住所": "長崎県新上五島町有川郷733-1",
        "指定緊急避難場所との住所同一": "1",
        "その他市町村長が必要と認める事項": "",
        "受入対象者": "",
        "備考": ""
      }
    },
    {
      "type": "Feature",
      "geometry": {
        "type": "Point",
        "coordinates": [
          129.118252,
          32.983954
        ]
      },
      "properties": {
        "NO": 75916,
        "共通ID": "E4241100113111",
        "都道府県名及び市町村名": "長崎県新上五島町",
        "施設・場所名": "有川中学校",
        "住所": "長崎県新上五島町有川郷809",
        "指定緊急避難場所との住所同一": "1",
        "その他市町村長が必要と認める事項": "",
        "受入対象者": "",
        "備考": ""
      }
    },
    {
      "type": "Feature",
      "geometry": {
        "type": "Point",
        "coordinates": [
          128.953923,
          32.912536
        ]
      },
      "properties": {
        "NO": 75917,
        "共通ID": "E4241100114111",
        "都道府県名及び市町村名": "長崎県新上五島町",
        "施設・場所名": "有福地区集会所",
        "住所": "長崎県新上五島町有福郷287",
        "指定緊急避難場所との住所同一": "1",
        "その他市町村長が必要と認める事項": "",
        "受入対象者": "",
        "備考": ""
      }
    },
    {
      "type": "Feature",
      "geometry": {
        "type": "Point",
        "coordinates": [
          129.107649,
          33.075379
        ]
      },
      "properties": {
        "NO": 75918,
        "共通ID": "E4241100115111",
        "都道府県名及び市町村名": "長崎県新上五島町",
        "施設・場所名": "報徳会館",
        "住所": "長崎県新上五島町立串郷1331-7",
        "指定緊急避難場所との住所同一": "1",
        "その他市町村長が必要と認める事項": "",
        "受入対象者": "",
        "備考": ""
      }
    },
    {
      "type": "Feature",
      "geometry": {
        "type": "Point",
        "coordinates": [
          129.11111,
          33.08466
        ]
      },
      "properties": {
        "NO": 75919,
        "共通ID": "E4241100116111",
        "都道府県名及び市町村名": "長崎県新上五島町",
        "施設・場所名": "大瀬良新生館",
        "住所": "長崎県新上五島町立串郷1682-1",
        "指定緊急避難場所との住所同一": "1",
        "その他市町村長が必要と認める事項": "",
        "受入対象者": "",
        "備考": ""
      }
    },
    {
      "type": "Feature",
      "geometry": {
        "type": "Point",
        "coordinates": [
          129.107376,
          33.06262
        ]
      },
      "properties": {
        "NO": 75920,
        "共通ID": "E4241100117111",
        "都道府県名及び市町村名": "長崎県新上五島町",
        "施設・場所名": "立串生活館",
        "住所": "長崎県新上五島町立串郷570-6",
        "指定緊急避難場所との住所同一": "1",
        "その他市町村長が必要と認める事項": "",
        "受入対象者": "",
        "備考": ""
      }
    }
  ]
}