{
  "type": "FeatureCollection",
  "name": "431001",
  "features": [
    {
      "type": "Feature",
      "geometry": {
        "type": "Point",
        "coordinates": [
          130.590585,
          32.828426
        ]
      },
      "properties": {
        "NO": 75921,
        "共通ID": "E4310000002111",
        "都道府県名及び市町村名": "熊本県熊本市",
        "施設・場所名": "河内中学校",
        "住所": "熊本県熊本市西区河内町船津2470-1",
        "指定緊急避難場所との住所同一": "1",
        "その他市町村長が必要と認める事項": null,
        "受入対象者": null,
        "備考": ""
      }
    },
    {
      "type": "Feature",
      "geometry": {
        "type": "Point",
        "coordinates": [
          130.591517,
          32.828409
        ]
      },
      "properties": {
        "NO": 75922,
        "共通ID": "E4310000003111",
        "都道府県名及び市町村名": "熊本県熊本市",
        "施設・場所名": "河内小学校",
        "住所": "熊本県熊本市西区河内町船津2505-2",
        "指定緊急避難場所との住所同一": "1",
        "その他市町村長が必要と認める事項": null,
        "受入対象者": null,
        "備考": ""
      }
    },
    {
      "type": "Feature",
      "geometry": {
        "type": "Point",
        "coordinates": [
          130.583855,
          32.836669
        ]
      },
      "properties": {
        "NO": 75923,
        "共通ID": "E4310000004111",
        "都道府県名及び市町村名": "熊本県熊本市",
        "施設・場所名": "河内交流室・公民館",
        "住所": "熊本県熊本市西区河内町船津791",
        "指定緊急避難場所との住所同一": "1",
        "その他市町村長が必要と認める事項": null,
        "受入対象者": null,
        "備考": ""
      }
    },
    {
      "type": "Feature",
      "geometry": {
        "type": "Point",
        "coordinates": [
          130.586976,
          32.841892
        ]
      },
      "properties": {
        "NO": 75924,
        "共通ID": "E4310000005111",
        "都道府県名及び市町村名": "熊本県熊本市",
        "施設・場所名": "旧河内小学校白浜分校",
        "住所": "熊本県熊本市西区河内町白浜1018-6",
        "指定緊急避難場所との住所同一": "1",
        "その他市町村長が必要と認める事項": null,
        "受入対象者": null,
        "備考": ""
      }
    },
    {
      "type": "Feature",
      "geometry": {
        "type": "Point",
        "coordinates": [
          130.643095,
          32.843362
        ]
      },
      "properties": {
        "NO": 75925,
        "共通ID": "E4310000006111",
        "都道府県名及び市町村名": "熊本県熊本市",
        "施設・場所名": "芳野コミュニティセンター",
        "住所": "熊本県熊本市西区河内町野出1410",
        "指定緊急避難場所との住所同一": "1",
        "その他市町村長が必要と認める事項": null,
        "受入対象者": null,
        "備考": ""
      }
    },
    {
      "type": "Feature",
      "geometry": {
        "type": "Point",
        "coordinates": [
          130.642815,
          32.842398
        ]
      },
      "properties": {
        "NO": 75926,
        "共通ID": "E4310000007111",
        "都道府県名及び市町村名": "熊本県熊本市",
        "施設・場所名": "芳野小学校",
        "住所": "熊本県熊本市西区河内町野出1419",
        "指定緊急避難場所との住所同一": "1",
        "その他市町村長が必要と認める事項": null,
        "受入対象者": null,
        "備考": ""
      }
    },
    {
      "type": "Feature",
      "geometry": {
        "type": "Point",
        "coordinates": [
          130.640674,
          32.841102
        ]
      },
      "properties": {
        "NO": 75927,
        "共通ID": "E4310000008111",
        "都道府県名及び市町村名": "熊本県熊本市",
        "施設・場所名": "芳野中学校",
        "住所": "熊本県熊本市西区河内町野出1420-46",
        "指定緊急避難場所との住所同一": "1",
        "その他市町村長が必要と認める事項": null,
        "受入対象者": null,
        "備考": ""
      }
    },
    {
      "type": "Feature",
      "geometry": {
        "type": "Point",
        "coordinates": [
          130.694862,
          32.817577
        ]
      },
      "properties": {
        "NO": 75928,
        "共通ID": "E4310000009111",
        "都道府県名及び市町村名": "熊本県熊本市",
        "施設・場所名": "花園まちづくりセンター・公民館",
        "住所": "熊本県熊本市西区花園5-8-3",
        "指定緊急避難場所との住所同一": "1",
        "その他市町村長が必要と認める事項": null,
        "受入対象者": null,
        "備考": ""
      }
    },
    {
      "type": "Feature",
      "geometry": {
        "type": "Point",
        "coordinates": [
          130.690747,
          32.822749
        ]
      },
      "properties": {
        "NO": 75929,
        "共通ID": "E4310000011111",
        "都道府県名及び市町村名": "熊本県熊本市",
        "施設・場所名": "花園小学校",
        "住所": "熊本県熊本市西区花園6-9-15",
        "指定緊急避難場所との住所同一": "1",
        "その他市町村長が必要と認める事項": null,
        "受入対象者": null,
        "備考": ""
      }
    },
    {
      "type": "Feature",
      "geometry": {
        "type": "Point",
        "coordinates": [
          130.656297,
          32.784237
        ]
      },
      "properties": {
        "NO": 75930,
        "共通ID": "E4310000013111",
        "都道府県名及び市町村名": "熊本県熊本市",
        "施設・場所名": "高橋小学校",
        "住所": "熊本県熊本市西区高橋町1-6-1",
        "指定緊急避難場所との住所同一": "1",
        "その他市町村長が必要と認める事項": null,
        "受入対象者": null,
        "備考": ""
      }
    },
    {
      "type": "Feature",
      "geometry": {
        "type": "Point",
        "coordinates": [
          130.691058,
          32.790388
        ]
      },
      "properties": {
        "NO": 75931,
        "共通ID": "E4310000014111",
        "都道府県名及び市町村名": "熊本県熊本市",
        "施設・場所名": "くまもと森都心プラザ",
        "住所": "熊本県熊本市西区春日1-14-1",
        "指定緊急避難場所との住所同一": "1",
        "その他市町村長が必要と認める事項": null,
        "受入対象者": null,
        "備考": ""
      }
    },
    {
      "type": "Feature",
      "geometry": {
        "type": "Point",
        "coordinates": [
          130.685916,
          32.789842
        ]
      },
      "properties": {
        "NO": 75932,
        "共通ID": "E4310000015111",
        "都道府県名及び市町村名": "熊本県熊本市",
        "施設・場所名": "春日小学校",
        "住所": "熊本県熊本市西区春日5-3-5",
        "指定緊急避難場所との住所同一": "1",
        "その他市町村長が必要と認める事項": null,
        "受入対象者": null,
        "備考": ""
      }
    },
    {
      "type": "Feature",
      "geometry": {
        "type": "Point",
        "coordinates": [
          130.647611,
          32.77685
        ]
      },
      "properties": {
        "NO": 75933,
        "共通ID": "E4310000016111",
        "都道府県名及び市町村名": "熊本県熊本市",
        "施設・場所名": "西部公民館",
        "住所": "熊本県熊本市西区小島2-7-1",
        "指定緊急避難場所との住所同一": "1",
        "その他市町村長が必要と認める事項": null,
        "受入対象者": null,
        "備考": ""
      }
    },
    {
      "type": "Feature",
      "geometry": {
        "type": "Point",
        "coordinates": [
          130.646861,
          32.776323
        ]
      },
      "properties": {
        "NO": 75934,
        "共通ID": "E4310000017111",
        "都道府県名及び市町村名": "熊本県熊本市",
        "施設・場所名": "西部交流センター",
        "住所": "熊本県熊本市西区小島2-7-50",
        "指定緊急避難場所との住所同一": "1",
        "その他市町村長が必要と認める事項": null,
        "受入対象者": null,
        "備考": ""
      }
    },
    {
      "type": "Feature",
      "geometry": {
        "type": "Point",
        "coordinates": [
          130.634586,
          32.778943
        ]
      },
      "properties": {
        "NO": 75935,
        "共通ID": "E4310000019111",
        "都道府県名及び市町村名": "熊本県熊本市",
        "施設・場所名": "小島小学校",
        "住所": "熊本県熊本市西区小島7-9-1",
        "指定緊急避難場所との住所同一": "1",
        "その他市町村長が必要と認める事項": null,
        "受入対象者": null,
        "備考": ""
      }
    },
    {
      "type": "Feature",
      "geometry": {
        "type": "Point",
        "coordinates": [
          130.63292,
          32.782574
        ]
      },
      "properties": {
        "NO": 75936,
        "共通ID": "E4310000020111",
        "都道府県名及び市町村名": "熊本県熊本市",
        "施設・場所名": "城西中学校",
        "住所": "熊本県熊本市西区小島8-17-1",
        "指定緊急避難場所との住所同一": "1",
        "その他市町村長が必要と認める事項": null,
        "受入対象者": null,
        "備考": ""
      }
    },
    {
      "type": "Feature",
      "geometry": {
        "type": "Point",
        "coordinates": [
          130.625217,
          32.812419
        ]
      },
      "properties": {
        "NO": 75937,
        "共通ID": "E4310000022111",
        "都道府県名及び市町村名": "熊本県熊本市",
        "施設・場所名": "旧松尾北小学校",
        "住所": "熊本県熊本市西区松尾町平山255",
        "指定緊急避難場所との住所同一": "1",
        "その他市町村長が必要と認める事項": null,
        "受入対象者": null,
        "備考": ""
      }
    },
    {
      "type": "Feature",
      "geometry": {
        "type": "Point",
        "coordinates": [
          130.698625,
          32.820992
        ]
      },
      "properties": {
        "NO": 75938,
        "共通ID": "E4310000024111",
        "都道府県名及び市町村名": "熊本県熊本市",
        "施設・場所名": "井芹中学校",
        "住所": "熊本県熊本市西区上熊本3-27-1",
        "指定緊急避難場所との住所同一": "1",
        "その他市町村長が必要と認める事項": null,
        "受入対象者": null,
        "備考": ""
      }
    },
    {
      "type": "Feature",
      "geometry": {
        "type": "Point",
        "coordinates": [
          130.665237,
          32.78602
        ]
      },
      "properties": {
        "NO": 75939,
        "共通ID": "E4310000025111",
        "都道府県名及び市町村名": "熊本県熊本市",
        "施設・場所名": "三和中学校",
        "住所": "熊本県熊本市西区上高橋1-4-1",
        "指定緊急避難場所との住所同一": "1",
        "その他市町村長が必要と認める事項": null,
        "受入対象者": null,
        "備考": ""
      }
    },
    {
      "type": "Feature",
      "geometry": {
        "type": "Point",
        "coordinates": [
          130.634725,
          32.796715
        ]
      },
      "properties": {
        "NO": 75940,
        "共通ID": "E4310000026111",
        "都道府県名及び市町村名": "熊本県熊本市",
        "施設・場所名": "旧松尾東小学校",
        "住所": "熊本県熊本市西区上松尾町2880",
        "指定緊急避難場所との住所同一": "1",
        "その他市町村長が必要と認める事項": null,
        "受入対象者": null,
        "備考": ""
      }
    },
    {
      "type": "Feature",
      "geometry": {
        "type": "Point",
        "coordinates": [
          130.65709,
          32.778041
        ]
      },
      "properties": {
        "NO": 75941,
        "共通ID": "E4310000027111",
        "都道府県名及び市町村名": "熊本県熊本市",
        "施設・場所名": "城山小学校",
        "住所": "熊本県熊本市西区城山大塘1-23-1",
        "指定緊急避難場所との住所同一": "1",
        "その他市町村長が必要と認める事項": null,
        "受入対象者": null,
        "備考": ""
      }
    },
    {
      "type": "Feature",
      "geometry": {
        "type": "Point",
        "coordinates": [
          130.614508,
          32.797802
        ]
      },
      "properties": {
        "NO": 75942,
        "共通ID": "E4310000031111",
        "都道府県名及び市町村名": "熊本県熊本市",
        "施設・場所名": "旧松尾西小学校",
        "住所": "熊本県熊本市西区西松尾町4456-1",
        "指定緊急避難場所との住所同一": "1",
        "その他市町村長が必要と認める事項": null,
        "受入対象者": null,
        "備考": ""
      }
    },
    {
      "type": "Feature",
      "geometry": {
        "type": "Point",
        "coordinates": [
          130.67139,
          32.790488
        ]
      },
      "properties": {
        "NO": 75943,
        "共通ID": "E4310000034111",
        "都道府県名及び市町村名": "熊本県熊本市",
        "施設・場所名": "池上小学校",
        "住所": "熊本県熊本市西区池上町850",
        "指定緊急避難場所との住所同一": "1",
        "その他市町村長が必要と認める事項": null,
        "受入対象者": null,
        "備考": ""
      }
    },
    {
      "type": "Feature",
      "geometry": {
        "type": "Point",
        "coordinates": [
          130.704221,
          32.825171
        ]
      },
      "properties": {
        "NO": 75944,
        "共通ID": "E4310000036111",
        "都道府県名及び市町村名": "熊本県熊本市",
        "施設・場所名": "池田小学校",
        "住所": "熊本県熊本市西区池田1-28-5",
        "指定緊急避難場所との住所同一": "1",
        "その他市町村長が必要と認める事項": null,
        "受入対象者": null,
        "備考": ""
      }
    },
    {
      "type": "Feature",
      "geometry": {
        "type": "Point",
        "coordinates": [
          130.628934,
          32.76667
        ]
      },
      "properties": {
        "NO": 75945,
        "共通ID": "E4310000038111",
        "都道府県名及び市町村名": "熊本県熊本市",
        "施設・場所名": "中島小学校",
        "住所": "熊本県熊本市西区中島町538",
        "指定緊急避難場所との住所同一": "1",
        "その他市町村長が必要と認める事項": null,
        "受入対象者": null,
        "備考": ""
      }
    },
    {
      "type": "Feature",
      "geometry": {
        "type": "Point",
        "coordinates": [
          130.686511,
          32.806854
        ]
      },
      "properties": {
        "NO": 75946,
        "共通ID": "E4310000039111",
        "都道府県名及び市町村名": "熊本県熊本市",
        "施設・場所名": "市立千原台高校",
        "住所": "熊本県熊本市西区島崎2-37-1",
        "指定緊急避難場所との住所同一": "1",
        "その他市町村長が必要と認める事項": null,
        "受入対象者": null,
        "備考": ""
      }
    },
    {
      "type": "Feature",
      "geometry": {
        "type": "Point",
        "coordinates": [
          130.682782,
          32.805654
        ]
      },
      "properties": {
        "NO": 75947,
        "共通ID": "E4310000040111",
        "都道府県名及び市町村名": "熊本県熊本市",
        "施設・場所名": "城西小学校",
        "住所": "熊本県熊本市西区島崎3-12-60",
        "指定緊急避難場所との住所同一": "1",
        "その他市町村長が必要と認める事項": null,
        "受入対象者": null,
        "備考": ""
      }
    },
    {
      "type": "Feature",
      "geometry": {
        "type": "Point",
        "coordinates": [
          130.689592,
          32.782321
        ]
      },
      "properties": {
        "NO": 75948,
        "共通ID": "E4310000043111",
        "都道府県名及び市町村名": "熊本県熊本市",
        "施設・場所名": "古町小学校",
        "住所": "熊本県熊本市西区二本木4-9-65",
        "指定緊急避難場所との住所同一": "1",
        "その他市町村長が必要と認める事項": null,
        "受入対象者": null,
        "備考": ""
      }
    },
    {
      "type": "Feature",
      "geometry": {
        "type": "Point",
        "coordinates": [
          130.678545,
          32.779347
        ]
      },
      "properties": {
        "NO": 75949,
        "共通ID": "E4310000044111",
        "都道府県名及び市町村名": "熊本県熊本市",
        "施設・場所名": "花陵中学校",
        "住所": "熊本県熊本市西区八島2-14-1",
        "指定緊急避難場所との住所同一": "1",
        "その他市町村長が必要と認める事項": null,
        "受入対象者": null,
        "備考": ""
      }
    },
    {
      "type": "Feature",
      "geometry": {
        "type": "Point",
        "coordinates": [
          130.684143,
          32.777815
        ]
      },
      "properties": {
        "NO": 75950,
        "共通ID": "E4310000046111",
        "都道府県名及び市町村名": "熊本県熊本市",
        "施設・場所名": "白坪小学校",
        "住所": "熊本県熊本市西区蓮台寺4-4-1",
        "指定緊急避難場所との住所同一": "1",
        "その他市町村長が必要と認める事項": null,
        "受入対象者": null,
        "備考": ""
      }
    },
    {
      "type": "Feature",
      "geometry": {
        "type": "Point",
        "coordinates": [
          130.718431,
          32.809114
        ]
      },
      "properties": {
        "NO": 75951,
        "共通ID": "E4310000047111",
        "都道府県名及び市町村名": "熊本県熊本市",
        "施設・場所名": "碩台小学校",
        "住所": "熊本県熊本市中央区井川淵町4-8",
        "指定緊急避難場所との住所同一": "1",
        "その他市町村長が必要と認める事項": null,
        "受入対象者": null,
        "備考": ""
      }
    },
    {
      "type": "Feature",
      "geometry": {
        "type": "Point",
        "coordinates": [
          130.704112,
          32.81728
        ]
      },
      "properties": {
        "NO": 75952,
        "共通ID": "E4310000048111",
        "都道府県名及び市町村名": "熊本県熊本市",
        "施設・場所名": "京陵中学校",
        "住所": "熊本県熊本市中央区京町本丁1-14",
        "指定緊急避難場所との住所同一": "1",
        "その他市町村長が必要と認める事項": null,
        "受入対象者": null,
        "備考": ""
      }
    },
    {
      "type": "Feature",
      "geometry": {
        "type": "Point",
        "coordinates": [
          130.707561,
          32.788264
        ]
      },
      "properties": {
        "NO": 75953,
        "共通ID": "E4310000050111",
        "都道府県名及び市町村名": "熊本県熊本市",
        "施設・場所名": "春竹小学校",
        "住所": "熊本県熊本市中央区琴平1-9-43",
        "指定緊急避難場所との住所同一": "1",
        "その他市町村長が必要と認める事項": null,
        "受入対象者": null,
        "備考": ""
      }
    },
    {
      "type": "Feature",
      "geometry": {
        "type": "Point",
        "coordinates": [
          130.70534,
          32.784347
        ]
      },
      "properties": {
        "NO": 75954,
        "共通ID": "E4310000051111",
        "都道府県名及び市町村名": "熊本県熊本市",
        "施設・場所名": "江原中学校",
        "住所": "熊本県熊本市中央区琴平2-9-59",
        "指定緊急避難場所との住所同一": "1",
        "その他市町村長が必要と認める事項": null,
        "受入対象者": null,
        "備考": ""
      }
    },
    {
      "type": "Feature",
      "geometry": {
        "type": "Point",
        "coordinates": [
          130.720253,
          32.814575
        ]
      },
      "properties": {
        "NO": 75955,
        "共通ID": "E4310000057111",
        "都道府県名及び市町村名": "熊本県熊本市",
        "施設・場所名": "黒髪小学校",
        "住所": "熊本県熊本市中央区黒髪2-2-1",
        "指定緊急避難場所との住所同一": "1",
        "その他市町村長が必要と認める事項": null,
        "受入対象者": null,
        "備考": ""
      }
    },
    {
      "type": "Feature",
      "geometry": {
        "type": "Point",
        "coordinates": [
          130.720156,
          32.819839
        ]
      },
      "properties": {
        "NO": 75956,
        "共通ID": "E4310000060111",
        "都道府県名及び市町村名": "熊本県熊本市",
        "施設・場所名": "サンライフ熊本",
        "住所": "熊本県熊本市中央区黒髪3-3-12",
        "指定緊急避難場所との住所同一": "1",
        "その他市町村長が必要と認める事項": null,
        "受入対象者": null,
        "備考": ""
      }
    },
    {
      "type": "Feature",
      "geometry": {
        "type": "Point",
        "coordinates": [
          130.731902,
          32.816408
        ]
      },
      "properties": {
        "NO": 75957,
        "共通ID": "E4310000061111",
        "都道府県名及び市町村名": "熊本県熊本市",
        "施設・場所名": "桜山中学校",
        "住所": "熊本県熊本市中央区黒髪5-13-1",
        "指定緊急避難場所との住所同一": "1",
        "その他市町村長が必要と認める事項": null,
        "受入対象者": null,
        "備考": ""
      }
    },
    {
      "type": "Feature",
      "geometry": {
        "type": "Point",
        "coordinates": [
          130.695933,
          32.795878
        ]
      },
      "properties": {
        "NO": 75958,
        "共通ID": "E4310000062112",
        "都道府県名及び市町村名": "熊本県熊本市",
        "施設・場所名": "五福小学校",
        "住所": "熊本県熊本市中央区細工町2-25",
        "指定緊急避難場所との住所同一": "1",
        "その他市町村長が必要と認める事項": null,
        "受入対象者": null,
        "備考": ""
      }
    },
    {
      "type": "Feature",
      "geometry": {
        "type": "Point",
        "coordinates": [
          130.695694,
          32.795942
        ]
      },
      "properties": {
        "NO": 75959,
        "共通ID": "E4310000062111",
        "都道府県名及び市町村名": "熊本県熊本市",
        "施設・場所名": "五福交流室・公民館",
        "住所": "熊本県熊本市中央区細工町2-25",
        "指定緊急避難場所との住所同一": "1",
        "その他市町村長が必要と認める事項": null,
        "受入対象者": null,
        "備考": ""
      }
    },
    {
      "type": "Feature",
      "geometry": {
        "type": "Point",
        "coordinates": [
          130.701795,
          32.797031
        ]
      },
      "properties": {
        "NO": 75960,
        "共通ID": "E4310000063111",
        "都道府県名及び市町村名": "熊本県熊本市",
        "施設・場所名": "慶徳小学校",
        "住所": "熊本県熊本市中央区山崎町72",
        "指定緊急避難場所との住所同一": "",
        "その他市町村長が必要と認める事項": "",
        "受入対象者": "",
        "備考": ""
      }
    },
    {
      "type": "Feature",
      "geometry": {
        "type": "Point",
        "coordinates": [
          130.731203,
          32.789046
        ]
      },
      "properties": {
        "NO": 75961,
        "共通ID": "E4310000064111",
        "都道府県名及び市町村名": "熊本県熊本市",
        "施設・場所名": "出水小学校",
        "住所": "熊本県熊本市中央区出水1-1-75",
        "指定緊急避難場所との住所同一": "1",
        "その他市町村長が必要と認める事項": null,
        "受入対象者": null,
        "備考": ""
      }
    },
    {
      "type": "Feature",
      "geometry": {
        "type": "Point",
        "coordinates": [
          130.736607,
          32.785117
        ]
      },
      "properties": {
        "NO": 75962,
        "共通ID": "E4310000065111",
        "都道府県名及び市町村名": "熊本県熊本市",
        "施設・場所名": "熊本市総合体育館・青年会館",
        "住所": "熊本県熊本市中央区出水2-7-1",
        "指定緊急避難場所との住所同一": "1",
        "その他市町村長が必要と認める事項": null,
        "受入対象者": null,
        "備考": ""
      }
    },
    {
      "type": "Feature",
      "geometry": {
        "type": "Point",
        "coordinates": [
          130.730618,
          32.783234
        ]
      },
      "properties": {
        "NO": 75963,
        "共通ID": "E4310000067111",
        "都道府県名及び市町村名": "熊本県熊本市",
        "施設・場所名": "出水南小学校",
        "住所": "熊本県熊本市中央区出水4-1-1",
        "指定緊急避難場所との住所同一": "1",
        "その他市町村長が必要と認める事項": null,
        "受入対象者": null,
        "備考": ""
      }
    },
    {
      "type": "Feature",
      "geometry": {
        "type": "Point",
        "coordinates": [
          130.726848,
          32.784081
        ]
      },
      "properties": {
        "NO": 75964,
        "共通ID": "E4310000069111",
        "都道府県名及び市町村名": "熊本県熊本市",
        "施設・場所名": "出水中学校",
        "住所": "熊本県熊本市中央区出水5-3-1",
        "指定緊急避難場所との住所同一": "1",
        "その他市町村長が必要と認める事項": null,
        "受入対象者": null,
        "備考": ""
      }
    },
    {
      "type": "Feature",
      "geometry": {
        "type": "Point",
        "coordinates": [
          130.728094,
          32.775036
        ]
      },
      "properties": {
        "NO": 75965,
        "共通ID": "E4310000070111",
        "都道府県名及び市町村名": "熊本県熊本市",
        "施設・場所名": "出水南中学校",
        "住所": "熊本県熊本市中央区出水7-86-1",
        "指定緊急避難場所との住所同一": "1",
        "その他市町村長が必要と認める事項": null,
        "受入対象者": null,
        "備考": ""
      }
    },
    {
      "type": "Feature",
      "geometry": {
        "type": "Point",
        "coordinates": [
          130.716847,
          32.802677
        ]
      },
      "properties": {
        "NO": 75966,
        "共通ID": "E4310000072111",
        "都道府県名及び市町村名": "熊本県熊本市",
        "施設・場所名": "白川小学校",
        "住所": "熊本県熊本市中央区新屋敷1-7-13",
        "指定緊急避難場所との住所同一": "1",
        "その他市町村長が必要と認める事項": null,
        "受入対象者": null,
        "備考": ""
      }
    },
    {
      "type": "Feature",
      "geometry": {
        "type": "Point",
        "coordinates": [
          130.69506,
          32.80239
        ]
      },
      "properties": {
        "NO": 75967,
        "共通ID": "E4310000074111",
        "都道府県名及び市町村名": "熊本県熊本市",
        "施設・場所名": "一新小学校",
        "住所": "熊本県熊本市中央区新町3-10-45",
        "指定緊急避難場所との住所同一": "1",
        "その他市町村長が必要と認める事項": null,
        "受入対象者": null,
        "備考": ""
      }
    },
    {
      "type": "Feature",
      "geometry": {
        "type": "Point",
        "coordinates": [
          130.738785,
          32.787241
        ]
      },
      "properties": {
        "NO": 75968,
        "共通ID": "E4310000075111",
        "都道府県名及び市町村名": "熊本県熊本市",
        "施設・場所名": "砂取小学校",
        "住所": "熊本県熊本市中央区神水1-1-1",
        "指定緊急避難場所との住所同一": "1",
        "その他市町村長が必要と認める事項": null,
        "受入対象者": null,
        "備考": ""
      }
    },
    {
      "type": "Feature",
      "geometry": {
        "type": "Point",
        "coordinates": [
          130.741367,
          32.794178
        ]
      },
      "properties": {
        "NO": 75969,
        "共通ID": "E4310000078111",
        "都道府県名及び市町村名": "熊本県熊本市",
        "施設・場所名": "水前寺競技場",
        "住所": "熊本県熊本市中央区水前寺5-23-3",
        "指定緊急避難場所との住所同一": "1",
        "その他市町村長が必要と認める事項": null,
        "受入対象者": null,
        "備考": ""
      }
    },
    {
      "type": "Feature",
      "geometry": {
        "type": "Point",
        "coordinates": [
          130.719695,
          32.790061
        ]
      },
      "properties": {
        "NO": 75970,
        "共通ID": "E4310000080111",
        "都道府県名及び市町村名": "熊本県熊本市",
        "施設・場所名": "白山小学校",
        "住所": "熊本県熊本市中央区菅原町9-1",
        "指定緊急避難場所との住所同一": "1",
        "その他市町村長が必要と認める事項": null,
        "受入対象者": null,
        "備考": ""
      }
    },
    {
      "type": "Feature",
      "geometry": {
        "type": "Point",
        "coordinates": [
          130.709322,
          32.808347
        ]
      },
      "properties": {
        "NO": 75971,
        "共通ID": "E4310000081111",
        "都道府県名及び市町村名": "熊本県熊本市",
        "施設・場所名": "城東小学校",
        "住所": "熊本県熊本市中央区千葉城町5-1",
        "指定緊急避難場所との住所同一": "1",
        "その他市町村長が必要と認める事項": null,
        "受入対象者": null,
        "備考": ""
      }
    },
    {
      "type": "Feature",
      "geometry": {
        "type": "Point",
        "coordinates": [
          130.708212,
          32.808708
        ]
      },
      "properties": {
        "NO": 75972,
        "共通ID": "E4310000082111",
        "都道府県名及び市町村名": "熊本県熊本市",
        "施設・場所名": "藤園中学校",
        "住所": "熊本県熊本市中央区千葉城町5-2",
        "指定緊急避難場所との住所同一": "1",
        "その他市町村長が必要と認める事項": null,
        "受入対象者": null,
        "備考": ""
      }
    },
    {
      "type": "Feature",
      "geometry": {
        "type": "Point",
        "coordinates": [
          130.715552,
          32.804732
        ]
      },
      "properties": {
        "NO": 75973,
        "共通ID": "E4310000084111",
        "都道府県名及び市町村名": "熊本県熊本市",
        "施設・場所名": "中央公民館",
        "住所": "熊本県熊本市中央区草葉町5-1",
        "指定緊急避難場所との住所同一": "1",
        "その他市町村長が必要と認める事項": null,
        "受入対象者": null,
        "備考": ""
      }
    },
    {
      "type": "Feature",
      "geometry": {
        "type": "Point",
        "coordinates": [
          130.741402,
          32.802307
        ]
      },
      "properties": {
        "NO": 75974,
        "共通ID": "E4310000085111",
        "都道府県名及び市町村名": "熊本県熊本市",
        "施設・場所名": "帯山西小学校",
        "住所": "熊本県熊本市中央区帯山1-29-8",
        "指定緊急避難場所との住所同一": "1",
        "その他市町村長が必要と認める事項": null,
        "受入対象者": null,
        "備考": ""
      }
    },
    {
      "type": "Feature",
      "geometry": {
        "type": "Point",
        "coordinates": [
          130.74504,
          32.801179
        ]
      },
      "properties": {
        "NO": 75975,
        "共通ID": "E4310000086111",
        "都道府県名及び市町村名": "熊本県熊本市",
        "施設・場所名": "帯山中学校",
        "住所": "熊本県熊本市中央区帯山1-35-32",
        "指定緊急避難場所との住所同一": "1",
        "その他市町村長が必要と認める事項": null,
        "受入対象者": null,
        "備考": ""
      }
    },
    {
      "type": "Feature",
      "geometry": {
        "type": "Point",
        "coordinates": [
          130.749869,
          32.80193
        ]
      },
      "properties": {
        "NO": 75976,
        "共通ID": "E4310000087111",
        "都道府県名及び市町村名": "熊本県熊本市",
        "施設・場所名": "帯山小学校",
        "住所": "熊本県熊本市中央区帯山4-11-11",
        "指定緊急避難場所との住所同一": "1",
        "その他市町村長が必要と認める事項": null,
        "受入対象者": null,
        "備考": ""
      }
    },
    {
      "type": "Feature",
      "geometry": {
        "type": "Point",
        "coordinates": [
          130.722104,
          32.80339
        ]
      },
      "properties": {
        "NO": 75977,
        "共通ID": "E4310000091111",
        "都道府県名及び市町村名": "熊本県熊本市",
        "施設・場所名": "白川中学校",
        "住所": "熊本県熊本市中央区大江3-1-12",
        "指定緊急避難場所との住所同一": "1",
        "その他市町村長が必要と認める事項": null,
        "受入対象者": null,
        "備考": ""
      }
    },
    {
      "type": "Feature",
      "geometry": {
        "type": "Point",
        "coordinates": [
          130.725461,
          32.801929
        ]
      },
      "properties": {
        "NO": 75978,
        "共通ID": "E4310000092111",
        "都道府県名及び市町村名": "熊本県熊本市",
        "施設・場所名": "大江小学校",
        "住所": "熊本県熊本市中央区大江3-5-31",
        "指定緊急避難場所との住所同一": "1",
        "その他市町村長が必要と認める事項": null,
        "受入対象者": null,
        "備考": ""
      }
    },
    {
      "type": "Feature",
      "geometry": {
        "type": "Point",
        "coordinates": [
          130.725085,
          32.798861
        ]
      },
      "properties": {
        "NO": 75979,
        "共通ID": "E4310000095111",
        "都道府県名及び市町村名": "熊本県熊本市",
        "施設・場所名": "大江交流室・公民館",
        "住所": "熊本県熊本市中央区大江6-1-85",
        "指定緊急避難場所との住所同一": "1",
        "その他市町村長が必要と認める事項": null,
        "受入対象者": null,
        "備考": ""
      }
    },
    {
      "type": "Feature",
      "geometry": {
        "type": "Point",
        "coordinates": [
          130.714035,
          32.815799
        ]
      },
      "properties": {
        "NO": 75980,
        "共通ID": "E4310000100111",
        "都道府県名及び市町村名": "熊本県熊本市",
        "施設・場所名": "市立必由館高校",
        "住所": "熊本県熊本市中央区坪井4-15-1",
        "指定緊急避難場所との住所同一": "1",
        "その他市町村長が必要と認める事項": null,
        "受入対象者": null,
        "備考": ""
      }
    },
    {
      "type": "Feature",
      "geometry": {
        "type": "Point",
        "coordinates": [
          130.715085,
          32.817869
        ]
      },
      "properties": {
        "NO": 75981,
        "共通ID": "E4310000101111",
        "都道府県名及び市町村名": "熊本県熊本市",
        "施設・場所名": "竜南中学校",
        "住所": "熊本県熊本市中央区坪井4-16-1",
        "指定緊急避難場所との住所同一": "1",
        "その他市町村長が必要と認める事項": null,
        "受入対象者": null,
        "備考": ""
      }
    },
    {
      "type": "Feature",
      "geometry": {
        "type": "Point",
        "coordinates": [
          130.735808,
          32.803944
        ]
      },
      "properties": {
        "NO": 75982,
        "共通ID": "E4310000104111",
        "都道府県名及び市町村名": "熊本県熊本市",
        "施設・場所名": "託麻原小学校",
        "住所": "熊本県熊本市中央区渡鹿2-3-1",
        "指定緊急避難場所との住所同一": "1",
        "その他市町村長が必要と認める事項": null,
        "受入対象者": null,
        "備考": ""
      }
    },
    {
      "type": "Feature",
      "geometry": {
        "type": "Point",
        "coordinates": [
          130.692925,
          32.803535
        ]
      },
      "properties": {
        "NO": 75983,
        "共通ID": "E4310000105111",
        "都道府県名及び市町村名": "熊本県熊本市",
        "施設・場所名": "西山中学校",
        "住所": "熊本県熊本市中央区島崎1-27-1",
        "指定緊急避難場所との住所同一": "1",
        "その他市町村長が必要と認める事項": null,
        "受入対象者": null,
        "備考": ""
      }
    },
    {
      "type": "Feature",
      "geometry": {
        "type": "Point",
        "coordinates": [
          130.700032,
          32.789394
        ]
      },
      "properties": {
        "NO": 75984,
        "共通ID": "E4310000110111",
        "都道府県名及び市町村名": "熊本県熊本市",
        "施設・場所名": "向山小学校",
        "住所": "熊本県熊本市中央区本山4-5-11",
        "指定緊急避難場所との住所同一": "1",
        "その他市町村長が必要と認める事項": null,
        "受入対象者": null,
        "備考": ""
      }
    },
    {
      "type": "Feature",
      "geometry": {
        "type": "Point",
        "coordinates": [
          130.698705,
          32.787578
        ]
      },
      "properties": {
        "NO": 75985,
        "共通ID": "E4310000111111",
        "都道府県名及び市町村名": "熊本県熊本市",
        "施設・場所名": "江南中学校",
        "住所": "熊本県熊本市中央区本山町75",
        "指定緊急避難場所との住所同一": "1",
        "その他市町村長が必要と認める事項": null,
        "受入対象者": null,
        "備考": ""
      }
    },
    {
      "type": "Feature",
      "geometry": {
        "type": "Point",
        "coordinates": [
          130.708133,
          32.792637
        ]
      },
      "properties": {
        "NO": 75986,
        "共通ID": "E4310000113111",
        "都道府県名及び市町村名": "熊本県熊本市",
        "施設・場所名": "本荘小学校",
        "住所": "熊本県熊本市中央区本荘6-5-47",
        "指定緊急避難場所との住所同一": "1",
        "その他市町村長が必要と認める事項": null,
        "受入対象者": null,
        "備考": ""
      }
    },
    {
      "type": "Feature",
      "geometry": {
        "type": "Point",
        "coordinates": [
          130.710128,
          32.813017
        ]
      },
      "properties": {
        "NO": 75987,
        "共通ID": "E4310000114111",
        "都道府県名及び市町村名": "熊本県熊本市",
        "施設・場所名": "壼川小学校",
        "住所": "熊本県熊本市中央区壼川1-4-5",
        "指定緊急避難場所との住所同一": "1",
        "その他市町村長が必要と認める事項": null,
        "受入対象者": null,
        "備考": ""
      }
    },
    {
      "type": "Feature",
      "geometry": {
        "type": "Point",
        "coordinates": [
          130.739992,
          32.767193
        ]
      },
      "properties": {
        "NO": 75988,
        "共通ID": "E4310000115111",
        "都道府県名及び市町村名": "熊本県熊本市",
        "施設・場所名": "画図小学校",
        "住所": "熊本県熊本市東区下江津8-1-6",
        "指定緊急避難場所との住所同一": "1",
        "その他市町村長が必要と認める事項": null,
        "受入対象者": null,
        "備考": ""
      }
    },
    {
      "type": "Feature",
      "geometry": {
        "type": "Point",
        "coordinates": [
          130.776701,
          32.781405
        ]
      },
      "properties": {
        "NO": 75989,
        "共通ID": "E4310000117111",
        "都道府県名及び市町村名": "熊本県熊本市",
        "施設・場所名": "桜木小学校",
        "住所": "熊本県熊本市東区花立2-23-1",
        "指定緊急避難場所との住所同一": "1",
        "その他市町村長が必要と認める事項": null,
        "受入対象者": null,
        "備考": ""
      }
    },
    {
      "type": "Feature",
      "geometry": {
        "type": "Point",
        "coordinates": [
          130.734477,
          32.764111
        ]
      },
      "properties": {
        "NO": 75990,
        "共通ID": "E4310000118111",
        "都道府県名及び市町村名": "熊本県熊本市",
        "施設・場所名": "環境総合センター",
        "住所": "熊本県熊本市東区画図町所島404-1",
        "指定緊急避難場所との住所同一": "1",
        "その他市町村長が必要と認める事項": null,
        "受入対象者": null,
        "備考": ""
      }
    },
    {
      "type": "Feature",
      "geometry": {
        "type": "Point",
        "coordinates": [
          130.753724,
          32.788455
        ]
      },
      "properties": {
        "NO": 75991,
        "共通ID": "E4310000120112",
        "都道府県名及び市町村名": "熊本県熊本市",
        "施設・場所名": "東部公民館",
        "住所": "熊本県熊本市東区錦ケ丘1-1",
        "指定緊急避難場所との住所同一": "",
        "その他市町村長が必要と認める事項": "",
        "受入対象者": "",
        "備考": ""
      }
    },
    {
      "type": "Feature",
      "geometry": {
        "type": "Point",
        "coordinates": [
          130.757078,
          32.79085
        ]
      },
      "properties": {
        "NO": 75992,
        "共通ID": "E4310000121111",
        "都道府県名及び市町村名": "熊本県熊本市",
        "施設・場所名": "錦ケ丘中学校",
        "住所": "熊本県熊本市東区錦ケ丘22-1",
        "指定緊急避難場所との住所同一": "1",
        "その他市町村長が必要と認める事項": null,
        "受入対象者": null,
        "備考": ""
      }
    },
    {
      "type": "Feature",
      "geometry": {
        "type": "Point",
        "coordinates": [
          130.770825,
          32.805075
        ]
      },
      "properties": {
        "NO": 75993,
        "共通ID": "E4310000124111",
        "都道府県名及び市町村名": "熊本県熊本市",
        "施設・場所名": "月出小学校",
        "住所": "熊本県熊本市東区月出6-2-40",
        "指定緊急避難場所との住所同一": "1",
        "その他市町村長が必要と認める事項": null,
        "受入対象者": null,
        "備考": ""
      }
    },
    {
      "type": "Feature",
      "geometry": {
        "type": "Point",
        "coordinates": [
          130.752403,
          32.784179
        ]
      },
      "properties": {
        "NO": 75994,
        "共通ID": "E4310000126111",
        "都道府県名及び市町村名": "熊本県熊本市",
        "施設・場所名": "健軍小学校",
        "住所": "熊本県熊本市東区健軍2-25-56",
        "指定緊急避難場所との住所同一": "1",
        "その他市町村長が必要と認める事項": null,
        "受入対象者": null,
        "備考": ""
      }
    },
    {
      "type": "Feature",
      "geometry": {
        "type": "Point",
        "coordinates": [
          130.793929,
          32.824541
        ]
      },
      "properties": {
        "NO": 75995,
        "共通ID": "E4310000128111",
        "都道府県名及び市町村名": "熊本県熊本市",
        "施設・場所名": "託麻東小学校",
        "住所": "熊本県熊本市東区戸島3-15-1",
        "指定緊急避難場所との住所同一": "1",
        "その他市町村長が必要と認める事項": null,
        "受入対象者": null,
        "備考": ""
      }
    },
    {
      "type": "Feature",
      "geometry": {
        "type": "Point",
        "coordinates": [
          130.792208,
          32.824024
        ]
      },
      "properties": {
        "NO": 75996,
        "共通ID": "E4310000129111",
        "都道府県名及び市町村名": "熊本県熊本市",
        "施設・場所名": "二岡中学校",
        "住所": "熊本県熊本市東区戸島3-15-2",
        "指定緊急避難場所との住所同一": "1",
        "その他市町村長が必要と認める事項": null,
        "受入対象者": null,
        "備考": ""
      }
    },
    {
      "type": "Feature",
      "geometry": {
        "type": "Point",
        "coordinates": [
          130.748048,
          32.781329
        ]
      },
      "properties": {
        "NO": 75997,
        "共通ID": "E4310000132111",
        "都道府県名及び市町村名": "熊本県熊本市",
        "施設・場所名": "湖東中学校",
        "住所": "熊本県熊本市東区湖東1-13-1",
        "指定緊急避難場所との住所同一": "1",
        "その他市町村長が必要と認める事項": null,
        "受入対象者": null,
        "備考": ""
      }
    },
    {
      "type": "Feature",
      "geometry": {
        "type": "Point",
        "coordinates": [
          130.765997,
          32.821374
        ]
      },
      "properties": {
        "NO": 75998,
        "共通ID": "E4310000133111",
        "都道府県名及び市町村名": "熊本県熊本市",
        "施設・場所名": "託麻西小学校",
        "住所": "熊本県熊本市東区御領2-3-30",
        "指定緊急避難場所との住所同一": "1",
        "その他市町村長が必要と認める事項": null,
        "受入対象者": null,
        "備考": ""
      }
    },
    {
      "type": "Feature",
      "geometry": {
        "type": "Point",
        "coordinates": [
          130.782984,
          32.782509
        ]
      },
      "properties": {
        "NO": 75999,
        "共通ID": "E4310000135111",
        "都道府県名及び市町村名": "熊本県熊本市",
        "施設・場所名": "桜木中学校",
        "住所": "熊本県熊本市東区桜木4-13-23",
        "指定緊急避難場所との住所同一": "1",
        "その他市町村長が必要と認める事項": null,
        "受入対象者": null,
        "備考": ""
      }
    },
    {
      "type": "Feature",
      "geometry": {
        "type": "Point",
        "coordinates": [
          130.781765,
          32.788308
        ]
      },
      "properties": {
        "NO": 76000,
        "共通ID": "E4310000136111",
        "都道府県名及び市町村名": "熊本県熊本市",
        "施設・場所名": "桜木東小学校",
        "住所": "熊本県熊本市東区桜木6-10-1",
        "指定緊急避難場所との住所同一": "1",
        "その他市町村長が必要と認める事項": null,
        "受入対象者": null,
        "備考": ""
      }
    },
    {
      "type": "Feature",
      "geometry": {
        "type": "Point",
        "coordinates": [
          130.771003,
          32.798119
        ]
      },
      "properties": {
        "NO": 76001,
        "共通ID": "E4310000138111",
        "都道府県名及び市町村名": "熊本県熊本市",
        "施設・場所名": "山ノ内小学校",
        "住所": "熊本県熊本市東区山ノ内4-1-1",
        "指定緊急避難場所との住所同一": "1",
        "その他市町村長が必要と認める事項": null,
        "受入対象者": null,
        "備考": ""
      }
    },
    {
      "type": "Feature",
      "geometry": {
        "type": "Point",
        "coordinates": [
          130.762075,
          32.77519
        ]
      },
      "properties": {
        "NO": 76002,
        "共通ID": "E4310000139111",
        "都道府県名及び市町村名": "熊本県熊本市",
        "施設・場所名": "健軍文化ホール",
        "住所": "熊本県熊本市東区若葉3-5-11",
        "指定緊急避難場所との住所同一": "1",
        "その他市町村長が必要と認める事項": null,
        "受入対象者": null,
        "備考": ""
      }
    },
    {
      "type": "Feature",
      "geometry": {
        "type": "Point",
        "coordinates": [
          130.763405,
          32.772732
        ]
      },
      "properties": {
        "NO": 76003,
        "共通ID": "E4310000140111",
        "都道府県名及び市町村名": "熊本県熊本市",
        "施設・場所名": "若葉小学校",
        "住所": "熊本県熊本市東区若葉4-23-1",
        "指定緊急避難場所との住所同一": "1",
        "その他市町村長が必要と認める事項": null,
        "受入対象者": null,
        "備考": ""
      }
    },
    {
      "type": "Feature",
      "geometry": {
        "type": "Point",
        "coordinates": [
          130.773298,
          32.771161
        ]
      },
      "properties": {
        "NO": 76004,
        "共通ID": "E4310000141111",
        "都道府県名及び市町村名": "熊本県熊本市",
        "施設・場所名": "秋津まちづくりセンター・公民館",
        "住所": "熊本県熊本市東区秋津3-15-1",
        "指定緊急避難場所との住所同一": "1",
        "その他市町村長が必要と認める事項": null,
        "受入対象者": null,
        "備考": ""
      }
    },
    {
      "type": "Feature",
      "geometry": {
        "type": "Point",
        "coordinates": [
          130.771715,
          32.772485
        ]
      },
      "properties": {
        "NO": 76005,
        "共通ID": "E4310000143111",
        "都道府県名及び市町村名": "熊本県熊本市",
        "施設・場所名": "秋津小学校",
        "住所": "熊本県熊本市東区秋津3-9-20",
        "指定緊急避難場所との住所同一": "1",
        "その他市町村長が必要と認める事項": null,
        "受入対象者": null,
        "備考": ""
      }
    },
    {
      "type": "Feature",
      "geometry": {
        "type": "Point",
        "coordinates": [
          130.771003,
          32.833972
        ]
      },
      "properties": {
        "NO": 76006,
        "共通ID": "E4310000148111",
        "都道府県名及び市町村名": "熊本県熊本市",
        "施設・場所名": "東部中学校",
        "住所": "熊本県熊本市東区上南部2-21-1",
        "指定緊急避難場所との住所同一": "1",
        "その他市町村長が必要と認める事項": null,
        "受入対象者": null,
        "備考": ""
      }
    },
    {
      "type": "Feature",
      "geometry": {
        "type": "Point",
        "coordinates": [
          130.774227,
          32.837301
        ]
      },
      "properties": {
        "NO": 76007,
        "共通ID": "E4310000149111",
        "都道府県名及び市町村名": "熊本県熊本市",
        "施設・場所名": "託麻スポーツセンター",
        "住所": "熊本県熊本市東区上南部3-22-30",
        "指定緊急避難場所との住所同一": "1",
        "その他市町村長が必要と認める事項": null,
        "受入対象者": null,
        "備考": ""
      }
    },
    {
      "type": "Feature",
      "geometry": {
        "type": "Point",
        "coordinates": [
          130.77401,
          32.839182
        ]
      },
      "properties": {
        "NO": 76008,
        "共通ID": "E4310000150111",
        "都道府県名及び市町村名": "熊本県熊本市",
        "施設・場所名": "託麻北小学校",
        "住所": "熊本県熊本市東区上南部3-34-1",
        "指定緊急避難場所との住所同一": "1",
        "その他市町村長が必要と認める事項": null,
        "受入対象者": null,
        "備考": ""
      }
    },
    {
      "type": "Feature",
      "geometry": {
        "type": "Point",
        "coordinates": [
          130.747984,
          32.813052
        ]
      },
      "properties": {
        "NO": 76009,
        "共通ID": "E4310000151111",
        "都道府県名及び市町村名": "熊本県熊本市",
        "施設・場所名": "西原小学校",
        "住所": "熊本県熊本市東区新南部3-4-60",
        "指定緊急避難場所との住所同一": "1",
        "その他市町村長が必要と認める事項": null,
        "受入対象者": null,
        "備考": ""
      }
    },
    {
      "type": "Feature",
      "geometry": {
        "type": "Point",
        "coordinates": [
          130.753034,
          32.776778
        ]
      },
      "properties": {
        "NO": 76010,
        "共通ID": "E4310000152111",
        "都道府県名及び市町村名": "熊本県熊本市",
        "施設・場所名": "泉ヶ丘小学校",
        "住所": "熊本県熊本市東区水源1-7-1",
        "指定緊急避難場所との住所同一": "1",
        "その他市町村長が必要と認める事項": null,
        "受入対象者": null,
        "備考": ""
      }
    },
    {
      "type": "Feature",
      "geometry": {
        "type": "Point",
        "coordinates": [
          130.776542,
          32.817545
        ]
      },
      "properties": {
        "NO": 76011,
        "共通ID": "E4310000153111",
        "都道府県名及び市町村名": "熊本県熊本市",
        "施設・場所名": "託麻南小学校",
        "住所": "熊本県熊本市東区長嶺東3-2-20",
        "指定緊急避難場所との住所同一": "1",
        "その他市町村長が必要と認める事項": null,
        "受入対象者": null,
        "備考": ""
      }
    },
    {
      "type": "Feature",
      "geometry": {
        "type": "Point",
        "coordinates": [
          130.779154,
          32.827905
        ]
      },
      "properties": {
        "NO": 76012,
        "共通ID": "E4310000155111",
        "都道府県名及び市町村名": "熊本県熊本市",
        "施設・場所名": "託麻まちづくりセンター・公民館",
        "住所": "熊本県熊本市東区長嶺東7-11-15",
        "指定緊急避難場所との住所同一": "1",
        "その他市町村長が必要と認める事項": null,
        "受入対象者": null,
        "備考": ""
      }
    },
    {
      "type": "Feature",
      "geometry": {
        "type": "Point",
        "coordinates": [
          130.778442,
          32.81408
        ]
      },
      "properties": {
        "NO": 76013,
        "共通ID": "E4310000157111",
        "都道府県名及び市町村名": "熊本県熊本市",
        "施設・場所名": "長嶺中学校",
        "住所": "熊本県熊本市東区長嶺南7-21-40",
        "指定緊急避難場所との住所同一": "1",
        "その他市町村長が必要と認める事項": null,
        "受入対象者": null,
        "備考": ""
      }
    },
    {
      "type": "Feature",
      "geometry": {
        "type": "Point",
        "coordinates": [
          130.779632,
          32.812627
        ]
      },
      "properties": {
        "NO": 76014,
        "共通ID": "E4310000158111",
        "都道府県名及び市町村名": "熊本県熊本市",
        "施設・場所名": "長嶺小学校",
        "住所": "熊本県熊本市東区長嶺南7-22-1",
        "指定緊急避難場所との住所同一": "1",
        "その他市町村長が必要と認める事項": null,
        "受入対象者": null,
        "備考": ""
      }
    },
    {
      "type": "Feature",
      "geometry": {
        "type": "Point",
        "coordinates": [
          130.767843,
          32.786564
        ]
      },
      "properties": {
        "NO": 76015,
        "共通ID": "E4310000161111",
        "都道府県名及び市町村名": "熊本県熊本市",
        "施設・場所名": "東町小学校",
        "住所": "熊本県熊本市東区東町3-3-1",
        "指定緊急避難場所との住所同一": "1",
        "その他市町村長が必要と認める事項": null,
        "受入対象者": null,
        "備考": ""
      }
    },
    {
      "type": "Feature",
      "geometry": {
        "type": "Point",
        "coordinates": [
          130.76483,
          32.781434
        ]
      },
      "properties": {
        "NO": 76016,
        "共通ID": "E4310000162111",
        "都道府県名及び市町村名": "熊本県熊本市",
        "施設・場所名": "東町中学校",
        "住所": "熊本県熊本市東区東町4-15-1",
        "指定緊急避難場所との住所同一": "1",
        "その他市町村長が必要と認める事項": null,
        "受入対象者": null,
        "備考": ""
      }
    },
    {
      "type": "Feature",
      "geometry": {
        "type": "Point",
        "coordinates": [
          130.764276,
          32.783268
        ]
      },
      "properties": {
        "NO": 76017,
        "共通ID": "E4310000163111",
        "都道府県名及び市町村名": "熊本県熊本市",
        "施設・場所名": "健軍東小学校",
        "住所": "熊本県熊本市東区東町4-15-2",
        "指定緊急避難場所との住所同一": "1",
        "その他市町村長が必要と認める事項": null,
        "受入対象者": null,
        "備考": ""
      }
    },
    {
      "type": "Feature",
      "geometry": {
        "type": "Point",
        "coordinates": [
          130.767996,
          32.774973
        ]
      },
      "properties": {
        "NO": 76018,
        "共通ID": "E4310000166111",
        "都道府県名及び市町村名": "熊本県熊本市",
        "施設・場所名": "東野中学校",
        "住所": "熊本県熊本市東区東野3-6-50",
        "指定緊急避難場所との住所同一": "1",
        "その他市町村長が必要と認める事項": null,
        "受入対象者": null,
        "備考": ""
      }
    },
    {
      "type": "Feature",
      "geometry": {
        "type": "Point",
        "coordinates": [
          130.754073,
          32.793805
        ]
      },
      "properties": {
        "NO": 76019,
        "共通ID": "E4310000167111",
        "都道府県名及び市町村名": "熊本県熊本市",
        "施設・場所名": "尾ノ上小学校",
        "住所": "熊本県熊本市東区尾ノ上2-8-1",
        "指定緊急避難場所との住所同一": "1",
        "その他市町村長が必要と認める事項": null,
        "受入対象者": null,
        "備考": ""
      }
    },
    {
      "type": "Feature",
      "geometry": {
        "type": "Point",
        "coordinates": [
          130.75577,
          32.809566
        ]
      },
      "properties": {
        "NO": 76020,
        "共通ID": "E4310000168111",
        "都道府県名及び市町村名": "熊本県熊本市",
        "施設・場所名": "西原中学校",
        "住所": "熊本県熊本市東区保田窪4-9-1",
        "指定緊急避難場所との住所同一": "1",
        "その他市町村長が必要と認める事項": null,
        "受入対象者": null,
        "備考": ""
      }
    },
    {
      "type": "Feature",
      "geometry": {
        "type": "Point",
        "coordinates": [
          130.635933,
          32.732474
        ]
      },
      "properties": {
        "NO": 76021,
        "共通ID": "E4310000170111",
        "都道府県名及び市町村名": "熊本県熊本市",
        "施設・場所名": "天明体育館",
        "住所": "熊本県熊本市南区奥古閑町1877",
        "指定緊急避難場所との住所同一": "1",
        "その他市町村長が必要と認める事項": null,
        "受入対象者": null,
        "備考": ""
      }
    },
    {
      "type": "Feature",
      "geometry": {
        "type": "Point",
        "coordinates": [
          130.636721,
          32.732919
        ]
      },
      "properties": {
        "NO": 76022,
        "共通ID": "E4310000171111",
        "都道府県名及び市町村名": "熊本県熊本市",
        "施設・場所名": "天明まちづくりセンター・公民館",
        "住所": "熊本県熊本市南区奥古閑町2035",
        "指定緊急避難場所との住所同一": "1",
        "その他市町村長が必要と認める事項": null,
        "受入対象者": null,
        "備考": ""
      }
    },
    {
      "type": "Feature",
      "geometry": {
        "type": "Point",
        "coordinates": [
          130.636153,
          32.734407
        ]
      },
      "properties": {
        "NO": 76023,
        "共通ID": "E4310000172111",
        "都道府県名及び市町村名": "熊本県熊本市",
        "施設・場所名": "天明中学校",
        "住所": "熊本県熊本市南区奥古閑町2146-1",
        "指定緊急避難場所との住所同一": "1",
        "その他市町村長が必要と認める事項": null,
        "受入対象者": null,
        "備考": ""
      }
    },
    {
      "type": "Feature",
      "geometry": {
        "type": "Point",
        "coordinates": [
          130.62465,
          32.730577
        ]
      },
      "properties": {
        "NO": 76024,
        "共通ID": "E4310000173111",
        "都道府県名及び市町村名": "熊本県熊本市",
        "施設・場所名": "奥古閑小学校",
        "住所": "熊本県熊本市南区奥古閑町4072",
        "指定緊急避難場所との住所同一": "1",
        "その他市町村長が必要と認める事項": null,
        "受入対象者": null,
        "備考": ""
      }
    },
    {
      "type": "Feature",
      "geometry": {
        "type": "Point",
        "coordinates": [
          130.653539,
          32.75444
        ]
      },
      "properties": {
        "NO": 76025,
        "共通ID": "E4310000174111",
        "都道府県名及び市町村名": "熊本県熊本市",
        "施設・場所名": "飽田まちづくりセンター・公民館",
        "住所": "熊本県熊本市南区会富町1333-1",
        "指定緊急避難場所との住所同一": "1",
        "その他市町村長が必要と認める事項": null,
        "受入対象者": null,
        "備考": ""
      }
    },
    {
      "type": "Feature",
      "geometry": {
        "type": "Point",
        "coordinates": [
          130.681428,
          32.758665
        ]
      },
      "properties": {
        "NO": 76026,
        "共通ID": "E4310000176111",
        "都道府県名及び市町村名": "熊本県熊本市",
        "施設・場所名": "力合小学校",
        "住所": "熊本県熊本市南区刈草2-10-1",
        "指定緊急避難場所との住所同一": "1",
        "その他市町村長が必要と認める事項": null,
        "受入対象者": null,
        "備考": ""
      }
    },
    {
      "type": "Feature",
      "geometry": {
        "type": "Point",
        "coordinates": [
          130.689465,
          32.766734
        ]
      },
      "properties": {
        "NO": 76027,
        "共通ID": "E4310000177111",
        "都道府県名及び市町村名": "熊本県熊本市",
        "施設・場所名": "日吉小学校",
        "住所": "熊本県熊本市南区近見1-9-30",
        "指定緊急避難場所との住所同一": "1",
        "その他市町村長が必要と認める事項": null,
        "受入対象者": null,
        "備考": ""
      }
    },
    {
      "type": "Feature",
      "geometry": {
        "type": "Point",
        "coordinates": [
          130.697754,
          32.765077
        ]
      },
      "properties": {
        "NO": 76028,
        "共通ID": "E4310000178111",
        "都道府県名及び市町村名": "熊本県熊本市",
        "施設・場所名": "日吉東小学校",
        "住所": "熊本県熊本市南区近見5-1-1",
        "指定緊急避難場所との住所同一": "1",
        "その他市町村長が必要と認める事項": null,
        "受入対象者": null,
        "備考": ""
      }
    },
    {
      "type": "Feature",
      "geometry": {
        "type": "Point",
        "coordinates": [
          130.699259,
          32.764194
        ]
      },
      "properties": {
        "NO": 76029,
        "共通ID": "E4310000179111",
        "都道府県名及び市町村名": "熊本県熊本市",
        "施設・場所名": "日吉中学校",
        "住所": "熊本県熊本市南区近見5-5-1",
        "指定緊急避難場所との住所同一": "1",
        "その他市町村長が必要と認める事項": null,
        "受入対象者": null,
        "備考": ""
      }
    },
    {
      "type": "Feature",
      "geometry": {
        "type": "Point",
        "coordinates": [
          130.716055,
          32.754308
        ]
      },
      "properties": {
        "NO": 76030,
        "共通ID": "E4310000183111",
        "都道府県名及び市町村名": "熊本県熊本市",
        "施設・場所名": "御幸小学校",
        "住所": "熊本県熊本市南区御幸笛田7-16-1",
        "指定緊急避難場所との住所同一": "1",
        "その他市町村長が必要と認める事項": null,
        "受入対象者": null,
        "備考": ""
      }
    },
    {
      "type": "Feature",
      "geometry": {
        "type": "Point",
        "coordinates": [
          130.663054,
          32.75008
        ]
      },
      "properties": {
        "NO": 76031,
        "共通ID": "E4310000185111",
        "都道府県名及び市町村名": "熊本県熊本市",
        "施設・場所名": "飽田南小学校",
        "住所": "熊本県熊本市南区護藤町999",
        "指定緊急避難場所との住所同一": "1",
        "その他市町村長が必要と認める事項": null,
        "受入対象者": null,
        "備考": ""
      }
    },
    {
      "type": "Feature",
      "geometry": {
        "type": "Point",
        "coordinates": [
          130.712253,
          32.766682
        ]
      },
      "properties": {
        "NO": 76032,
        "共通ID": "E4310000186111",
        "都道府県名及び市町村名": "熊本県熊本市",
        "施設・場所名": "幸田まちづくりセンター・公民館",
        "住所": "熊本県熊本市南区幸田2-4-1",
        "指定緊急避難場所との住所同一": "1",
        "その他市町村長が必要と認める事項": null,
        "受入対象者": null,
        "備考": ""
      }
    },
    {
      "type": "Feature",
      "geometry": {
        "type": "Point",
        "coordinates": [
          130.67152,
          32.763349
        ]
      },
      "properties": {
        "NO": 76033,
        "共通ID": "E4310000187111",
        "都道府県名及び市町村名": "熊本県熊本市",
        "施設・場所名": "力合西小学校",
        "住所": "熊本県熊本市南区荒尾1-11-1",
        "指定緊急避難場所との住所同一": "1",
        "その他市町村長が必要と認める事項": null,
        "受入対象者": null,
        "備考": ""
      }
    },
    {
      "type": "Feature",
      "geometry": {
        "type": "Point",
        "coordinates": [
          130.667863,
          32.763295
        ]
      },
      "properties": {
        "NO": 76034,
        "共通ID": "E4310000188111",
        "都道府県名及び市町村名": "熊本県熊本市",
        "施設・場所名": "アクアドームくまもと",
        "住所": "熊本県熊本市南区荒尾2-1-1",
        "指定緊急避難場所との住所同一": "1",
        "その他市町村長が必要と認める事項": null,
        "受入対象者": null,
        "備考": ""
      }
    },
    {
      "type": "Feature",
      "geometry": {
        "type": "Point",
        "coordinates": [
          130.662154,
          32.763369
        ]
      },
      "properties": {
        "NO": 76035,
        "共通ID": "E4310000190111",
        "都道府県名及び市町村名": "熊本県熊本市",
        "施設・場所名": "飽田東小学校",
        "住所": "熊本県熊本市南区砂原町115",
        "指定緊急避難場所との住所同一": "1",
        "その他市町村長が必要と認める事項": null,
        "受入対象者": null,
        "備考": ""
      }
    },
    {
      "type": "Feature",
      "geometry": {
        "type": "Point",
        "coordinates": [
          130.715791,
          32.772271
        ]
      },
      "properties": {
        "NO": 76036,
        "共通ID": "E4310000192111",
        "都道府県名及び市町村名": "熊本県熊本市",
        "施設・場所名": "託麻中学校",
        "住所": "熊本県熊本市南区出仲間6-4-1",
        "指定緊急避難場所との住所同一": "1",
        "その他市町村長が必要と認める事項": null,
        "受入対象者": null,
        "備考": ""
      }
    },
    {
      "type": "Feature",
      "geometry": {
        "type": "Point",
        "coordinates": [
          130.720313,
          32.767956
        ]
      },
      "properties": {
        "NO": 76037,
        "共通ID": "E4310000193111",
        "都道府県名及び市町村名": "熊本県熊本市",
        "施設・場所名": "田迎小学校",
        "住所": "熊本県熊本市南区出仲間8-3-30",
        "指定緊急避難場所との住所同一": "1",
        "その他市町村長が必要と認める事項": null,
        "受入対象者": null,
        "備考": ""
      }
    },
    {
      "type": "Feature",
      "geometry": {
        "type": "Point",
        "coordinates": [
          130.727294,
          32.724549
        ]
      },
      "properties": {
        "NO": 76038,
        "共通ID": "E4310000194111",
        "都道府県名及び市町村名": "熊本県熊本市",
        "施設・場所名": "杉上小学校",
        "住所": "熊本県熊本市南区城南町永505-1",
        "指定緊急避難場所との住所同一": "1",
        "その他市町村長が必要と認める事項": null,
        "受入対象者": null,
        "備考": ""
      }
    },
    {
      "type": "Feature",
      "geometry": {
        "type": "Point",
        "coordinates": [
          130.729282,
          32.71029
        ]
      },
      "properties": {
        "NO": 76039,
        "共通ID": "E4310000195111",
        "都道府県名及び市町村名": "熊本県熊本市",
        "施設・場所名": "下益城城南中学校",
        "住所": "熊本県熊本市南区城南町宮地1020-1",
        "指定緊急避難場所との住所同一": "1",
        "その他市町村長が必要と認める事項": null,
        "受入対象者": null,
        "備考": ""
      }
    },
    {
      "type": "Feature",
      "geometry": {
        "type": "Point",
        "coordinates": [
          130.728886,
          32.708973
        ]
      },
      "properties": {
        "NO": 76040,
        "共通ID": "E4310000196111",
        "都道府県名及び市町村名": "熊本県熊本市",
        "施設・場所名": "城南老人福祉センター",
        "住所": "熊本県熊本市南区城南町宮地1050",
        "指定緊急避難場所との住所同一": "1",
        "その他市町村長が必要と認める事項": null,
        "受入対象者": null,
        "備考": ""
      }
    },
    {
      "type": "Feature",
      "geometry": {
        "type": "Point",
        "coordinates": [
          130.726723,
          32.708173
        ]
      },
      "properties": {
        "NO": 76041,
        "共通ID": "E4310000197111",
        "都道府県名及び市町村名": "熊本県熊本市",
        "施設・場所名": "隈庄小学校",
        "住所": "熊本県熊本市南区城南町隈庄270",
        "指定緊急避難場所との住所同一": "1",
        "その他市町村長が必要と認める事項": null,
        "受入対象者": null,
        "備考": ""
      }
    },
    {
      "type": "Feature",
      "geometry": {
        "type": "Point",
        "coordinates": [
          130.74537,
          32.690114
        ]
      },
      "properties": {
        "NO": 76042,
        "共通ID": "E4310000200111",
        "都道府県名及び市町村名": "熊本県熊本市",
        "施設・場所名": "豊田小学校",
        "住所": "熊本県熊本市南区城南町塚原259",
        "指定緊急避難場所との住所同一": "1",
        "その他市町村長が必要と認める事項": null,
        "受入対象者": null,
        "備考": ""
      }
    },
    {
      "type": "Feature",
      "geometry": {
        "type": "Point",
        "coordinates": [
          130.748188,
          32.70785
        ]
      },
      "properties": {
        "NO": 76043,
        "共通ID": "E4310000202111",
        "都道府県名及び市町村名": "熊本県熊本市",
        "施設・場所名": "城南総合スポーツセンター",
        "住所": "熊本県熊本市南区城南町舞原144-1",
        "指定緊急避難場所との住所同一": "1",
        "その他市町村長が必要と認める事項": null,
        "受入対象者": null,
        "備考": ""
      }
    },
    {
      "type": "Feature",
      "geometry": {
        "type": "Point",
        "coordinates": [
          130.740024,
          32.707404
        ]
      },
      "properties": {
        "NO": 76044,
        "共通ID": "E4310000203111",
        "都道府県名及び市町村名": "熊本県熊本市",
        "施設・場所名": "火の君文化センター",
        "住所": "熊本県熊本市南区城南町舞原394-1",
        "指定緊急避難場所との住所同一": "1",
        "その他市町村長が必要と認める事項": null,
        "受入対象者": null,
        "備考": ""
      }
    },
    {
      "type": "Feature",
      "geometry": {
        "type": "Point",
        "coordinates": [
          130.627347,
          32.717522
        ]
      },
      "properties": {
        "NO": 76045,
        "共通ID": "E4310000204111",
        "都道府県名及び市町村名": "熊本県熊本市",
        "施設・場所名": "川口小学校",
        "住所": "熊本県熊本市南区川口町3045",
        "指定緊急避難場所との住所同一": "1",
        "その他市町村長が必要と認める事項": null,
        "受入対象者": null,
        "備考": ""
      }
    },
    {
      "type": "Feature",
      "geometry": {
        "type": "Point",
        "coordinates": [
          130.681744,
          32.739586
        ]
      },
      "properties": {
        "NO": 76046,
        "共通ID": "E4310000205111",
        "都道府県名及び市町村名": "熊本県熊本市",
        "施設・場所名": "川尻小学校",
        "住所": "熊本県熊本市南区川尻4-1-1",
        "指定緊急避難場所との住所同一": "1",
        "その他市町村長が必要と認める事項": null,
        "受入対象者": null,
        "備考": ""
      }
    },
    {
      "type": "Feature",
      "geometry": {
        "type": "Point",
        "coordinates": [
          130.645822,
          32.741673
        ]
      },
      "properties": {
        "NO": 76047,
        "共通ID": "E4310000206111",
        "都道府県名及び市町村名": "熊本県熊本市",
        "施設・場所名": "銭塘小学校",
        "住所": "熊本県熊本市南区銭塘町990",
        "指定緊急避難場所との住所同一": "1",
        "その他市町村長が必要と認める事項": null,
        "受入対象者": null,
        "備考": ""
      }
    },
    {
      "type": "Feature",
      "geometry": {
        "type": "Point",
        "coordinates": [
          130.653522,
          32.760083
        ]
      },
      "properties": {
        "NO": 76048,
        "共通ID": "E4310000207111",
        "都道府県名及び市町村名": "熊本県熊本市",
        "施設・場所名": "飽田中学校",
        "住所": "熊本県熊本市南区孫代町72",
        "指定緊急避難場所との住所同一": "1",
        "その他市町村長が必要と認める事項": null,
        "受入対象者": null,
        "備考": ""
      }
    },
    {
      "type": "Feature",
      "geometry": {
        "type": "Point",
        "coordinates": [
          130.724035,
          32.762991
        ]
      },
      "properties": {
        "NO": 76049,
        "共通ID": "E4310000208111",
        "都道府県名及び市町村名": "熊本県熊本市",
        "施設・場所名": "田迎南小学校",
        "住所": "熊本県熊本市南区田井島3-12-1",
        "指定緊急避難場所との住所同一": "1",
        "その他市町村長が必要と認める事項": null,
        "受入対象者": null,
        "備考": ""
      }
    },
    {
      "type": "Feature",
      "geometry": {
        "type": "Point",
        "coordinates": [
          130.677426,
          32.76218
        ]
      },
      "properties": {
        "NO": 76050,
        "共通ID": "E4310000209111",
        "都道府県名及び市町村名": "熊本県熊本市",
        "施設・場所名": "力合中学校",
        "住所": "熊本県熊本市南区島町5-8-1",
        "指定緊急避難場所との住所同一": "1",
        "その他市町村長が必要と認める事項": null,
        "受入対象者": null,
        "備考": ""
      }
    },
    {
      "type": "Feature",
      "geometry": {
        "type": "Point",
        "coordinates": [
          130.691177,
          32.751467
        ]
      },
      "properties": {
        "NO": 76051,
        "共通ID": "E4310000210111",
        "都道府県名及び市町村名": "熊本県熊本市",
        "施設・場所名": "城南小学校",
        "住所": "熊本県熊本市南区南高江4-2-70",
        "指定緊急避難場所との住所同一": "1",
        "その他市町村長が必要と認める事項": null,
        "受入対象者": null,
        "備考": ""
      }
    },
    {
      "type": "Feature",
      "geometry": {
        "type": "Point",
        "coordinates": [
          130.686263,
          32.748239
        ]
      },
      "properties": {
        "NO": 76052,
        "共通ID": "E4310000211111",
        "都道府県名及び市町村名": "熊本県熊本市",
        "施設・場所名": "南部まちづくりセンター・公民館",
        "住所": "熊本県熊本市南区南高江6-7-35",
        "指定緊急避難場所との住所同一": "1",
        "その他市町村長が必要と認める事項": null,
        "受入対象者": null,
        "備考": ""
      }
    },
    {
      "type": "Feature",
      "geometry": {
        "type": "Point",
        "coordinates": [
          130.705439,
          32.774204
        ]
      },
      "properties": {
        "NO": 76053,
        "共通ID": "E4310000213111",
        "都道府県名及び市町村名": "熊本県熊本市",
        "施設・場所名": "田迎西小学校",
        "住所": "熊本県熊本市南区馬渡2-5-1",
        "指定緊急避難場所との住所同一": "1",
        "その他市町村長が必要と認める事項": null,
        "受入対象者": null,
        "備考": ""
      }
    },
    {
      "type": "Feature",
      "geometry": {
        "type": "Point",
        "coordinates": [
          130.673652,
          32.755067
        ]
      },
      "properties": {
        "NO": 76054,
        "共通ID": "E4310000215111",
        "都道府県名及び市町村名": "熊本県熊本市",
        "施設・場所名": "南部総合スポーツセンター",
        "住所": "熊本県熊本市南区白藤5-2-1",
        "指定緊急避難場所との住所同一": "1",
        "その他市町村長が必要と認める事項": null,
        "受入対象者": null,
        "備考": ""
      }
    },
    {
      "type": "Feature",
      "geometry": {
        "type": "Point",
        "coordinates": [
          130.686871,
          32.7438
        ]
      },
      "properties": {
        "NO": 76055,
        "共通ID": "E4310000216111",
        "都道府県名及び市町村名": "熊本県熊本市",
        "施設・場所名": "城南中学校",
        "住所": "熊本県熊本市南区八幡8-1-1",
        "指定緊急避難場所との住所同一": "1",
        "その他市町村長が必要と認める事項": null,
        "受入対象者": null,
        "備考": ""
      }
    },
    {
      "type": "Feature",
      "geometry": {
        "type": "Point",
        "coordinates": [
          130.660381,
          32.731069
        ]
      },
      "properties": {
        "NO": 76056,
        "共通ID": "E4310000217111",
        "都道府県名及び市町村名": "熊本県熊本市",
        "施設・場所名": "中緑小学校",
        "住所": "熊本県熊本市南区美登里町800",
        "指定緊急避難場所との住所同一": "1",
        "その他市町村長が必要と認める事項": null,
        "受入対象者": null,
        "備考": ""
      }
    },
    {
      "type": "Feature",
      "geometry": {
        "type": "Point",
        "coordinates": [
          130.678073,
          32.716065
        ]
      },
      "properties": {
        "NO": 76057,
        "共通ID": "E4310000219111",
        "都道府県名及び市町村名": "熊本県熊本市",
        "施設・場所名": "アスパル富合（富合公民館）",
        "住所": "熊本県熊本市南区富合町清藤400",
        "指定緊急避難場所との住所同一": "1",
        "その他市町村長が必要と認める事項": null,
        "受入対象者": null,
        "備考": ""
      }
    },
    {
      "type": "Feature",
      "geometry": {
        "type": "Point",
        "coordinates": [
          130.678187,
          32.715342
        ]
      },
      "properties": {
        "NO": 76058,
        "共通ID": "E4310000220111",
        "都道府県名及び市町村名": "熊本県熊本市",
        "施設・場所名": "雁回館",
        "住所": "熊本県熊本市南区富合町清藤405-1",
        "指定緊急避難場所との住所同一": "1",
        "その他市町村長が必要と認める事項": null,
        "受入対象者": null,
        "備考": ""
      }
    },
    {
      "type": "Feature",
      "geometry": {
        "type": "Point",
        "coordinates": [
          130.680967,
          32.714091
        ]
      },
      "properties": {
        "NO": 76059,
        "共通ID": "E4310000221111",
        "都道府県名及び市町村名": "熊本県熊本市",
        "施設・場所名": "富合小学校",
        "住所": "熊本県熊本市南区富合町清藤472",
        "指定緊急避難場所との住所同一": "1",
        "その他市町村長が必要と認める事項": null,
        "受入対象者": null,
        "備考": ""
      }
    },
    {
      "type": "Feature",
      "geometry": {
        "type": "Point",
        "coordinates": [
          130.684102,
          32.707161
        ]
      },
      "properties": {
        "NO": 76060,
        "共通ID": "E4310000222111",
        "都道府県名及び市町村名": "熊本県熊本市",
        "施設・場所名": "富合中学校",
        "住所": "熊本県熊本市南区富合町平原56",
        "指定緊急避難場所との住所同一": "1",
        "その他市町村長が必要と認める事項": null,
        "受入対象者": null,
        "備考": ""
      }
    },
    {
      "type": "Feature",
      "geometry": {
        "type": "Point",
        "coordinates": [
          130.633948,
          32.754662
        ]
      },
      "properties": {
        "NO": 76061,
        "共通ID": "E4310000224111",
        "都道府県名及び市町村名": "熊本県熊本市",
        "施設・場所名": "飽田西小学校",
        "住所": "熊本県熊本市南区並建町1005",
        "指定緊急避難場所との住所同一": "1",
        "その他市町村長が必要と認める事項": null,
        "受入対象者": null,
        "備考": ""
      }
    },
    {
      "type": "Feature",
      "geometry": {
        "type": "Point",
        "coordinates": [
          130.728213,
          32.758796
        ]
      },
      "properties": {
        "NO": 76062,
        "共通ID": "E4310000227111",
        "都道府県名及び市町村名": "熊本県熊本市",
        "施設・場所名": "浜線健康パーク（田迎公園運動施設）",
        "住所": "熊本県熊本市南区良町4-8-1",
        "指定緊急避難場所との住所同一": "1",
        "その他市町村長が必要と認める事項": null,
        "受入対象者": null,
        "備考": ""
      }
    },
    {
      "type": "Feature",
      "geometry": {
        "type": "Point",
        "coordinates": [
          130.702587,
          32.853621
        ]
      },
      "properties": {
        "NO": 76063,
        "共通ID": "E4310000228111",
        "都道府県名及び市町村名": "熊本県熊本市",
        "施設・場所名": "西里小学校",
        "住所": "熊本県熊本市北区下硯川町1784",
        "指定緊急避難場所との住所同一": "1",
        "その他市町村長が必要と認める事項": null,
        "受入対象者": null,
        "備考": ""
      }
    },
    {
      "type": "Feature",
      "geometry": {
        "type": "Point",
        "coordinates": [
          130.780751,
          32.853093
        ]
      },
      "properties": {
        "NO": 76064,
        "共通ID": "E4310000230111",
        "都道府県名及び市町村名": "熊本県熊本市",
        "施設・場所名": "弓削小学校",
        "住所": "熊本県熊本市北区弓削3-20-1",
        "指定緊急避難場所との住所同一": "1",
        "その他市町村長が必要と認める事項": null,
        "受入対象者": null,
        "備考": ""
      }
    },
    {
      "type": "Feature",
      "geometry": {
        "type": "Point",
        "coordinates": [
          130.695971,
          32.848313
        ]
      },
      "properties": {
        "NO": 76065,
        "共通ID": "E4310000231111",
        "都道府県名及び市町村名": "熊本県熊本市",
        "施設・場所名": "熊本市食品交流会館",
        "住所": "熊本県熊本市北区貢町581-2",
        "指定緊急避難場所との住所同一": "1",
        "その他市町村長が必要と認める事項": null,
        "受入対象者": null,
        "備考": ""
      }
    },
    {
      "type": "Feature",
      "geometry": {
        "type": "Point",
        "coordinates": [
          130.713302,
          32.834114
        ]
      },
      "properties": {
        "NO": 76066,
        "共通ID": "E4310000233111",
        "都道府県名及び市町村名": "熊本県熊本市",
        "施設・場所名": "高平台小学校",
        "住所": "熊本県熊本市北区高平1-17-28",
        "指定緊急避難場所との住所同一": "1",
        "その他市町村長が必要と認める事項": null,
        "受入対象者": null,
        "備考": ""
      }
    },
    {
      "type": "Feature",
      "geometry": {
        "type": "Point",
        "coordinates": [
          130.702977,
          32.867834
        ]
      },
      "properties": {
        "NO": 76067,
        "共通ID": "E4310000234111",
        "都道府県名及び市町村名": "熊本県熊本市",
        "施設・場所名": "北部中学校",
        "住所": "熊本県熊本市北区鹿子木町1",
        "指定緊急避難場所との住所同一": "1",
        "その他市町村長が必要と認める事項": null,
        "受入対象者": null,
        "備考": ""
      }
    },
    {
      "type": "Feature",
      "geometry": {
        "type": "Point",
        "coordinates": [
          130.703005,
          32.869936
        ]
      },
      "properties": {
        "NO": 76068,
        "共通ID": "E4310000235111",
        "都道府県名及び市町村名": "熊本県熊本市",
        "施設・場所名": "北部まちづくりセンター・公民館",
        "住所": "熊本県熊本市北区鹿子木町66",
        "指定緊急避難場所との住所同一": "1",
        "その他市町村長が必要と認める事項": null,
        "受入対象者": null,
        "備考": ""
      }
    },
    {
      "type": "Feature",
      "geometry": {
        "type": "Point",
        "coordinates": [
          130.690622,
          32.905268
        ]
      },
      "properties": {
        "NO": 76069,
        "共通ID": "E4310000236111",
        "都道府県名及び市町村名": "熊本県熊本市",
        "施設・場所名": "五霊中学校",
        "住所": "熊本県熊本市北区植木町一木163",
        "指定緊急避難場所との住所同一": "1",
        "その他市町村長が必要と認める事項": null,
        "受入対象者": null,
        "備考": ""
      }
    },
    {
      "type": "Feature",
      "geometry": {
        "type": "Point",
        "coordinates": [
          130.659983,
          32.883109
        ]
      },
      "properties": {
        "NO": 76070,
        "共通ID": "E4310000237111",
        "都道府県名及び市町村名": "熊本県熊本市",
        "施設・場所名": "菱形小学校",
        "住所": "熊本県熊本市北区植木町円台寺124",
        "指定緊急避難場所との住所同一": "1",
        "その他市町村長が必要と認める事項": null,
        "受入対象者": null,
        "備考": ""
      }
    },
    {
      "type": "Feature",
      "geometry": {
        "type": "Point",
        "coordinates": [
          130.695545,
          32.903881
        ]
      },
      "properties": {
        "NO": 76071,
        "共通ID": "E4310000239111",
        "都道府県名及び市町村名": "熊本県熊本市",
        "施設・場所名": "植木文化センター",
        "住所": "熊本県熊本市北区植木町岩野238-1",
        "指定緊急避難場所との住所同一": "1",
        "その他市町村長が必要と認める事項": null,
        "受入対象者": null,
        "備考": ""
      }
    },
    {
      "type": "Feature",
      "geometry": {
        "type": "Point",
        "coordinates": [
          130.69985,
          32.902734
        ]
      },
      "properties": {
        "NO": 76072,
        "共通ID": "E4310000241111",
        "都道府県名及び市町村名": "熊本県熊本市",
        "施設・場所名": "植木中央公園運動施設",
        "住所": "熊本県熊本市北区植木町岩野285-35",
        "指定緊急避難場所との住所同一": "1",
        "その他市町村長が必要と認める事項": "",
        "受入対象者": "",
        "備考": ""
      }
    },
    {
      "type": "Feature",
      "geometry": {
        "type": "Point",
        "coordinates": [
          130.693554,
          32.896477
        ]
      },
      "properties": {
        "NO": 76073,
        "共通ID": "E4310000243111",
        "都道府県名及び市町村名": "熊本県熊本市",
        "施設・場所名": "植木小学校",
        "住所": "熊本県熊本市北区植木町広住1",
        "指定緊急避難場所との住所同一": "1",
        "その他市町村長が必要と認める事項": null,
        "受入対象者": null,
        "備考": ""
      }
    },
    {
      "type": "Feature",
      "geometry": {
        "type": "Point",
        "coordinates": [
          130.717646,
          32.944999
        ]
      },
      "properties": {
        "NO": 76074,
        "共通ID": "E4310000245111",
        "都道府県名及び市町村名": "熊本県熊本市",
        "施設・場所名": "植木北中学校",
        "住所": "熊本県熊本市北区植木町舟島455-1",
        "指定緊急避難場所との住所同一": "1",
        "その他市町村長が必要と認める事項": null,
        "受入対象者": null,
        "備考": ""
      }
    },
    {
      "type": "Feature",
      "geometry": {
        "type": "Point",
        "coordinates": [
          130.716955,
          32.962701
        ]
      },
      "properties": {
        "NO": 76075,
        "共通ID": "E4310000246111",
        "都道府県名及び市町村名": "熊本県熊本市",
        "施設・場所名": "田底小学校",
        "住所": "熊本県熊本市北区植木町正清515",
        "指定緊急避難場所との住所同一": "1",
        "その他市町村長が必要と認める事項": null,
        "受入対象者": null,
        "備考": ""
      }
    },
    {
      "type": "Feature",
      "geometry": {
        "type": "Point",
        "coordinates": [
          130.672335,
          32.880621
        ]
      },
      "properties": {
        "NO": 76076,
        "共通ID": "E4310000303111",
        "都道府県名及び市町村名": "熊本県熊本市",
        "施設・場所名": "大和地域コミュニティセンター",
        "住所": "熊本県熊本市北区植木町大和70-22",
        "指定緊急避難場所との住所同一": "1",
        "その他市町村長が必要と認める事項": "",
        "受入対象者": "",
        "備考": ""
      }
    },
    {
      "type": "Feature",
      "geometry": {
        "type": "Point",
        "coordinates": [
          130.674532,
          32.896659
        ]
      },
      "properties": {
        "NO": 76077,
        "共通ID": "E4310000247111",
        "都道府県名及び市町村名": "熊本県熊本市",
        "施設・場所名": "鹿南中学校",
        "住所": "熊本県熊本市北区植木町滴水1110",
        "指定緊急避難場所との住所同一": "1",
        "その他市町村長が必要と認める事項": null,
        "受入対象者": null,
        "備考": ""
      }
    },
    {
      "type": "Feature",
      "geometry": {
        "type": "Point",
        "coordinates": [
          130.684282,
          32.888723
        ]
      },
      "properties": {
        "NO": 76078,
        "共通ID": "E4310000248111",
        "都道府県名及び市町村名": "熊本県熊本市",
        "施設・場所名": "桜井小学校",
        "住所": "熊本県熊本市北区植木町滴水2255",
        "指定緊急避難場所との住所同一": "1",
        "その他市町村長が必要と認める事項": null,
        "受入対象者": null,
        "備考": ""
      }
    },
    {
      "type": "Feature",
      "geometry": {
        "type": "Point",
        "coordinates": [
          130.681721,
          32.937435
        ]
      },
      "properties": {
        "NO": 76079,
        "共通ID": "E4310000250111",
        "都道府県名及び市町村名": "熊本県熊本市",
        "施設・場所名": "山本小学校",
        "住所": "熊本県熊本市北区植木町内1424",
        "指定緊急避難場所との住所同一": "1",
        "その他市町村長が必要と認める事項": null,
        "受入対象者": null,
        "備考": ""
      }
    },
    {
      "type": "Feature",
      "geometry": {
        "type": "Point",
        "coordinates": [
          130.664769,
          32.91052
        ]
      },
      "properties": {
        "NO": 76080,
        "共通ID": "E4310000251111",
        "都道府県名及び市町村名": "熊本県熊本市",
        "施設・場所名": "田原小学校",
        "住所": "熊本県熊本市北区植木町富応1302-5",
        "指定緊急避難場所との住所同一": "1",
        "その他市町村長が必要と認める事項": null,
        "受入対象者": null,
        "備考": ""
      }
    },
    {
      "type": "Feature",
      "geometry": {
        "type": "Point",
        "coordinates": [
          130.70948,
          32.941058
        ]
      },
      "properties": {
        "NO": 76081,
        "共通ID": "E4310000253111",
        "都道府県名及び市町村名": "熊本県熊本市",
        "施設・場所名": "吉松小学校",
        "住所": "熊本県熊本市北区植木町豊田474",
        "指定緊急避難場所との住所同一": "1",
        "その他市町村長が必要と認める事項": null,
        "受入対象者": null,
        "備考": ""
      }
    },
    {
      "type": "Feature",
      "geometry": {
        "type": "Point",
        "coordinates": [
          130.707767,
          32.912771
        ]
      },
      "properties": {
        "NO": 76082,
        "共通ID": "E4310000254111",
        "都道府県名及び市町村名": "熊本県熊本市",
        "施設・場所名": "山東小学校",
        "住所": "熊本県熊本市北区植木町有泉841",
        "指定緊急避難場所との住所同一": "1",
        "その他市町村長が必要と認める事項": null,
        "受入対象者": null,
        "備考": ""
      }
    },
    {
      "type": "Feature",
      "geometry": {
        "type": "Point",
        "coordinates": [
          130.721639,
          32.841336
        ]
      },
      "properties": {
        "NO": 76083,
        "共通ID": "E4310000255111",
        "都道府県名及び市町村名": "熊本県熊本市",
        "施設・場所名": "清水まちづくりセンター・公民館",
        "住所": "熊本県熊本市北区清水亀井町14-7",
        "指定緊急避難場所との住所同一": "1",
        "その他市町村長が必要と認める事項": null,
        "受入対象者": null,
        "備考": ""
      }
    },
    {
      "type": "Feature",
      "geometry": {
        "type": "Point",
        "coordinates": [
          130.730549,
          32.849235
        ]
      },
      "properties": {
        "NO": 76084,
        "共通ID": "E4310000256111",
        "都道府県名及び市町村名": "熊本県熊本市",
        "施設・場所名": "城北小学校",
        "住所": "熊本県熊本市北区清水新地1-4-1",
        "指定緊急避難場所との住所同一": "1",
        "その他市町村長が必要と認める事項": null,
        "受入対象者": null,
        "備考": ""
      }
    },
    {
      "type": "Feature",
      "geometry": {
        "type": "Point",
        "coordinates": [
          130.733967,
          32.849718
        ]
      },
      "properties": {
        "NO": 76085,
        "共通ID": "E4310000257111",
        "都道府県名及び市町村名": "熊本県熊本市",
        "施設・場所名": "清水中学校",
        "住所": "熊本県熊本市北区清水新地2-3-1",
        "指定緊急避難場所との住所同一": "1",
        "その他市町村長が必要と認める事項": null,
        "受入対象者": null,
        "備考": ""
      }
    },
    {
      "type": "Feature",
      "geometry": {
        "type": "Point",
        "coordinates": [
          130.724312,
          32.83281
        ]
      },
      "properties": {
        "NO": 76086,
        "共通ID": "E4310000260111",
        "都道府県名及び市町村名": "熊本県熊本市",
        "施設・場所名": "清水小学校",
        "住所": "熊本県熊本市北区清水本町14-58",
        "指定緊急避難場所との住所同一": "1",
        "その他市町村長が必要と認める事項": null,
        "受入対象者": null,
        "備考": ""
      }
    },
    {
      "type": "Feature",
      "geometry": {
        "type": "Point",
        "coordinates": [
          130.728767,
          32.829574
        ]
      },
      "properties": {
        "NO": 76087,
        "共通ID": "E4310000261111",
        "都道府県名及び市町村名": "熊本県熊本市",
        "施設・場所名": "清水スポーツセンター",
        "住所": "熊本県熊本市北区清水万石2-3-73",
        "指定緊急避難場所との住所同一": "1",
        "その他市町村長が必要と認める事項": null,
        "受入対象者": null,
        "備考": ""
      }
    },
    {
      "type": "Feature",
      "geometry": {
        "type": "Point",
        "coordinates": [
          130.704649,
          32.870162
        ]
      },
      "properties": {
        "NO": 76088,
        "共通ID": "E4310000262111",
        "都道府県名及び市町村名": "熊本県熊本市",
        "施設・場所名": "川上小学校",
        "住所": "熊本県熊本市北区西梶尾町480",
        "指定緊急避難場所との住所同一": "1",
        "その他市町村長が必要と認める事項": null,
        "受入対象者": null,
        "備考": ""
      }
    },
    {
      "type": "Feature",
      "geometry": {
        "type": "Point",
        "coordinates": [
          130.72459,
          32.861901
        ]
      },
      "properties": {
        "NO": 76089,
        "共通ID": "E4310000263111",
        "都道府県名及び市町村名": "熊本県熊本市",
        "施設・場所名": "勤労青少年ホーム",
        "住所": "熊本県熊本市北区鶴羽田2-13-10",
        "指定緊急避難場所との住所同一": "1",
        "その他市町村長が必要と認める事項": null,
        "受入対象者": null,
        "備考": ""
      }
    },
    {
      "type": "Feature",
      "geometry": {
        "type": "Point",
        "coordinates": [
          130.72358,
          32.860232
        ]
      },
      "properties": {
        "NO": 76090,
        "共通ID": "E4310000264111",
        "都道府県名及び市町村名": "熊本県熊本市",
        "施設・場所名": "北部東小学校",
        "住所": "熊本県熊本市北区鶴羽田2-7-1",
        "指定緊急避難場所との住所同一": "1",
        "その他市町村長が必要と認める事項": null,
        "受入対象者": null,
        "備考": ""
      }
    },
    {
      "type": "Feature",
      "geometry": {
        "type": "Point",
        "coordinates": [
          130.755617,
          32.848246
        ]
      },
      "properties": {
        "NO": 76091,
        "共通ID": "E4310000267111",
        "都道府県名及び市町村名": "熊本県熊本市",
        "施設・場所名": "楠中学校",
        "住所": "熊本県熊本市北区楠3-2-1",
        "指定緊急避難場所との住所同一": "1",
        "その他市町村長が必要と認める事項": null,
        "受入対象者": null,
        "備考": ""
      }
    },
    {
      "type": "Feature",
      "geometry": {
        "type": "Point",
        "coordinates": [
          130.758427,
          32.851333
        ]
      },
      "properties": {
        "NO": 76092,
        "共通ID": "E4310000269111",
        "都道府県名及び市町村名": "熊本県熊本市",
        "施設・場所名": "楠小学校",
        "住所": "熊本県熊本市北区楠5-15-1",
        "指定緊急避難場所との住所同一": "1",
        "その他市町村長が必要と認める事項": null,
        "受入対象者": null,
        "備考": ""
      }
    },
    {
      "type": "Feature",
      "geometry": {
        "type": "Point",
        "coordinates": [
          130.767996,
          32.854032
        ]
      },
      "properties": {
        "NO": 76093,
        "共通ID": "E4310000271111",
        "都道府県名及び市町村名": "熊本県熊本市",
        "施設・場所名": "武蔵小学校",
        "住所": "熊本県熊本市北区武蔵ケ丘3-15-1",
        "指定緊急避難場所との住所同一": "1",
        "その他市町村長が必要と認める事項": null,
        "受入対象者": null,
        "備考": ""
      }
    },
    {
      "type": "Feature",
      "geometry": {
        "type": "Point",
        "coordinates": [
          130.772639,
          32.8561
        ]
      },
      "properties": {
        "NO": 76094,
        "共通ID": "E4310000273111",
        "都道府県名及び市町村名": "熊本県熊本市",
        "施設・場所名": "武蔵中学校",
        "住所": "熊本県熊本市北区武蔵ケ丘4-19-1",
        "指定緊急避難場所との住所同一": "1",
        "その他市町村長が必要と認める事項": null,
        "受入対象者": null,
        "備考": ""
      }
    },
    {
      "type": "Feature",
      "geometry": {
        "type": "Point",
        "coordinates": [
          130.744486,
          32.852321
        ]
      },
      "properties": {
        "NO": 76095,
        "共通ID": "E4310000274111",
        "都道府県名及び市町村名": "熊本県熊本市",
        "施設・場所名": "麻生田小学校",
        "住所": "熊本県熊本市北区麻生田3-9-1",
        "指定緊急避難場所との住所同一": "1",
        "その他市町村長が必要と認める事項": null,
        "受入対象者": null,
        "備考": ""
      }
    },
    {
      "type": "Feature",
      "geometry": {
        "type": "Point",
        "coordinates": [
          130.760556,
          32.837635
        ]
      },
      "properties": {
        "NO": 76096,
        "共通ID": "E4310000276111",
        "都道府県名及び市町村名": "熊本県熊本市",
        "施設・場所名": "龍田小学校",
        "住所": "熊本県熊本市北区龍田7-7-1",
        "指定緊急避難場所との住所同一": "1",
        "その他市町村長が必要と認める事項": null,
        "受入対象者": null,
        "備考": ""
      }
    },
    {
      "type": "Feature",
      "geometry": {
        "type": "Point",
        "coordinates": [
          130.761389,
          32.836342
        ]
      },
      "properties": {
        "NO": 76097,
        "共通ID": "E4310000277111",
        "都道府県名及び市町村名": "熊本県熊本市",
        "施設・場所名": "龍田中学校",
        "住所": "熊本県熊本市北区龍田7-8-1",
        "指定緊急避難場所との住所同一": "1",
        "その他市町村長が必要と認める事項": null,
        "受入対象者": null,
        "備考": ""
      }
    },
    {
      "type": "Feature",
      "geometry": {
        "type": "Point",
        "coordinates": [
          130.764501,
          32.844501
        ]
      },
      "properties": {
        "NO": 76098,
        "共通ID": "E4310000278112",
        "都道府県名及び市町村名": "熊本県熊本市",
        "施設・場所名": "武蔵塚武道場",
        "住所": "熊本県熊本市北区龍田弓削1-1-10",
        "指定緊急避難場所との住所同一": "1",
        "その他市町村長が必要と認める事項": null,
        "受入対象者": null,
        "備考": ""
      }
    },
    {
      "type": "Feature",
      "geometry": {
        "type": "Point",
        "coordinates": [
          130.764407,
          32.844132
        ]
      },
      "properties": {
        "NO": 76099,
        "共通ID": "E4310000278113",
        "都道府県名及び市町村名": "熊本県熊本市",
        "施設・場所名": "龍田まちづくりセンター・公民館",
        "住所": "熊本県熊本市北区龍田弓削1-1-10",
        "指定緊急避難場所との住所同一": "1",
        "その他市町村長が必要と認める事項": null,
        "受入対象者": null,
        "備考": ""
      }
    },
    {
      "type": "Feature",
      "geometry": {
        "type": "Point",
        "coordinates": [
          130.764173,
          32.84377
        ]
      },
      "properties": {
        "NO": 76100,
        "共通ID": "E4310000278111",
        "都道府県名及び市町村名": "熊本県熊本市",
        "施設・場所名": "龍田体育館",
        "住所": "熊本県熊本市北区龍田弓削1-1-10",
        "指定緊急避難場所との住所同一": "1",
        "その他市町村長が必要と認める事項": null,
        "受入対象者": null,
        "備考": ""
      }
    },
    {
      "type": "Feature",
      "geometry": {
        "type": "Point",
        "coordinates": [
          130.744852,
          32.828684
        ]
      },
      "properties": {
        "NO": 76101,
        "共通ID": "E4310000280111",
        "都道府県名及び市町村名": "熊本県熊本市",
        "施設・場所名": "龍田西小学校",
        "住所": "熊本県熊本市北区龍田陳内2-17-1",
        "指定緊急避難場所との住所同一": "1",
        "その他市町村長が必要と認める事項": null,
        "受入対象者": null,
        "備考": ""
      }
    },
    {
      "type": "Feature",
      "geometry": {
        "type": "Point",
        "coordinates": [
          130.75355,
          32.848279
        ]
      },
      "properties": {
        "NO": 76102,
        "共通ID": "E4310000281111",
        "都道府県名及び市町村名": "熊本県熊本市",
        "施設・場所名": "楡木小学校",
        "住所": "熊本県熊本市北区楡木3-9-1",
        "指定緊急避難場所との住所同一": "1",
        "その他市町村長が必要と認める事項": null,
        "受入対象者": null,
        "備考": ""
      }
    }
  ]
}