{
  "type": "FeatureCollection",
  "name": "432024",
  "features": [
    {
      "type": "Feature",
      "geometry": {
        "type": "Point",
        "coordinates": [
          130.59472,
          32.518797
        ]
      },
      "properties": {
        "NO": 76103,
        "共通ID": "E4320200004111",
        "都道府県名及び市町村名": "熊本県八代市",
        "施設・場所名": "八代市立松高小学校",
        "住所": "熊本県八代市永碇町828-1",
        "指定緊急避難場所との住所同一": "1",
        "その他市町村長が必要と認める事項": "",
        "受入対象者": "",
        "備考": ""
      }
    },
    {
      "type": "Feature",
      "geometry": {
        "type": "Point",
        "coordinates": [
          130.618191,
          32.561648
        ]
      },
      "properties": {
        "NO": 76104,
        "共通ID": "E4320200006121",
        "都道府県名及び市町村名": "熊本県八代市",
        "施設・場所名": "介護老人保健施設　かがみ苑",
        "住所": "熊本県八代市塩浜町11-235",
        "指定緊急避難場所との住所同一": "",
        "その他市町村長が必要と認める事項": null,
        "受入対象者": "要配慮者",
        "備考": ""
      }
    },
    {
      "type": "Feature",
      "geometry": {
        "type": "Point",
        "coordinates": [
          130.663814,
          32.530021
        ]
      },
      "properties": {
        "NO": 76105,
        "共通ID": "E4320200007111",
        "都道府県名及び市町村名": "熊本県八代市",
        "施設・場所名": "八代市立龍峯小学校",
        "住所": "熊本県八代市岡町谷川1043",
        "指定緊急避難場所との住所同一": "1",
        "その他市町村長が必要と認める事項": "",
        "受入対象者": "",
        "備考": ""
      }
    },
    {
      "type": "Feature",
      "geometry": {
        "type": "Point",
        "coordinates": [
          130.621898,
          32.523653
        ]
      },
      "properties": {
        "NO": 76106,
        "共通ID": "E4320200008121",
        "都道府県名及び市町村名": "熊本県八代市",
        "施設・場所名": "地域密着型特別養護老人ホーム八代草",
        "住所": "熊本県八代市海士江町2833-1",
        "指定緊急避難場所との住所同一": "",
        "その他市町村長が必要と認める事項": null,
        "受入対象者": "要配慮者",
        "備考": ""
      }
    },
    {
      "type": "Feature",
      "geometry": {
        "type": "Point",
        "coordinates": [
          130.640595,
          32.501334
        ]
      },
      "properties": {
        "NO": 76107,
        "共通ID": "E4320200009111",
        "都道府県名及び市町村名": "熊本県八代市",
        "施設・場所名": "八代市立宮地小学校",
        "住所": "熊本県八代市宮地町1826",
        "指定緊急避難場所との住所同一": "1",
        "その他市町村長が必要と認める事項": "",
        "受入対象者": "",
        "備考": ""
      }
    },
    {
      "type": "Feature",
      "geometry": {
        "type": "Point",
        "coordinates": [
          130.659194,
          32.527607
        ]
      },
      "properties": {
        "NO": 76108,
        "共通ID": "E4320200014121",
        "都道府県名及び市町村名": "熊本県八代市",
        "施設・場所名": "地域密着型介護老人福祉施設　希望",
        "住所": "熊本県八代市興善寺町495-1",
        "指定緊急避難場所との住所同一": "",
        "その他市町村長が必要と認める事項": null,
        "受入対象者": "要配慮者",
        "備考": ""
      }
    },
    {
      "type": "Feature",
      "geometry": {
        "type": "Point",
        "coordinates": [
          130.662071,
          32.567894
        ]
      },
      "properties": {
        "NO": 76109,
        "共通ID": "E4320200016111",
        "都道府県名及び市町村名": "熊本県八代市",
        "施設・場所名": "八代市立鏡小学校",
        "住所": "熊本県八代市鏡町鏡村609-1",
        "指定緊急避難場所との住所同一": "1",
        "その他市町村長が必要と認める事項": "",
        "受入対象者": "",
        "備考": ""
      }
    },
    {
      "type": "Feature",
      "geometry": {
        "type": "Point",
        "coordinates": [
          130.665637,
          32.553253
        ]
      },
      "properties": {
        "NO": 76110,
        "共通ID": "E4320200018111",
        "都道府県名及び市町村名": "熊本県八代市",
        "施設・場所名": "八代市立有佐小学校",
        "住所": "熊本県八代市鏡町中島1360-1",
        "指定緊急避難場所との住所同一": "1",
        "その他市町村長が必要と認める事項": "",
        "受入対象者": "",
        "備考": ""
      }
    },
    {
      "type": "Feature",
      "geometry": {
        "type": "Point",
        "coordinates": [
          130.645953,
          32.560861
        ]
      },
      "properties": {
        "NO": 76111,
        "共通ID": "E4320200019111",
        "都道府県名及び市町村名": "熊本県八代市",
        "施設・場所名": "八代市立鏡中学校",
        "住所": "熊本県八代市鏡町内田1038-1",
        "指定緊急避難場所との住所同一": "1",
        "その他市町村長が必要と認める事項": "",
        "受入対象者": "",
        "備考": ""
      }
    },
    {
      "type": "Feature",
      "geometry": {
        "type": "Point",
        "coordinates": [
          130.633153,
          32.560591
        ]
      },
      "properties": {
        "NO": 76112,
        "共通ID": "E4320200021111",
        "都道府県名及び市町村名": "熊本県八代市",
        "施設・場所名": "八代市立文政小学校",
        "住所": "熊本県八代市鏡町両出1371-1",
        "指定緊急避難場所との住所同一": "1",
        "その他市町村長が必要と認める事項": "",
        "受入対象者": "",
        "備考": ""
      }
    },
    {
      "type": "Feature",
      "geometry": {
        "type": "Point",
        "coordinates": [
          130.635628,
          32.548563
        ]
      },
      "properties": {
        "NO": 76113,
        "共通ID": "E4320200023121",
        "都道府県名及び市町村名": "熊本県八代市",
        "施設・場所名": "特別養護老人ホーム安寿の里",
        "住所": "熊本県八代市鏡町両出880-1",
        "指定緊急避難場所との住所同一": "",
        "その他市町村長が必要と認める事項": null,
        "受入対象者": "要配慮者",
        "備考": ""
      }
    },
    {
      "type": "Feature",
      "geometry": {
        "type": "Point",
        "coordinates": [
          130.564681,
          32.515263
        ]
      },
      "properties": {
        "NO": 76114,
        "共通ID": "E4320200024121",
        "都道府県名及び市町村名": "熊本県八代市",
        "施設・場所名": "介護老人保健施設　とまと",
        "住所": "熊本県八代市郡築一番町180-1",
        "指定緊急避難場所との住所同一": "",
        "その他市町村長が必要と認める事項": null,
        "受入対象者": "要配慮者",
        "備考": ""
      }
    },
    {
      "type": "Feature",
      "geometry": {
        "type": "Point",
        "coordinates": [
          130.575983,
          32.5376
        ]
      },
      "properties": {
        "NO": 76115,
        "共通ID": "E4320200025111",
        "都道府県名及び市町村名": "熊本県八代市",
        "施設・場所名": "八代市立第七中学校",
        "住所": "熊本県八代市郡築七番町41-2",
        "指定緊急避難場所との住所同一": "1",
        "その他市町村長が必要と認める事項": "",
        "受入対象者": "",
        "備考": ""
      }
    },
    {
      "type": "Feature",
      "geometry": {
        "type": "Point",
        "coordinates": [
          130.574171,
          32.534195
        ]
      },
      "properties": {
        "NO": 76116,
        "共通ID": "E4320200026111",
        "都道府県名及び市町村名": "熊本県八代市",
        "施設・場所名": "八代市立郡築小学校",
        "住所": "熊本県八代市郡築六番町49-1",
        "指定緊急避難場所との住所同一": "1",
        "その他市町村長が必要と認める事項": "",
        "受入対象者": "",
        "備考": ""
      }
    },
    {
      "type": "Feature",
      "geometry": {
        "type": "Point",
        "coordinates": [
          130.601384,
          32.498578
        ]
      },
      "properties": {
        "NO": 76117,
        "共通ID": "E4320200028111",
        "都道府県名及び市町村名": "熊本県八代市",
        "施設・場所名": "八代市立麦島小学校",
        "住所": "熊本県八代市迎町1-16-1-1",
        "指定緊急避難場所との住所同一": "1",
        "その他市町村長が必要と認める事項": "",
        "受入対象者": "",
        "備考": ""
      }
    },
    {
      "type": "Feature",
      "geometry": {
        "type": "Point",
        "coordinates": [
          130.612428,
          32.519094
        ]
      },
      "properties": {
        "NO": 76118,
        "共通ID": "E4320200030111",
        "都道府県名及び市町村名": "熊本県八代市",
        "施設・場所名": "八代市立第四中学校",
        "住所": "熊本県八代市古閑上町182-2",
        "指定緊急避難場所との住所同一": "1",
        "その他市町村長が必要と認める事項": "",
        "受入対象者": "",
        "備考": ""
      }
    },
    {
      "type": "Feature",
      "geometry": {
        "type": "Point",
        "coordinates": [
          130.599774,
          32.537506
        ]
      },
      "properties": {
        "NO": 76119,
        "共通ID": "E4320200032121",
        "都道府県名及び市町村名": "熊本県八代市",
        "施設・場所名": "介護老人保健施設　アメニティゆうりん",
        "住所": "熊本県八代市古閑浜町3401",
        "指定緊急避難場所との住所同一": "",
        "その他市町村長が必要と認める事項": null,
        "受入対象者": "要配慮者",
        "備考": ""
      }
    },
    {
      "type": "Feature",
      "geometry": {
        "type": "Point",
        "coordinates": [
          130.597359,
          32.499862
        ]
      },
      "properties": {
        "NO": 76120,
        "共通ID": "E4320200123121",
        "都道府県名及び市町村名": "熊本県八代市",
        "施設・場所名": "キャッスル麦島",
        "住所": "熊本県八代市古城町1938-1",
        "指定緊急避難場所との住所同一": "",
        "その他市町村長が必要と認める事項": "",
        "受入対象者": "要配慮者",
        "備考": ""
      }
    },
    {
      "type": "Feature",
      "geometry": {
        "type": "Point",
        "coordinates": [
          130.592619,
          32.497425
        ]
      },
      "properties": {
        "NO": 76121,
        "共通ID": "E4320200033111",
        "都道府県名及び市町村名": "熊本県八代市",
        "施設・場所名": "麦島コミュニティセンター",
        "住所": "熊本県八代市古城町2259",
        "指定緊急避難場所との住所同一": "1",
        "その他市町村長が必要と認める事項": "",
        "受入対象者": "",
        "備考": ""
      }
    },
    {
      "type": "Feature",
      "geometry": {
        "type": "Point",
        "coordinates": [
          130.608113,
          32.487533
        ]
      },
      "properties": {
        "NO": 76122,
        "共通ID": "E4320200036111",
        "都道府県名及び市町村名": "熊本県八代市",
        "施設・場所名": "八代市保健センター",
        "住所": "熊本県八代市高下西町1726-5",
        "指定緊急避難場所との住所同一": "1",
        "その他市町村長が必要と認める事項": "",
        "受入対象者": "",
        "備考": ""
      }
    },
    {
      "type": "Feature",
      "geometry": {
        "type": "Point",
        "coordinates": [
          130.608542,
          32.486996
        ]
      },
      "properties": {
        "NO": 76123,
        "共通ID": "E4320200037121",
        "都道府県名及び市町村名": "熊本県八代市",
        "施設・場所名": "ふくしステーション　千の穂",
        "住所": "熊本県八代市高下西町1760",
        "指定緊急避難場所との住所同一": "",
        "その他市町村長が必要と認める事項": null,
        "受入対象者": "要配慮者",
        "備考": ""
      }
    },
    {
      "type": "Feature",
      "geometry": {
        "type": "Point",
        "coordinates": [
          130.583085,
          32.523619
        ]
      },
      "properties": {
        "NO": 76124,
        "共通ID": "E4320200041121",
        "都道府県名及び市町村名": "熊本県八代市",
        "施設・場所名": "特別養護老人ホームみやび園",
        "住所": "熊本県八代市高島町4221",
        "指定緊急避難場所との住所同一": "",
        "その他市町村長が必要と認める事項": null,
        "受入対象者": "要配慮者",
        "備考": ""
      }
    },
    {
      "type": "Feature",
      "geometry": {
        "type": "Point",
        "coordinates": [
          130.65242,
          32.433667
        ]
      },
      "properties": {
        "NO": 76125,
        "共通ID": "E4320200044111",
        "都道府県名及び市町村名": "熊本県八代市",
        "施設・場所名": "八代市立坂本中学校",
        "住所": "熊本県八代市坂本町荒瀬6000",
        "指定緊急避難場所との住所同一": "1",
        "その他市町村長が必要と認める事項": "",
        "受入対象者": "",
        "備考": ""
      }
    },
    {
      "type": "Feature",
      "geometry": {
        "type": "Point",
        "coordinates": [
          130.669416,
          32.441074
        ]
      },
      "properties": {
        "NO": 76126,
        "共通ID": "E4320200046121",
        "都道府県名及び市町村名": "熊本県八代市",
        "施設・場所名": "特別養護老人ホーム坂本の里一灯苑",
        "住所": "熊本県八代市坂本町坂本1071",
        "指定緊急避難場所との住所同一": "",
        "その他市町村長が必要と認める事項": null,
        "受入対象者": "要配慮者",
        "備考": ""
      }
    },
    {
      "type": "Feature",
      "geometry": {
        "type": "Point",
        "coordinates": [
          130.574572,
          32.487146
        ]
      },
      "properties": {
        "NO": 76127,
        "共通ID": "E4320200053111",
        "都道府県名及び市町村名": "熊本県八代市",
        "施設・場所名": "八代市立金剛小弥次分校",
        "住所": "熊本県八代市三江湖町1472-1",
        "指定緊急避難場所との住所同一": "1",
        "その他市町村長が必要と認める事項": "",
        "受入対象者": "",
        "備考": ""
      }
    },
    {
      "type": "Feature",
      "geometry": {
        "type": "Point",
        "coordinates": [
          130.603616,
          32.559676
        ]
      },
      "properties": {
        "NO": 76128,
        "共通ID": "E4320200054111",
        "都道府県名及び市町村名": "熊本県八代市",
        "施設・場所名": "昭和コミュニティセンター",
        "住所": "熊本県八代市昭和明徴町730-1",
        "指定緊急避難場所との住所同一": "1",
        "その他市町村長が必要と認める事項": "",
        "受入対象者": "",
        "備考": ""
      }
    },
    {
      "type": "Feature",
      "geometry": {
        "type": "Point",
        "coordinates": [
          130.603601,
          32.560851
        ]
      },
      "properties": {
        "NO": 76129,
        "共通ID": "E4320200055111",
        "都道府県名及び市町村名": "熊本県八代市",
        "施設・場所名": "八代市立昭和小学校",
        "住所": "熊本県八代市昭和明徴町731-2",
        "指定緊急避難場所との住所同一": "1",
        "その他市町村長が必要と認める事項": "",
        "受入対象者": "",
        "備考": ""
      }
    },
    {
      "type": "Feature",
      "geometry": {
        "type": "Point",
        "coordinates": [
          130.624493,
          32.51131
        ]
      },
      "properties": {
        "NO": 76130,
        "共通ID": "E4320200056111",
        "都道府県名及び市町村名": "熊本県八代市",
        "施設・場所名": "八代市立第二中学校",
        "住所": "熊本県八代市上日置町2248-1",
        "指定緊急避難場所との住所同一": "1",
        "その他市町村長が必要と認める事項": "",
        "受入対象者": "",
        "備考": ""
      }
    },
    {
      "type": "Feature",
      "geometry": {
        "type": "Point",
        "coordinates": [
          130.62794,
          32.50934
        ]
      },
      "properties": {
        "NO": 76131,
        "共通ID": "E4320200057121",
        "都道府県名及び市町村名": "熊本県八代市",
        "施設・場所名": "特別養護老人ホームあさひ園",
        "住所": "熊本県八代市上日置町2345",
        "指定緊急避難場所との住所同一": "",
        "その他市町村長が必要と認める事項": null,
        "受入対象者": "要配慮者",
        "備考": ""
      }
    },
    {
      "type": "Feature",
      "geometry": {
        "type": "Point",
        "coordinates": [
          130.614026,
          32.517323
        ]
      },
      "properties": {
        "NO": 76132,
        "共通ID": "E4320200058111",
        "都道府県名及び市町村名": "熊本県八代市",
        "施設・場所名": "八代市立八千把小学校",
        "住所": "熊本県八代市上野町1131",
        "指定緊急避難場所との住所同一": "1",
        "その他市町村長が必要と認める事項": "",
        "受入対象者": "",
        "備考": ""
      }
    },
    {
      "type": "Feature",
      "geometry": {
        "type": "Point",
        "coordinates": [
          130.614194,
          32.518417
        ]
      },
      "properties": {
        "NO": 76133,
        "共通ID": "E4320200059111",
        "都道府県名及び市町村名": "熊本県八代市",
        "施設・場所名": "八千把コミュニティセンター",
        "住所": "熊本県八代市上野町1193-1",
        "指定緊急避難場所との住所同一": "1",
        "その他市町村長が必要と認める事項": "",
        "受入対象者": "",
        "備考": ""
      }
    },
    {
      "type": "Feature",
      "geometry": {
        "type": "Point",
        "coordinates": [
          130.603194,
          32.492154
        ]
      },
      "properties": {
        "NO": 76134,
        "共通ID": "E4320200061111",
        "都道府県名及び市町村名": "熊本県八代市",
        "施設・場所名": "八代市立植柳小学校",
        "住所": "熊本県八代市植柳上町449",
        "指定緊急避難場所との住所同一": "1",
        "その他市町村長が必要と認める事項": "",
        "受入対象者": "",
        "備考": ""
      }
    },
    {
      "type": "Feature",
      "geometry": {
        "type": "Point",
        "coordinates": [
          130.591663,
          32.509315
        ]
      },
      "properties": {
        "NO": 76135,
        "共通ID": "E4320200063111",
        "都道府県名及び市町村名": "熊本県八代市",
        "施設・場所名": "八代市立八代小学校",
        "住所": "熊本県八代市新地町4-1",
        "指定緊急避難場所との住所同一": "1",
        "その他市町村長が必要と認める事項": "",
        "受入対象者": "",
        "備考": ""
      }
    },
    {
      "type": "Feature",
      "geometry": {
        "type": "Point",
        "coordinates": [
          130.63515,
          32.498669
        ]
      },
      "properties": {
        "NO": 76136,
        "共通ID": "E4320200124111",
        "都道府県名及び市町村名": "熊本県八代市",
        "施設・場所名": "八代市立第八中学校",
        "住所": "熊本県八代市西宮町611-1",
        "指定緊急避難場所との住所同一": "",
        "その他市町村長が必要と認める事項": "",
        "受入対象者": "",
        "備考": ""
      }
    },
    {
      "type": "Feature",
      "geometry": {
        "type": "Point",
        "coordinates": [
          130.630798,
          32.53707
        ]
      },
      "properties": {
        "NO": 76137,
        "共通ID": "E4320200070111",
        "都道府県名及び市町村名": "熊本県八代市",
        "施設・場所名": "八代市立千丁中学校",
        "住所": "熊本県八代市千丁町古閑出2493-1",
        "指定緊急避難場所との住所同一": "1",
        "その他市町村長が必要と認める事項": "",
        "受入対象者": "",
        "備考": ""
      }
    },
    {
      "type": "Feature",
      "geometry": {
        "type": "Point",
        "coordinates": [
          130.635025,
          32.536472
        ]
      },
      "properties": {
        "NO": 76138,
        "共通ID": "E4320200071111",
        "都道府県名及び市町村名": "熊本県八代市",
        "施設・場所名": "八代市立千丁小学校",
        "住所": "熊本県八代市千丁町新牟田1345",
        "指定緊急避難場所との住所同一": "1",
        "その他市町村長が必要と認める事項": "",
        "受入対象者": "",
        "備考": ""
      }
    },
    {
      "type": "Feature",
      "geometry": {
        "type": "Point",
        "coordinates": [
          130.630074,
          32.536089
        ]
      },
      "properties": {
        "NO": 76139,
        "共通ID": "E4320200073111",
        "都道府県名及び市町村名": "熊本県八代市",
        "施設・場所名": "千丁体育館",
        "住所": "熊本県八代市千丁町新牟田1869-1",
        "指定緊急避難場所との住所同一": "1",
        "その他市町村長が必要と認める事項": "",
        "受入対象者": "",
        "備考": ""
      }
    },
    {
      "type": "Feature",
      "geometry": {
        "type": "Point",
        "coordinates": [
          130.647797,
          32.541756
        ]
      },
      "properties": {
        "NO": 76140,
        "共通ID": "E4320200074121",
        "都道府県名及び市町村名": "熊本県八代市",
        "施設・場所名": "特別養護老人ホーム　康和苑",
        "住所": "熊本県八代市千丁町太牟田1300-8",
        "指定緊急避難場所との住所同一": "",
        "その他市町村長が必要と認める事項": null,
        "受入対象者": "要配慮者",
        "備考": ""
      }
    },
    {
      "type": "Feature",
      "geometry": {
        "type": "Point",
        "coordinates": [
          130.791197,
          32.575944
        ]
      },
      "properties": {
        "NO": 76141,
        "共通ID": "E4320200076121",
        "都道府県名及び市町村名": "熊本県八代市",
        "施設・場所名": "八代市泉憩いの家",
        "住所": "熊本県八代市泉町下岳2974",
        "指定緊急避難場所との住所同一": "1",
        "その他市町村長が必要と認める事項": null,
        "受入対象者": "要配慮者",
        "備考": ""
      }
    },
    {
      "type": "Feature",
      "geometry": {
        "type": "Point",
        "coordinates": [
          130.787058,
          32.568111
        ]
      },
      "properties": {
        "NO": 76142,
        "共通ID": "E4320200077121",
        "都道府県名及び市町村名": "熊本県八代市",
        "施設・場所名": "小規模多機能型居宅介護紗綾",
        "住所": "熊本県八代市泉町下岳4350",
        "指定緊急避難場所との住所同一": "",
        "その他市町村長が必要と認める事項": null,
        "受入対象者": "要配慮者",
        "備考": ""
      }
    },
    {
      "type": "Feature",
      "geometry": {
        "type": "Point",
        "coordinates": [
          130.808106,
          32.545799
        ]
      },
      "properties": {
        "NO": 76143,
        "共通ID": "E4320200081111",
        "都道府県名及び市町村名": "熊本県八代市",
        "施設・場所名": "泉コミュニティセンター",
        "住所": "熊本県八代市泉町栗木5866",
        "指定緊急避難場所との住所同一": "1",
        "その他市町村長が必要と認める事項": "",
        "受入対象者": "",
        "備考": ""
      }
    },
    {
      "type": "Feature",
      "geometry": {
        "type": "Point",
        "coordinates": [
          130.902933,
          32.489882
        ]
      },
      "properties": {
        "NO": 76144,
        "共通ID": "E4320200083121",
        "都道府県名及び市町村名": "熊本県八代市",
        "施設・場所名": "八代五家荘デイサービスセンター福寿草",
        "住所": "熊本県八代市泉町椎原1-1",
        "指定緊急避難場所との住所同一": "1",
        "その他市町村長が必要と認める事項": "",
        "受入対象者": "要配慮者",
        "備考": ""
      }
    },
    {
      "type": "Feature",
      "geometry": {
        "type": "Point",
        "coordinates": [
          130.591845,
          32.473483
        ]
      },
      "properties": {
        "NO": 76145,
        "共通ID": "E4320200087121",
        "都道府県名及び市町村名": "熊本県八代市",
        "施設・場所名": "介護老人保健施設　向春苑",
        "住所": "熊本県八代市大福寺町2411-1",
        "指定緊急避難場所との住所同一": "",
        "その他市町村長が必要と認める事項": null,
        "受入対象者": "要配慮者",
        "備考": ""
      }
    },
    {
      "type": "Feature",
      "geometry": {
        "type": "Point",
        "coordinates": [
          130.584461,
          32.496479
        ]
      },
      "properties": {
        "NO": 76146,
        "共通ID": "E4320200090111",
        "都道府県名及び市町村名": "熊本県八代市",
        "施設・場所名": "八代市立第三中学校",
        "住所": "熊本県八代市中北町3378-5",
        "指定緊急避難場所との住所同一": "1",
        "その他市町村長が必要と認める事項": "",
        "受入対象者": "",
        "備考": ""
      }
    },
    {
      "type": "Feature",
      "geometry": {
        "type": "Point",
        "coordinates": [
          130.711343,
          32.543944
        ]
      },
      "properties": {
        "NO": 76147,
        "共通ID": "E4320200095111",
        "都道府県名及び市町村名": "熊本県八代市",
        "施設・場所名": "東陽コミュニティセンター及び東陽スポーツセンター",
        "住所": "熊本県八代市東陽町南1285",
        "指定緊急避難場所との住所同一": "1",
        "その他市町村長が必要と認める事項": "",
        "受入対象者": "",
        "備考": ""
      }
    },
    {
      "type": "Feature",
      "geometry": {
        "type": "Point",
        "coordinates": [
          130.710681,
          32.548174
        ]
      },
      "properties": {
        "NO": 76148,
        "共通ID": "E4320200097121",
        "都道府県名及び市町村名": "熊本県八代市",
        "施設・場所名": "特別養護老人ホームひかわの里",
        "住所": "熊本県八代市東陽町南752-1",
        "指定緊急避難場所との住所同一": "",
        "その他市町村長が必要と認める事項": null,
        "受入対象者": "要配慮者",
        "備考": ""
      }
    },
    {
      "type": "Feature",
      "geometry": {
        "type": "Point",
        "coordinates": [
          130.559894,
          32.407403
        ]
      },
      "properties": {
        "NO": 76149,
        "共通ID": "E4320200098111",
        "都道府県名及び市町村名": "熊本県八代市",
        "施設・場所名": "八代市立二見小学校",
        "住所": "熊本県八代市二見下大野町2258-1",
        "指定緊急避難場所との住所同一": "1",
        "その他市町村長が必要と認める事項": "",
        "受入対象者": "",
        "備考": ""
      }
    },
    {
      "type": "Feature",
      "geometry": {
        "type": "Point",
        "coordinates": [
          130.550467,
          32.401008
        ]
      },
      "properties": {
        "NO": 76150,
        "共通ID": "E4320200100121",
        "都道府県名及び市町村名": "熊本県八代市",
        "施設・場所名": "八代学園",
        "住所": "熊本県八代市二見本町240",
        "指定緊急避難場所との住所同一": "",
        "その他市町村長が必要と認める事項": null,
        "受入対象者": "要配慮者",
        "備考": ""
      }
    },
    {
      "type": "Feature",
      "geometry": {
        "type": "Point",
        "coordinates": [
          130.552234,
          32.402232
        ]
      },
      "properties": {
        "NO": 76151,
        "共通ID": "E4320200101121",
        "都道府県名及び市町村名": "熊本県八代市",
        "施設・場所名": "身体障害者療護施設　かんねさこ荘",
        "住所": "熊本県八代市二見本町433",
        "指定緊急避難場所との住所同一": "",
        "その他市町村長が必要と認める事項": null,
        "受入対象者": "要配慮者",
        "備考": ""
      }
    },
    {
      "type": "Feature",
      "geometry": {
        "type": "Point",
        "coordinates": [
          130.557937,
          32.403399
        ]
      },
      "properties": {
        "NO": 76152,
        "共通ID": "E4320200102111",
        "都道府県名及び市町村名": "熊本県八代市",
        "施設・場所名": "八代市立二見中学校",
        "住所": "熊本県八代市二見本町852",
        "指定緊急避難場所との住所同一": "1",
        "その他市町村長が必要と認める事項": "",
        "受入対象者": "",
        "備考": ""
      }
    },
    {
      "type": "Feature",
      "geometry": {
        "type": "Point",
        "coordinates": [
          130.622696,
          32.509952
        ]
      },
      "properties": {
        "NO": 76153,
        "共通ID": "E4320200103111",
        "都道府県名及び市町村名": "熊本県八代市",
        "施設・場所名": "八代市立太田郷小学校",
        "住所": "熊本県八代市日置町445",
        "指定緊急避難場所との住所同一": "1",
        "その他市町村長が必要と認める事項": "",
        "受入対象者": "",
        "備考": ""
      }
    },
    {
      "type": "Feature",
      "geometry": {
        "type": "Point",
        "coordinates": [
          130.577516,
          32.435672
        ]
      },
      "properties": {
        "NO": 76154,
        "共通ID": "E4320200105121",
        "都道府県名及び市町村名": "熊本県八代市",
        "施設・場所名": "特別養護老人ホーム行楽園（みなみ園）",
        "住所": "熊本県八代市日奈久塩南町54",
        "指定緊急避難場所との住所同一": "",
        "その他市町村長が必要と認める事項": null,
        "受入対象者": "要配慮者",
        "備考": ""
      }
    },
    {
      "type": "Feature",
      "geometry": {
        "type": "Point",
        "coordinates": [
          130.578889,
          32.434944
        ]
      },
      "properties": {
        "NO": 76155,
        "共通ID": "E4320200106111",
        "都道府県名及び市町村名": "熊本県八代市",
        "施設・場所名": "日奈久コミュニティセンター",
        "住所": "熊本県八代市日奈久塩南町甲13",
        "指定緊急避難場所との住所同一": "1",
        "その他市町村長が必要と認める事項": "",
        "受入対象者": "",
        "備考": ""
      }
    },
    {
      "type": "Feature",
      "geometry": {
        "type": "Point",
        "coordinates": [
          130.570632,
          32.432819
        ]
      },
      "properties": {
        "NO": 76156,
        "共通ID": "E4320200110121",
        "都道府県名及び市町村名": "熊本県八代市",
        "施設・場所名": "養護老人ホーム保寿寮",
        "住所": "熊本県八代市日奈久平成町1-1",
        "指定緊急避難場所との住所同一": "",
        "その他市町村長が必要と認める事項": "",
        "受入対象者": "要配慮者",
        "備考": ""
      }
    },
    {
      "type": "Feature",
      "geometry": {
        "type": "Point",
        "coordinates": [
          130.599128,
          32.457458
        ]
      },
      "properties": {
        "NO": 76157,
        "共通ID": "E4320200111121",
        "都道府県名及び市町村名": "熊本県八代市",
        "施設・場所名": "特別養護老人ホームま心苑",
        "住所": "熊本県八代市敷川内町2251-1",
        "指定緊急避難場所との住所同一": "1",
        "その他市町村長が必要と認める事項": "",
        "受入対象者": "要配慮者",
        "備考": ""
      }
    },
    {
      "type": "Feature",
      "geometry": {
        "type": "Point",
        "coordinates": [
          130.599058,
          32.45757
        ]
      },
      "properties": {
        "NO": 76158,
        "共通ID": "E4320200111111",
        "都道府県名及び市町村名": "熊本県八代市",
        "施設・場所名": "特別養護老人ホームま心苑",
        "住所": "熊本県八代市敷川内町2251-1",
        "指定緊急避難場所との住所同一": "1",
        "その他市町村長が必要と認める事項": "",
        "受入対象者": "",
        "備考": ""
      }
    },
    {
      "type": "Feature",
      "geometry": {
        "type": "Point",
        "coordinates": [
          130.615254,
          32.483646
        ]
      },
      "properties": {
        "NO": 76159,
        "共通ID": "E4320200114111",
        "都道府県名及び市町村名": "熊本県八代市",
        "施設・場所名": "八代市立第五中学校",
        "住所": "熊本県八代市豊原下町3807",
        "指定緊急避難場所との住所同一": "1",
        "その他市町村長が必要と認める事項": "",
        "受入対象者": "",
        "備考": ""
      }
    },
    {
      "type": "Feature",
      "geometry": {
        "type": "Point",
        "coordinates": [
          130.616823,
          32.489076
        ]
      },
      "properties": {
        "NO": 76160,
        "共通ID": "E4320200115111",
        "都道府県名及び市町村名": "熊本県八代市",
        "施設・場所名": "八代市立高田小学校",
        "住所": "熊本県八代市豊原中町317",
        "指定緊急避難場所との住所同一": "1",
        "その他市町村長が必要と認める事項": "",
        "受入対象者": "",
        "備考": ""
      }
    },
    {
      "type": "Feature",
      "geometry": {
        "type": "Point",
        "coordinates": [
          130.599395,
          32.510622
        ]
      },
      "properties": {
        "NO": 76161,
        "共通ID": "E4320200116111",
        "都道府県名及び市町村名": "熊本県八代市",
        "施設・場所名": "八代市立第一中学校",
        "住所": "熊本県八代市北の丸町1-29",
        "指定緊急避難場所との住所同一": "1",
        "その他市町村長が必要と認める事項": "",
        "受入対象者": "",
        "備考": ""
      }
    },
    {
      "type": "Feature",
      "geometry": {
        "type": "Point",
        "coordinates": [
          130.601826,
          32.509526
        ]
      },
      "properties": {
        "NO": 76162,
        "共通ID": "E4320200117111",
        "都道府県名及び市町村名": "熊本県八代市",
        "施設・場所名": "八代市立代陽小学校",
        "住所": "熊本県八代市北の丸町1-7",
        "指定緊急避難場所との住所同一": "1",
        "その他市町村長が必要と認める事項": "",
        "受入対象者": "",
        "備考": ""
      }
    },
    {
      "type": "Feature",
      "geometry": {
        "type": "Point",
        "coordinates": [
          130.616722,
          32.487085
        ]
      },
      "properties": {
        "NO": 76163,
        "共通ID": "E4320200118111",
        "都道府県名及び市町村名": "熊本県八代市",
        "施設・場所名": "高田コミュニティセンター",
        "住所": "熊本県八代市本野町505",
        "指定緊急避難場所との住所同一": "1",
        "その他市町村長が必要と認める事項": "",
        "受入対象者": "",
        "備考": ""
      }
    },
    {
      "type": "Feature",
      "geometry": {
        "type": "Point",
        "coordinates": [
          130.61055,
          32.504737
        ]
      },
      "properties": {
        "NO": 76164,
        "共通ID": "E4320200119111",
        "都道府県名及び市町村名": "熊本県八代市",
        "施設・場所名": "八代トヨオカ地建アリーナ（総合体育館）",
        "住所": "熊本県八代市緑町11-1",
        "指定緊急避難場所との住所同一": "1",
        "その他市町村長が必要と認める事項": "",
        "受入対象者": "",
        "備考": ""
      }
    },
    {
      "type": "Feature",
      "geometry": {
        "type": "Point",
        "coordinates": [
          130.578827,
          32.493562
        ]
      },
      "properties": {
        "NO": 76165,
        "共通ID": "E4320200120121",
        "都道府県名及び市町村名": "熊本県八代市",
        "施設・場所名": "特別養護老人ホームすずらんの里",
        "住所": "熊本県八代市葭牟田町435",
        "指定緊急避難場所との住所同一": "",
        "その他市町村長が必要と認める事項": null,
        "受入対象者": "要配慮者",
        "備考": ""
      }
    }
  ]
}