{
  "type": "FeatureCollection",
  "name": "433683",
  "features": [
    {
      "type": "Feature",
      "geometry": {
        "type": "Point",
        "coordinates": [
          130.476842,
          32.933271
        ]
      },
      "properties": {
        "NO": 76758,
        "共通ID": "E4336800006111",
        "都道府県名及び市町村名": "熊本県長洲町",
        "施設・場所名": "長洲町立六栄小学校",
        "住所": "熊本県長洲町大字宮野957-1",
        "指定緊急避難場所との住所同一": "1",
        "その他市町村長が必要と認める事項": null,
        "受入対象者": null,
        "備考": ""
      }
    },
    {
      "type": "Feature",
      "geometry": {
        "type": "Point",
        "coordinates": [
          130.479191,
          32.932771
        ]
      },
      "properties": {
        "NO": 76759,
        "共通ID": "E4336800007111",
        "都道府県名及び市町村名": "熊本県長洲町",
        "施設・場所名": "長洲町地域福祉センター",
        "住所": "熊本県長洲町大字宮野999",
        "指定緊急避難場所との住所同一": "1",
        "その他市町村長が必要と認める事項": null,
        "受入対象者": null,
        "備考": ""
      }
    },
    {
      "type": "Feature",
      "geometry": {
        "type": "Point",
        "coordinates": [
          130.456036,
          32.939873
        ]
      },
      "properties": {
        "NO": 76760,
        "共通ID": "E4336800008111",
        "都道府県名及び市町村名": "熊本県長洲町",
        "施設・場所名": "長洲町立清里小学校",
        "住所": "熊本県長洲町大字高浜1250",
        "指定緊急避難場所との住所同一": "1",
        "その他市町村長が必要と認める事項": null,
        "受入対象者": null,
        "備考": ""
      }
    },
    {
      "type": "Feature",
      "geometry": {
        "type": "Point",
        "coordinates": [
          130.443774,
          32.93259
        ]
      },
      "properties": {
        "NO": 76761,
        "共通ID": "E4336800016111",
        "都道府県名及び市町村名": "熊本県長洲町",
        "施設・場所名": "長洲町町民研修センター",
        "住所": "熊本県長洲町大字長洲1443",
        "指定緊急避難場所との住所同一": "1",
        "その他市町村長が必要と認める事項": null,
        "受入対象者": null,
        "備考": ""
      }
    },
    {
      "type": "Feature",
      "geometry": {
        "type": "Point",
        "coordinates": [
          130.446435,
          32.931687
        ]
      },
      "properties": {
        "NO": 76762,
        "共通ID": "E4336800017111",
        "都道府県名及び市町村名": "熊本県長洲町",
        "施設・場所名": "長洲町立長洲小学校",
        "住所": "熊本県長洲町大字長洲1776",
        "指定緊急避難場所との住所同一": "1",
        "その他市町村長が必要と認める事項": null,
        "受入対象者": null,
        "備考": ""
      }
    },
    {
      "type": "Feature",
      "geometry": {
        "type": "Point",
        "coordinates": [
          130.45236,
          32.928882
        ]
      },
      "properties": {
        "NO": 76763,
        "共通ID": "E4336800018111",
        "都道府県名及び市町村名": "熊本県長洲町",
        "施設・場所名": "長洲町中央公民館",
        "住所": "熊本県長洲町大字長洲2772-2",
        "指定緊急避難場所との住所同一": "1",
        "その他市町村長が必要と認める事項": null,
        "受入対象者": null,
        "備考": ""
      }
    },
    {
      "type": "Feature",
      "geometry": {
        "type": "Point",
        "coordinates": [
          130.440215,
          32.940227
        ]
      },
      "properties": {
        "NO": 76764,
        "共通ID": "E4336800020112",
        "都道府県名及び市町村名": "熊本県長洲町",
        "施設・場所名": "長洲町民体育館",
        "住所": "熊本県長洲町大字長洲805-1",
        "指定緊急避難場所との住所同一": "1",
        "その他市町村長が必要と認める事項": "",
        "受入対象者": "",
        "備考": ""
      }
    },
    {
      "type": "Feature",
      "geometry": {
        "type": "Point",
        "coordinates": [
          130.473398,
          32.920234
        ]
      },
      "properties": {
        "NO": 76765,
        "共通ID": "E4336800022111",
        "都道府県名及び市町村名": "熊本県長洲町",
        "施設・場所名": "長洲町立腹赤小学校",
        "住所": "熊本県長洲町大字腹赤125",
        "指定緊急避難場所との住所同一": "1",
        "その他市町村長が必要と認める事項": null,
        "受入対象者": null,
        "備考": ""
      }
    },
    {
      "type": "Feature",
      "geometry": {
        "type": "Point",
        "coordinates": [
          130.474897,
          32.919863
        ]
      },
      "properties": {
        "NO": 76766,
        "共通ID": "E4336800023111",
        "都道府県名及び市町村名": "熊本県長洲町",
        "施設・場所名": "長洲こどもの海保育園",
        "住所": "熊本県長洲町大字腹赤70",
        "指定緊急避難場所との住所同一": "1",
        "その他市町村長が必要と認める事項": null,
        "受入対象者": null,
        "備考": ""
      }
    },
    {
      "type": "Feature",
      "geometry": {
        "type": "Point",
        "coordinates": [
          130.47334,
          32.926564
        ]
      },
      "properties": {
        "NO": 76767,
        "共通ID": "E4336800024111",
        "都道府県名及び市町村名": "熊本県長洲町",
        "施設・場所名": "長洲町立長洲中学校",
        "住所": "熊本県長洲町大字腹赤732",
        "指定緊急避難場所との住所同一": "1",
        "その他市町村長が必要と認める事項": "",
        "受入対象者": "",
        "備考": ""
      }
    }
  ]
}