{
  "type": "FeatureCollection",
  "name": "434442",
  "features": [
    {
      "type": "Feature",
      "geometry": {
        "type": "Point",
        "coordinates": [
          130.750496,
          32.697088
        ]
      },
      "properties": {
        "NO": 77005,
        "共通ID": "E4344400002121",
        "都道府県名及び市町村名": "熊本県甲佐町",
        "施設・場所名": "社会福祉法人　恵春会特別養護老人ホーム　祥麟館",
        "住所": "熊本県熊本市南区沈目1513",
        "指定緊急避難場所との住所同一": "",
        "その他市町村長が必要と認める事項": "事前に福祉課に要相談",
        "受入対象者": "要介護高齢者、障害者、妊産婦、乳幼児等",
        "備考": ""
      }
    },
    {
      "type": "Feature",
      "geometry": {
        "type": "Point",
        "coordinates": [
          130.812361,
          32.72735
        ]
      },
      "properties": {
        "NO": 77006,
        "共通ID": "E4344400003121",
        "都道府県名及び市町村名": "熊本県甲佐町",
        "施設・場所名": "社会福祉法人　伸生会養護老人ホーム　オアシス",
        "住所": "熊本県御船町大字木倉4780",
        "指定緊急避難場所との住所同一": "",
        "その他市町村長が必要と認める事項": "事前に福祉課に要相談",
        "受入対象者": "要介護高齢者、障害者、妊産婦、乳幼児等",
        "備考": ""
      }
    },
    {
      "type": "Feature",
      "geometry": {
        "type": "Point",
        "coordinates": [
          130.809815,
          32.678763
        ]
      },
      "properties": {
        "NO": 77007,
        "共通ID": "E4344400004111",
        "都道府県名及び市町村名": "熊本県甲佐町",
        "施設・場所名": "町民センター",
        "住所": "熊本県甲佐町糸田9-1",
        "指定緊急避難場所との住所同一": "1",
        "その他市町村長が必要と認める事項": null,
        "受入対象者": null,
        "備考": ""
      }
    },
    {
      "type": "Feature",
      "geometry": {
        "type": "Point",
        "coordinates": [
          130.847696,
          32.650116
        ]
      },
      "properties": {
        "NO": 77008,
        "共通ID": "E4344400005111",
        "都道府県名及び市町村名": "熊本県甲佐町",
        "施設・場所名": "宮内地区社会教育センター",
        "住所": "熊本県甲佐町小鹿358",
        "指定緊急避難場所との住所同一": "1",
        "その他市町村長が必要と認める事項": null,
        "受入対象者": null,
        "備考": ""
      }
    },
    {
      "type": "Feature",
      "geometry": {
        "type": "Point",
        "coordinates": [
          130.817493,
          32.673701
        ]
      },
      "properties": {
        "NO": 77009,
        "共通ID": "E4344400006111",
        "都道府県名及び市町村名": "熊本県甲佐町",
        "施設・場所名": "龍野小学校",
        "住所": "熊本県甲佐町上早川1220",
        "指定緊急避難場所との住所同一": "1",
        "その他市町村長が必要と認める事項": null,
        "受入対象者": null,
        "備考": ""
      }
    },
    {
      "type": "Feature",
      "geometry": {
        "type": "Point",
        "coordinates": [
          130.820673,
          32.676867
        ]
      },
      "properties": {
        "NO": 77010,
        "共通ID": "E4344400007121",
        "都道府県名及び市町村名": "熊本県甲佐町",
        "施設・場所名": "竜野福祉ふれあいセンター",
        "住所": "熊本県甲佐町上早川334",
        "指定緊急避難場所との住所同一": "1",
        "その他市町村長が必要と認める事項": null,
        "受入対象者": null,
        "備考": ""
      }
    },
    {
      "type": "Feature",
      "geometry": {
        "type": "Point",
        "coordinates": [
          130.820671,
          32.676881
        ]
      },
      "properties": {
        "NO": 77011,
        "共通ID": "E4344400007111",
        "都道府県名及び市町村名": "熊本県甲佐町",
        "施設・場所名": "龍野福祉ふれあいセンター",
        "住所": "熊本県甲佐町上早川334",
        "指定緊急避難場所との住所同一": "1",
        "その他市町村長が必要と認める事項": null,
        "受入対象者": null,
        "備考": ""
      }
    },
    {
      "type": "Feature",
      "geometry": {
        "type": "Point",
        "coordinates": [
          130.852952,
          32.680424
        ]
      },
      "properties": {
        "NO": 77012,
        "共通ID": "E4344400030111",
        "都道府県名及び市町村名": "熊本県甲佐町",
        "施設・場所名": "六谷公民館",
        "住所": "熊本県甲佐町上早川4496",
        "指定緊急避難場所との住所同一": "",
        "その他市町村長が必要と認める事項": null,
        "受入対象者": null,
        "備考": ""
      }
    },
    {
      "type": "Feature",
      "geometry": {
        "type": "Point",
        "coordinates": [
          130.789724,
          32.676442
        ]
      },
      "properties": {
        "NO": 77013,
        "共通ID": "E4344400026111",
        "都道府県名及び市町村名": "熊本県甲佐町",
        "施設・場所名": "世持公民館",
        "住所": "熊本県甲佐町世持315",
        "指定緊急避難場所との住所同一": "",
        "その他市町村長が必要と認める事項": null,
        "受入対象者": null,
        "備考": ""
      }
    },
    {
      "type": "Feature",
      "geometry": {
        "type": "Point",
        "coordinates": [
          130.811958,
          32.638297
        ]
      },
      "properties": {
        "NO": 77014,
        "共通ID": "E4344400009121",
        "都道府県名及び市町村名": "熊本県甲佐町",
        "施設・場所名": "社会福祉法人　綾友会特別養護老人ホーム桜の丘",
        "住所": "熊本県甲佐町西寒野1161",
        "指定緊急避難場所との住所同一": "",
        "その他市町村長が必要と認める事項": "事前に福祉課に要相談",
        "受入対象者": "要介護高齢者、障害者、妊産婦、乳幼児等",
        "備考": ""
      }
    },
    {
      "type": "Feature",
      "geometry": {
        "type": "Point",
        "coordinates": [
          130.816644,
          32.638987
        ]
      },
      "properties": {
        "NO": 77015,
        "共通ID": "E4344400020111",
        "都道府県名及び市町村名": "熊本県甲佐町",
        "施設・場所名": "西寒野公民館",
        "住所": "熊本県甲佐町西寒野247-5",
        "指定緊急避難場所との住所同一": "",
        "その他市町村長が必要と認める事項": null,
        "受入対象者": null,
        "備考": ""
      }
    },
    {
      "type": "Feature",
      "geometry": {
        "type": "Point",
        "coordinates": [
          130.79706,
          32.665706
        ]
      },
      "properties": {
        "NO": 77016,
        "共通ID": "E4344400025111",
        "都道府県名及び市町村名": "熊本県甲佐町",
        "施設・場所名": "船津公民館",
        "住所": "熊本県甲佐町船津763-2",
        "指定緊急避難場所との住所同一": "",
        "その他市町村長が必要と認める事項": null,
        "受入対象者": null,
        "備考": ""
      }
    },
    {
      "type": "Feature",
      "geometry": {
        "type": "Point",
        "coordinates": [
          130.800829,
          32.694917
        ]
      },
      "properties": {
        "NO": 77017,
        "共通ID": "E4344400023111",
        "都道府県名及び市町村名": "熊本県甲佐町",
        "施設・場所名": "北早川公民館",
        "住所": "熊本県甲佐町早川1942",
        "指定緊急避難場所との住所同一": "",
        "その他市町村長が必要と認める事項": null,
        "受入対象者": null,
        "備考": ""
      }
    },
    {
      "type": "Feature",
      "geometry": {
        "type": "Point",
        "coordinates": [
          130.807178,
          32.686538
        ]
      },
      "properties": {
        "NO": 77018,
        "共通ID": "E4344400022111",
        "都道府県名及び市町村名": "熊本県甲佐町",
        "施設・場所名": "早川公民館",
        "住所": "熊本県甲佐町早川780",
        "指定緊急避難場所との住所同一": "",
        "その他市町村長が必要と認める事項": null,
        "受入対象者": null,
        "備考": ""
      }
    },
    {
      "type": "Feature",
      "geometry": {
        "type": "Point",
        "coordinates": [
          130.782621,
          32.693209
        ]
      },
      "properties": {
        "NO": 77019,
        "共通ID": "E4344400010121",
        "都道府県名及び市町村名": "熊本県甲佐町",
        "施設・場所名": "社会福祉法人　五色会ライフサポート　あゆの里",
        "住所": "熊本県甲佐町大字津志田2472",
        "指定緊急避難場所との住所同一": "",
        "その他市町村長が必要と認める事項": "事前に福祉課に要相談",
        "受入対象者": "要介護高齢者、障害者、妊産婦、乳幼児等",
        "備考": ""
      }
    },
    {
      "type": "Feature",
      "geometry": {
        "type": "Point",
        "coordinates": [
          130.78946,
          32.698036
        ]
      },
      "properties": {
        "NO": 77020,
        "共通ID": "E4344400011121",
        "都道府県名及び市町村名": "熊本県甲佐町",
        "施設・場所名": "医療法人　荒瀬会　老人保健施設　緑風苑",
        "住所": "熊本県甲佐町大字白旗271",
        "指定緊急避難場所との住所同一": "",
        "その他市町村長が必要と認める事項": "事前に福祉課に要相談",
        "受入対象者": "要介護高齢者、障害者、妊産婦、乳幼児等",
        "備考": ""
      }
    },
    {
      "type": "Feature",
      "geometry": {
        "type": "Point",
        "coordinates": [
          130.818283,
          32.666763
        ]
      },
      "properties": {
        "NO": 77021,
        "共通ID": "E4344400012111",
        "都道府県名及び市町村名": "熊本県甲佐町",
        "施設・場所名": "甲佐中学校",
        "住所": "熊本県甲佐町中横田300",
        "指定緊急避難場所との住所同一": "1",
        "その他市町村長が必要と認める事項": null,
        "受入対象者": null,
        "備考": ""
      }
    },
    {
      "type": "Feature",
      "geometry": {
        "type": "Point",
        "coordinates": [
          130.789396,
          32.688707
        ]
      },
      "properties": {
        "NO": 77022,
        "共通ID": "E4344400027111",
        "都道府県名及び市町村名": "熊本県甲佐町",
        "施設・場所名": "津志田公民館",
        "住所": "熊本県甲佐町津志田1290",
        "指定緊急避難場所との住所同一": "",
        "その他市町村長が必要と認める事項": null,
        "受入対象者": null,
        "備考": ""
      }
    },
    {
      "type": "Feature",
      "geometry": {
        "type": "Point",
        "coordinates": [
          130.781722,
          32.684732
        ]
      },
      "properties": {
        "NO": 77023,
        "共通ID": "E4344400013111",
        "都道府県名及び市町村名": "熊本県甲佐町",
        "施設・場所名": "乙女高齢者福祉センター",
        "住所": "熊本県甲佐町津志田3073",
        "指定緊急避難場所との住所同一": "1",
        "その他市町村長が必要と認める事項": null,
        "受入対象者": null,
        "備考": ""
      }
    },
    {
      "type": "Feature",
      "geometry": {
        "type": "Point",
        "coordinates": [
          130.781436,
          32.684725
        ]
      },
      "properties": {
        "NO": 77024,
        "共通ID": "E4344400013112",
        "都道府県名及び市町村名": "熊本県甲佐町",
        "施設・場所名": "乙女小学校",
        "住所": "熊本県甲佐町津志田3073",
        "指定緊急避難場所との住所同一": "1",
        "その他市町村長が必要と認める事項": null,
        "受入対象者": null,
        "備考": ""
      }
    },
    {
      "type": "Feature",
      "geometry": {
        "type": "Point",
        "coordinates": [
          130.776986,
          32.69522
        ]
      },
      "properties": {
        "NO": 77025,
        "共通ID": "E4344400029111",
        "都道府県名及び市町村名": "熊本県甲佐町",
        "施設・場所名": "上田口公民館",
        "住所": "熊本県甲佐町田口204-1",
        "指定緊急避難場所との住所同一": "",
        "その他市町村長が必要と認める事項": null,
        "受入対象者": null,
        "備考": ""
      }
    },
    {
      "type": "Feature",
      "geometry": {
        "type": "Point",
        "coordinates": [
          130.77205,
          32.699663
        ]
      },
      "properties": {
        "NO": 77026,
        "共通ID": "E4344400028111",
        "都道府県名及び市町村名": "熊本県甲佐町",
        "施設・場所名": "和田内公民館",
        "住所": "熊本県甲佐町田口2745",
        "指定緊急避難場所との住所同一": "",
        "その他市町村長が必要と認める事項": null,
        "受入対象者": null,
        "備考": ""
      }
    },
    {
      "type": "Feature",
      "geometry": {
        "type": "Point",
        "coordinates": [
          130.787717,
          32.698361
        ]
      },
      "properties": {
        "NO": 77027,
        "共通ID": "E4344400014121",
        "都道府県名及び市町村名": "熊本県甲佐町",
        "施設・場所名": "白旗福祉ふれあいセンター",
        "住所": "熊本県甲佐町白旗216-2",
        "指定緊急避難場所との住所同一": "1",
        "その他市町村長が必要と認める事項": null,
        "受入対象者": null,
        "備考": ""
      }
    },
    {
      "type": "Feature",
      "geometry": {
        "type": "Point",
        "coordinates": [
          130.787664,
          32.698519
        ]
      },
      "properties": {
        "NO": 77028,
        "共通ID": "E4344400014111",
        "都道府県名及び市町村名": "熊本県甲佐町",
        "施設・場所名": "白旗福祉ふれあいセンター",
        "住所": "熊本県甲佐町白旗216-2",
        "指定緊急避難場所との住所同一": "1",
        "その他市町村長が必要と認める事項": null,
        "受入対象者": null,
        "備考": ""
      }
    },
    {
      "type": "Feature",
      "geometry": {
        "type": "Point",
        "coordinates": [
          130.788098,
          32.697219
        ]
      },
      "properties": {
        "NO": 77029,
        "共通ID": "E4344400015111",
        "都道府県名及び市町村名": "熊本県甲佐町",
        "施設・場所名": "白旗小学校",
        "住所": "熊本県甲佐町白旗50",
        "指定緊急避難場所との住所同一": "1",
        "その他市町村長が必要と認める事項": null,
        "受入対象者": null,
        "備考": ""
      }
    },
    {
      "type": "Feature",
      "geometry": {
        "type": "Point",
        "coordinates": [
          130.781648,
          32.701636
        ]
      },
      "properties": {
        "NO": 77030,
        "共通ID": "E4344400016111",
        "都道府県名及び市町村名": "熊本県甲佐町",
        "施設・場所名": "上益城農業協同組合第一営農センター",
        "住所": "熊本県甲佐町白旗543-1",
        "指定緊急避難場所との住所同一": "1",
        "その他市町村長が必要と認める事項": null,
        "受入対象者": null,
        "備考": ""
      }
    },
    {
      "type": "Feature",
      "geometry": {
        "type": "Point",
        "coordinates": [
          130.810735,
          32.647422
        ]
      },
      "properties": {
        "NO": 77031,
        "共通ID": "E4344400017111",
        "都道府県名及び市町村名": "熊本県甲佐町",
        "施設・場所名": "甲佐小学校",
        "住所": "熊本県甲佐町豊内613-1",
        "指定緊急避難場所との住所同一": "1",
        "その他市町村長が必要と認める事項": null,
        "受入対象者": null,
        "備考": ""
      }
    },
    {
      "type": "Feature",
      "geometry": {
        "type": "Point",
        "coordinates": [
          130.809863,
          32.649457
        ]
      },
      "properties": {
        "NO": 77032,
        "共通ID": "E4344400018121",
        "都道府県名及び市町村名": "熊本県甲佐町",
        "施設・場所名": "総合保健福祉センター",
        "住所": "熊本県甲佐町豊内619",
        "指定緊急避難場所との住所同一": "1",
        "その他市町村長が必要と認める事項": null,
        "受入対象者": null,
        "備考": ""
      }
    },
    {
      "type": "Feature",
      "geometry": {
        "type": "Point",
        "coordinates": [
          130.80985,
          32.649323
        ]
      },
      "properties": {
        "NO": 77033,
        "共通ID": "E4344400018111",
        "都道府県名及び市町村名": "熊本県甲佐町",
        "施設・場所名": "総合保健福祉センター",
        "住所": "熊本県甲佐町豊内619",
        "指定緊急避難場所との住所同一": "1",
        "その他市町村長が必要と認める事項": null,
        "受入対象者": null,
        "備考": ""
      }
    },
    {
      "type": "Feature",
      "geometry": {
        "type": "Point",
        "coordinates": [
          130.811327,
          32.65059
        ]
      },
      "properties": {
        "NO": 77034,
        "共通ID": "E4344400019111",
        "都道府県名及び市町村名": "熊本県甲佐町",
        "施設・場所名": "農業研修センター",
        "住所": "熊本県甲佐町豊内719-2",
        "指定緊急避難場所との住所同一": "1",
        "その他市町村長が必要と認める事項": null,
        "受入対象者": null,
        "備考": ""
      }
    },
    {
      "type": "Feature",
      "geometry": {
        "type": "Point",
        "coordinates": [
          130.812677,
          32.650749
        ]
      },
      "properties": {
        "NO": 77035,
        "共通ID": "E4344400021121",
        "都道府県名及び市町村名": "熊本県甲佐町",
        "施設・場所名": "甲佐団地集会所",
        "住所": "熊本県甲佐町豊内776",
        "指定緊急避難場所との住所同一": "1",
        "その他市町村長が必要と認める事項": "事前に福祉課に要相談",
        "受入対象者": "要介護高齢者、障害者、妊産婦、乳幼児等",
        "備考": ""
      }
    },
    {
      "type": "Feature",
      "geometry": {
        "type": "Point",
        "coordinates": [
          130.808801,
          32.645301
        ]
      },
      "properties": {
        "NO": 77036,
        "共通ID": "E4344400031121",
        "都道府県名及び市町村名": "熊本県甲佐町",
        "施設・場所名": "社会福祉法人　五色会養護老人ホーム　緑川荘",
        "住所": "熊本県甲佐町緑町50",
        "指定緊急避難場所との住所同一": "",
        "その他市町村長が必要と認める事項": "事前に福祉課に要相談",
        "受入対象者": "要介護高齢者、障害者、妊産婦、乳幼児等",
        "備考": ""
      }
    },
    {
      "type": "Feature",
      "geometry": {
        "type": "Point",
        "coordinates": [
          130.790568,
          32.646971
        ]
      },
      "properties": {
        "NO": 77037,
        "共通ID": "E4344400001121",
        "都道府県名及び市町村名": "熊本県甲佐町",
        "施設・場所名": "医療法人興和会老人保健施設　なごみの里",
        "住所": "熊本県美里町堅志田192-1",
        "指定緊急避難場所との住所同一": "",
        "その他市町村長が必要と認める事項": "事前に福祉課に要相談",
        "受入対象者": "要介護高齢者、障害者、妊産婦、乳幼児等",
        "備考": ""
      }
    }
  ]
}