{
  "type": "FeatureCollection",
  "name": "435121",
  "features": [
    {
      "type": "Feature",
      "geometry": {
        "type": "Point",
        "coordinates": [
          130.773475,
          32.242077
        ]
      },
      "properties": {
        "NO": 77192,
        "共通ID": "E4351200001121",
        "都道府県名及び市町村名": "熊本県山江村",
        "施設・場所名": "介護老人保健施設　つつじのさと",
        "住所": "熊本県山江村大字山田乙1705",
        "指定緊急避難場所との住所同一": "",
        "その他市町村長が必要と認める事項": "",
        "受入対象者": "要配慮者",
        "備考": ""
      }
    },
    {
      "type": "Feature",
      "geometry": {
        "type": "Point",
        "coordinates": [
          130.772857,
          32.243585
        ]
      },
      "properties": {
        "NO": 77193,
        "共通ID": "E4351200003111",
        "都道府県名及び市町村名": "熊本県山江村",
        "施設・場所名": "山田小学校体育館",
        "住所": "熊本県山江村大字山田乙2030",
        "指定緊急避難場所との住所同一": "1",
        "その他市町村長が必要と認める事項": null,
        "受入対象者": null,
        "備考": ""
      }
    },
    {
      "type": "Feature",
      "geometry": {
        "type": "Point",
        "coordinates": [
          130.773511,
          32.243164
        ]
      },
      "properties": {
        "NO": 77194,
        "共通ID": "E4351200003112",
        "都道府県名及び市町村名": "熊本県山江村",
        "施設・場所名": "山田小学校グラウンド",
        "住所": "熊本県山江村大字山田乙2030",
        "指定緊急避難場所との住所同一": "1",
        "その他市町村長が必要と認める事項": "",
        "受入対象者": "",
        "備考": "車中泊用避難所"
      }
    },
    {
      "type": "Feature",
      "geometry": {
        "type": "Point",
        "coordinates": [
          130.766635,
          32.246046
        ]
      },
      "properties": {
        "NO": 77195,
        "共通ID": "E4351200007111",
        "都道府県名及び市町村名": "熊本県山江村",
        "施設・場所名": "山江村体育館",
        "住所": "熊本県山江村大字山田甲1353-1",
        "指定緊急避難場所との住所同一": "1",
        "その他市町村長が必要と認める事項": null,
        "受入対象者": null,
        "備考": ""
      }
    },
    {
      "type": "Feature",
      "geometry": {
        "type": "Point",
        "coordinates": [
          130.767378,
          32.246761
        ]
      },
      "properties": {
        "NO": 77196,
        "共通ID": "E4351200008111",
        "都道府県名及び市町村名": "熊本県山江村",
        "施設・場所名": "山江村農村環境改善センター",
        "住所": "熊本県山江村大字山田甲1356-1",
        "指定緊急避難場所との住所同一": "1",
        "その他市町村長が必要と認める事項": null,
        "受入対象者": null,
        "備考": ""
      }
    },
    {
      "type": "Feature",
      "geometry": {
        "type": "Point",
        "coordinates": [
          130.770995,
          32.252306
        ]
      },
      "properties": {
        "NO": 77197,
        "共通ID": "E4351200017111",
        "都道府県名及び市町村名": "熊本県山江村",
        "施設・場所名": "山江保育園",
        "住所": "熊本県山江村大字山田丁189",
        "指定緊急避難場所との住所同一": "1",
        "その他市町村長が必要と認める事項": "",
        "受入対象者": "",
        "備考": ""
      }
    },
    {
      "type": "Feature",
      "geometry": {
        "type": "Point",
        "coordinates": [
          130.769242,
          32.251317
        ]
      },
      "properties": {
        "NO": 77198,
        "共通ID": "E4351200010111",
        "都道府県名及び市町村名": "熊本県山江村",
        "施設・場所名": "山江中学校武道館",
        "住所": "熊本県山江村大字山田丁23-3",
        "指定緊急避難場所との住所同一": "1",
        "その他市町村長が必要と認める事項": null,
        "受入対象者": null,
        "備考": ""
      }
    },
    {
      "type": "Feature",
      "geometry": {
        "type": "Point",
        "coordinates": [
          130.769539,
          32.250807
        ]
      },
      "properties": {
        "NO": 77199,
        "共通ID": "E4351200011121",
        "都道府県名及び市町村名": "熊本県山江村",
        "施設・場所名": "小規模多機能ホーム黎明館",
        "住所": "熊本県山江村大字山田丁26",
        "指定緊急避難場所との住所同一": "",
        "その他市町村長が必要と認める事項": null,
        "受入対象者": "要配慮者",
        "備考": ""
      }
    },
    {
      "type": "Feature",
      "geometry": {
        "type": "Point",
        "coordinates": [
          130.770341,
          32.251644
        ]
      },
      "properties": {
        "NO": 77200,
        "共通ID": "E4351200013112",
        "都道府県名及び市町村名": "熊本県山江村",
        "施設・場所名": "山江中学校グラウンド",
        "住所": "熊本県山江村大字山田丁60",
        "指定緊急避難場所との住所同一": "1",
        "その他市町村長が必要と認める事項": "",
        "受入対象者": "",
        "備考": "車中泊用避難所"
      }
    },
    {
      "type": "Feature",
      "geometry": {
        "type": "Point",
        "coordinates": [
          130.769644,
          32.251385
        ]
      },
      "properties": {
        "NO": 77201,
        "共通ID": "E4351200013111",
        "都道府県名及び市町村名": "熊本県山江村",
        "施設・場所名": "山江中学校体育館",
        "住所": "熊本県山江村大字山田丁60",
        "指定緊急避難場所との住所同一": "1",
        "その他市町村長が必要と認める事項": null,
        "受入対象者": null,
        "備考": ""
      }
    },
    {
      "type": "Feature",
      "geometry": {
        "type": "Point",
        "coordinates": [
          130.790713,
          32.238721
        ]
      },
      "properties": {
        "NO": 77202,
        "共通ID": "E4351200015111",
        "都道府県名及び市町村名": "熊本県山江村",
        "施設・場所名": "第９区公民館",
        "住所": "熊本県山江村大字山田丙2396-2",
        "指定緊急避難場所との住所同一": "1",
        "その他市町村長が必要と認める事項": null,
        "受入対象者": null,
        "備考": ""
      }
    },
    {
      "type": "Feature",
      "geometry": {
        "type": "Point",
        "coordinates": [
          130.748497,
          32.258462
        ]
      },
      "properties": {
        "NO": 77203,
        "共通ID": "E4351200016111",
        "都道府県名及び市町村名": "熊本県山江村",
        "施設・場所名": "万江体育館",
        "住所": "熊本県山江村大字万江甲912-1",
        "指定緊急避難場所との住所同一": "1",
        "その他市町村長が必要と認める事項": "",
        "受入対象者": "",
        "備考": ""
      }
    },
    {
      "type": "Feature",
      "geometry": {
        "type": "Point",
        "coordinates": [
          130.755067,
          32.257328
        ]
      },
      "properties": {
        "NO": 77204,
        "共通ID": "E4351200018111",
        "都道府県名及び市町村名": "熊本県山江村",
        "施設・場所名": "丸岡公園農村広場",
        "住所": "熊本県山江村大字万江字丸岡675-3",
        "指定緊急避難場所との住所同一": "1",
        "その他市町村長が必要と認める事項": "",
        "受入対象者": "",
        "備考": "車中泊用避難所"
      }
    }
  ]
}