{
  "type": "FeatureCollection",
  "name": "452041",
  "features": [
    {
      "type": "Feature",
      "geometry": {
        "type": "Point",
        "coordinates": [
          131.36567,
          31.626775
        ]
      },
      "properties": {
        "NO": 78846,
        "共通ID": "E4520400007111",
        "都道府県名及び市町村名": "宮崎県日南市",
        "施設・場所名": "日南高校",
        "住所": "宮崎県日南市星倉5800",
        "指定緊急避難場所との住所同一": "",
        "その他市町村長が必要と認める事項": "",
        "受入対象者": "",
        "備考": ""
      }
    },
    {
      "type": "Feature",
      "geometry": {
        "type": "Point",
        "coordinates": [
          131.450074,
          31.670032
        ]
      },
      "properties": {
        "NO": 78847,
        "共通ID": "E4520400009111",
        "都道府県名及び市町村名": "宮崎県日南市",
        "施設・場所名": "鵜戸支所",
        "住所": "宮崎県日南市大字宮浦2434",
        "指定緊急避難場所との住所同一": "",
        "その他市町村長が必要と認める事項": "",
        "受入対象者": "",
        "備考": ""
      }
    },
    {
      "type": "Feature",
      "geometry": {
        "type": "Point",
        "coordinates": [
          131.370335,
          31.581241
        ]
      },
      "properties": {
        "NO": 78848,
        "共通ID": "E4520400010111",
        "都道府県名及び市町村名": "宮崎県日南市",
        "施設・場所名": "クリーンセンター管理棟",
        "住所": "宮崎県日南市大字隈谷乙1671",
        "指定緊急避難場所との住所同一": "",
        "その他市町村長が必要と認める事項": "",
        "受入対象者": "",
        "備考": ""
      }
    },
    {
      "type": "Feature",
      "geometry": {
        "type": "Point",
        "coordinates": [
          131.308443,
          31.616192
        ]
      },
      "properties": {
        "NO": 78849,
        "共通ID": "E4520400012111",
        "都道府県名及び市町村名": "宮崎県日南市",
        "施設・場所名": "生活改善センター",
        "住所": "宮崎県日南市大字酒谷乙4557",
        "指定緊急避難場所との住所同一": "1",
        "その他市町村長が必要と認める事項": "",
        "受入対象者": "",
        "備考": ""
      }
    },
    {
      "type": "Feature",
      "geometry": {
        "type": "Point",
        "coordinates": [
          131.345192,
          31.561964
        ]
      },
      "properties": {
        "NO": 78850,
        "共通ID": "E4520400013111",
        "都道府県名及び市町村名": "宮崎県日南市",
        "施設・場所名": "都市農村交流センター",
        "住所": "宮崎県日南市大字上方1013-1",
        "指定緊急避難場所との住所同一": "",
        "その他市町村長が必要と認める事項": "",
        "受入対象者": "",
        "備考": ""
      }
    },
    {
      "type": "Feature",
      "geometry": {
        "type": "Point",
        "coordinates": [
          131.394563,
          31.622722
        ]
      },
      "properties": {
        "NO": 78851,
        "共通ID": "E4520400017111",
        "都道府県名及び市町村名": "宮崎県日南市",
        "施設・場所名": "東郷公民館",
        "住所": "宮崎県日南市大字東弁分乙758",
        "指定緊急避難場所との住所同一": "",
        "その他市町村長が必要と認める事項": "",
        "受入対象者": "",
        "備考": ""
      }
    },
    {
      "type": "Feature",
      "geometry": {
        "type": "Point",
        "coordinates": [
          131.415528,
          31.612701
        ]
      },
      "properties": {
        "NO": 78852,
        "共通ID": "E4520400020111",
        "都道府県名及び市町村名": "宮崎県日南市",
        "施設・場所名": "サンライフ日南",
        "住所": "宮崎県日南市大字風田3202",
        "指定緊急避難場所との住所同一": "1",
        "その他市町村長が必要と認める事項": "",
        "受入対象者": "",
        "備考": ""
      }
    },
    {
      "type": "Feature",
      "geometry": {
        "type": "Point",
        "coordinates": [
          131.38053,
          31.557512
        ]
      },
      "properties": {
        "NO": 78853,
        "共通ID": "E4520400022111",
        "都道府県名及び市町村名": "宮崎県日南市",
        "施設・場所名": "大堂津地域交流センター",
        "住所": "宮崎県日南市大堂津3-12-1",
        "指定緊急避難場所との住所同一": "",
        "その他市町村長が必要と認める事項": null,
        "受入対象者": null,
        "備考": ""
      }
    },
    {
      "type": "Feature",
      "geometry": {
        "type": "Point",
        "coordinates": [
          131.378352,
          31.60133
        ]
      },
      "properties": {
        "NO": 78854,
        "共通ID": "E4520400023111",
        "都道府県名及び市町村名": "宮崎県日南市",
        "施設・場所名": "ふれあい健やかセンター",
        "住所": "宮崎県日南市中央通1-1-1",
        "指定緊急避難場所との住所同一": "",
        "その他市町村長が必要と認める事項": "",
        "受入対象者": "",
        "備考": ""
      }
    },
    {
      "type": "Feature",
      "geometry": {
        "type": "Point",
        "coordinates": [
          131.38184,
          31.616158
        ]
      },
      "properties": {
        "NO": 78855,
        "共通ID": "E4520400025111",
        "都道府県名及び市町村名": "宮崎県日南市",
        "施設・場所名": "多目的体育館",
        "住所": "宮崎県日南市殿所2200",
        "指定緊急避難場所との住所同一": "",
        "その他市町村長が必要と認める事項": "",
        "受入対象者": "",
        "備考": ""
      }
    },
    {
      "type": "Feature",
      "geometry": {
        "type": "Point",
        "coordinates": [
          131.306653,
          31.537036
        ]
      },
      "properties": {
        "NO": 78856,
        "共通ID": "E4520400026111",
        "都道府県名及び市町村名": "宮崎県日南市",
        "施設・場所名": "榎原小学校",
        "住所": "宮崎県日南市南郷町榎原甲160",
        "指定緊急避難場所との住所同一": "1",
        "その他市町村長が必要と認める事項": "",
        "受入対象者": "",
        "備考": ""
      }
    },
    {
      "type": "Feature",
      "geometry": {
        "type": "Point",
        "coordinates": [
          131.376248,
          31.542782
        ]
      },
      "properties": {
        "NO": 78857,
        "共通ID": "E4520400029111",
        "都道府県名及び市町村名": "宮崎県日南市",
        "施設・場所名": "西町体育館",
        "住所": "宮崎県日南市南郷町西町1-2",
        "指定緊急避難場所との住所同一": "",
        "その他市町村長が必要と認める事項": "",
        "受入対象者": "",
        "備考": ""
      }
    },
    {
      "type": "Feature",
      "geometry": {
        "type": "Point",
        "coordinates": [
          131.373303,
          31.523188
        ]
      },
      "properties": {
        "NO": 78858,
        "共通ID": "E4520400030111",
        "都道府県名及び市町村名": "宮崎県日南市",
        "施設・場所名": "南郷ハートフルセンター",
        "住所": "宮崎県日南市南郷町中村乙7051-25",
        "指定緊急避難場所との住所同一": "",
        "その他市町村長が必要と認める事項": "",
        "受入対象者": "",
        "備考": ""
      }
    },
    {
      "type": "Feature",
      "geometry": {
        "type": "Point",
        "coordinates": [
          131.357004,
          31.518016
        ]
      },
      "properties": {
        "NO": 78859,
        "共通ID": "E4520400032111",
        "都道府県名及び市町村名": "宮崎県日南市",
        "施設・場所名": "潟上小学校",
        "住所": "宮崎県日南市南郷町脇本2855",
        "指定緊急避難場所との住所同一": "1",
        "その他市町村長が必要と認める事項": "",
        "受入対象者": "",
        "備考": ""
      }
    },
    {
      "type": "Feature",
      "geometry": {
        "type": "Point",
        "coordinates": [
          131.374005,
          31.690804
        ]
      },
      "properties": {
        "NO": 78860,
        "共通ID": "E4520400036111",
        "都道府県名及び市町村名": "宮崎県日南市",
        "施設・場所名": "さくらアリーナ",
        "住所": "宮崎県日南市北郷町郷之原甲110-3",
        "指定緊急避難場所との住所同一": "",
        "その他市町村長が必要と認める事項": "",
        "受入対象者": "",
        "備考": ""
      }
    },
    {
      "type": "Feature",
      "geometry": {
        "type": "Point",
        "coordinates": [
          131.375,
          31.66021
        ]
      },
      "properties": {
        "NO": 78861,
        "共通ID": "E4520400039111",
        "都道府県名及び市町村名": "宮崎県日南市",
        "施設・場所名": "大藤公民館",
        "住所": "宮崎県日南市北郷町大藤甲2159-1",
        "指定緊急避難場所との住所同一": "",
        "その他市町村長が必要と認める事項": "",
        "受入対象者": "",
        "備考": ""
      }
    },
    {
      "type": "Feature",
      "geometry": {
        "type": "Point",
        "coordinates": [
          131.347697,
          31.695645
        ]
      },
      "properties": {
        "NO": 78862,
        "共通ID": "E4520400041111",
        "都道府県名及び市町村名": "宮崎県日南市",
        "施設・場所名": "坂元山村振興会館",
        "住所": "宮崎県日南市北郷町北河内431",
        "指定緊急避難場所との住所同一": "",
        "その他市町村長が必要と認める事項": "",
        "受入対象者": "",
        "備考": ""
      }
    },
    {
      "type": "Feature",
      "geometry": {
        "type": "Point",
        "coordinates": [
          131.397826,
          31.592686
        ]
      },
      "properties": {
        "NO": 78863,
        "共通ID": "E4520400043111",
        "都道府県名及び市町村名": "宮崎県日南市",
        "施設・場所名": "生涯学習センターまなびピア",
        "住所": "宮崎県日南市木山2-4-44",
        "指定緊急避難場所との住所同一": "",
        "その他市町村長が必要と認める事項": "",
        "受入対象者": "",
        "備考": ""
      }
    },
    {
      "type": "Feature",
      "geometry": {
        "type": "Point",
        "coordinates": [
          131.352427,
          31.628945
        ]
      },
      "properties": {
        "NO": 78864,
        "共通ID": "E4520400044111",
        "都道府県名及び市町村名": "宮崎県日南市",
        "施設・場所名": "飫肥小学校",
        "住所": "宮崎県日南市飫肥10-1-3",
        "指定緊急避難場所との住所同一": "1",
        "その他市町村長が必要と認める事項": "",
        "受入対象者": "",
        "備考": ""
      }
    },
    {
      "type": "Feature",
      "geometry": {
        "type": "Point",
        "coordinates": [
          131.355558,
          31.627229
        ]
      },
      "properties": {
        "NO": 78865,
        "共通ID": "E4520400047111",
        "都道府県名及び市町村名": "宮崎県日南市",
        "施設・場所名": "飫肥公民館",
        "住所": "宮崎県日南市飫肥2-12-8",
        "指定緊急避難場所との住所同一": "1",
        "その他市町村長が必要と認める事項": "",
        "受入対象者": "",
        "備考": ""
      }
    }
  ]
}