{
  "type": "FeatureCollection",
  "name": "452076",
  "features": [
    {
      "type": "Feature",
      "geometry": {
        "type": "Point",
        "coordinates": [
          131.21861,
          31.530724
        ]
      },
      "properties": {
        "NO": 79007,
        "共通ID": "E4520700095111",
        "都道府県名及び市町村名": "宮崎県串間市",
        "施設・場所名": "一氏公民館",
        "住所": "宮崎県串間市大字一氏一氏",
        "指定緊急避難場所との住所同一": "",
        "その他市町村長が必要と認める事項": null,
        "受入対象者": null,
        "備考": ""
      }
    },
    {
      "type": "Feature",
      "geometry": {
        "type": "Point",
        "coordinates": [
          131.21594,
          31.534022
        ]
      },
      "properties": {
        "NO": 79008,
        "共通ID": "E4520700096111",
        "都道府県名及び市町村名": "宮崎県串間市",
        "施設・場所名": "三ヶ平公民館",
        "住所": "宮崎県串間市大字一氏三ケ平",
        "指定緊急避難場所との住所同一": "",
        "その他市町村長が必要と認める事項": null,
        "受入対象者": null,
        "備考": ""
      }
    },
    {
      "type": "Feature",
      "geometry": {
        "type": "Point",
        "coordinates": [
          131.211622,
          31.546011
        ]
      },
      "properties": {
        "NO": 79009,
        "共通ID": "E4520700097111",
        "都道府県名及び市町村名": "宮崎県串間市",
        "施設・場所名": "三幸ヶ野集落センター",
        "住所": "宮崎県串間市大字一氏三幸ケ野",
        "指定緊急避難場所との住所同一": "",
        "その他市町村長が必要と認める事項": null,
        "受入対象者": null,
        "備考": ""
      }
    },
    {
      "type": "Feature",
      "geometry": {
        "type": "Point",
        "coordinates": [
          131.218759,
          31.539022
        ]
      },
      "properties": {
        "NO": 79010,
        "共通ID": "E4520700098111",
        "都道府県名及び市町村名": "宮崎県串間市",
        "施設・場所名": "大重野集落センター",
        "住所": "宮崎県串間市大字一氏大重ケ野",
        "指定緊急避難場所との住所同一": "",
        "その他市町村長が必要と認める事項": null,
        "受入対象者": null,
        "備考": ""
      }
    },
    {
      "type": "Feature",
      "geometry": {
        "type": "Point",
        "coordinates": [
          131.250678,
          31.496153
        ]
      },
      "properties": {
        "NO": 79011,
        "共通ID": "E4520700003121",
        "都道府県名及び市町村名": "宮崎県串間市",
        "施設・場所名": "ゆうゆうの森",
        "住所": "宮崎県串間市大字串間1094",
        "指定緊急避難場所との住所同一": "",
        "その他市町村長が必要と認める事項": null,
        "受入対象者": null,
        "備考": ""
      }
    },
    {
      "type": "Feature",
      "geometry": {
        "type": "Point",
        "coordinates": [
          131.24583,
          31.487459
        ]
      },
      "properties": {
        "NO": 79012,
        "共通ID": "E4520700006111",
        "都道府県名及び市町村名": "宮崎県串間市",
        "施設・場所名": "西上池公民館",
        "住所": "宮崎県串間市大字串間西上池",
        "指定緊急避難場所との住所同一": "",
        "その他市町村長が必要と認める事項": null,
        "受入対象者": null,
        "備考": ""
      }
    },
    {
      "type": "Feature",
      "geometry": {
        "type": "Point",
        "coordinates": [
          131.24703,
          31.488873
        ]
      },
      "properties": {
        "NO": 79013,
        "共通ID": "E4520700099111",
        "都道府県名及び市町村名": "宮崎県串間市",
        "施設・場所名": "東上池集落センター",
        "住所": "宮崎県串間市大字串間東上池",
        "指定緊急避難場所との住所同一": "",
        "その他市町村長が必要と認める事項": null,
        "受入対象者": null,
        "備考": ""
      }
    },
    {
      "type": "Feature",
      "geometry": {
        "type": "Point",
        "coordinates": [
          131.177455,
          31.456803
        ]
      },
      "properties": {
        "NO": 79014,
        "共通ID": "E4520700008111",
        "都道府県名及び市町村名": "宮崎県串間市",
        "施設・場所名": "高松公民館",
        "住所": "宮崎県串間市大字高松高松",
        "指定緊急避難場所との住所同一": "",
        "その他市町村長が必要と認める事項": null,
        "受入対象者": null,
        "備考": ""
      }
    },
    {
      "type": "Feature",
      "geometry": {
        "type": "Point",
        "coordinates": [
          131.245856,
          31.404005
        ]
      },
      "properties": {
        "NO": 79015,
        "共通ID": "E4520700009111",
        "都道府県名及び市町村名": "宮崎県串間市",
        "施設・場所名": "永田公民館",
        "住所": "宮崎県串間市大字崎田永田",
        "指定緊急避難場所との住所同一": "",
        "その他市町村長が必要と認める事項": null,
        "受入対象者": null,
        "備考": ""
      }
    },
    {
      "type": "Feature",
      "geometry": {
        "type": "Point",
        "coordinates": [
          131.243059,
          31.417744
        ]
      },
      "properties": {
        "NO": 79016,
        "共通ID": "E4520700010111",
        "都道府県名及び市町村名": "宮崎県串間市",
        "施設・場所名": "崎田多目的集会施設",
        "住所": "宮崎県串間市大字崎田上南",
        "指定緊急避難場所との住所同一": "",
        "その他市町村長が必要と認める事項": null,
        "受入対象者": null,
        "備考": ""
      }
    },
    {
      "type": "Feature",
      "geometry": {
        "type": "Point",
        "coordinates": [
          131.344121,
          31.461158
        ]
      },
      "properties": {
        "NO": 79017,
        "共通ID": "E4520700012111",
        "都道府県名及び市町村名": "宮崎県串間市",
        "施設・場所名": "旧市木中学校",
        "住所": "宮崎県串間市大字市木1835",
        "指定緊急避難場所との住所同一": "1",
        "その他市町村長が必要と認める事項": null,
        "受入対象者": null,
        "備考": ""
      }
    },
    {
      "type": "Feature",
      "geometry": {
        "type": "Point",
        "coordinates": [
          131.342642,
          31.464214
        ]
      },
      "properties": {
        "NO": 79018,
        "共通ID": "E4520700013111",
        "都道府県名及び市町村名": "宮崎県串間市",
        "施設・場所名": "市木小学校",
        "住所": "宮崎県串間市大字市木7295",
        "指定緊急避難場所との住所同一": "1",
        "その他市町村長が必要と認める事項": null,
        "受入対象者": null,
        "備考": ""
      }
    },
    {
      "type": "Feature",
      "geometry": {
        "type": "Point",
        "coordinates": [
          131.343562,
          31.464634
        ]
      },
      "properties": {
        "NO": 79019,
        "共通ID": "E4520700014111",
        "都道府県名及び市町村名": "宮崎県串間市",
        "施設・場所名": "串間市市木公民館",
        "住所": "宮崎県串間市大字市木7350-7",
        "指定緊急避難場所との住所同一": "",
        "その他市町村長が必要と認める事項": null,
        "受入対象者": null,
        "備考": ""
      }
    },
    {
      "type": "Feature",
      "geometry": {
        "type": "Point",
        "coordinates": [
          131.346328,
          31.464604
        ]
      },
      "properties": {
        "NO": 79020,
        "共通ID": "E4520700015111",
        "都道府県名及び市町村名": "宮崎県串間市",
        "施設・場所名": "市木支所",
        "住所": "宮崎県串間市大字市木7375-1",
        "指定緊急避難場所との住所同一": "",
        "その他市町村長が必要と認める事項": null,
        "受入対象者": null,
        "備考": ""
      }
    },
    {
      "type": "Feature",
      "geometry": {
        "type": "Point",
        "coordinates": [
          131.349071,
          31.473367
        ]
      },
      "properties": {
        "NO": 79021,
        "共通ID": "E4520700016111",
        "都道府県名及び市町村名": "宮崎県串間市",
        "施設・場所名": "海北公民館",
        "住所": "宮崎県串間市大字市木海北",
        "指定緊急避難場所との住所同一": "",
        "その他市町村長が必要と認める事項": null,
        "受入対象者": null,
        "備考": ""
      }
    },
    {
      "type": "Feature",
      "geometry": {
        "type": "Point",
        "coordinates": [
          131.327757,
          31.484447
        ]
      },
      "properties": {
        "NO": 79022,
        "共通ID": "E4520700017111",
        "都道府県名及び市町村名": "宮崎県串間市",
        "施設・場所名": "郡司部公民館",
        "住所": "宮崎県串間市大字市木郡司部",
        "指定緊急避難場所との住所同一": "",
        "その他市町村長が必要と認める事項": null,
        "受入対象者": null,
        "備考": ""
      }
    },
    {
      "type": "Feature",
      "geometry": {
        "type": "Point",
        "coordinates": [
          131.332558,
          31.464449
        ]
      },
      "properties": {
        "NO": 79023,
        "共通ID": "E4520700018111",
        "都道府県名及び市町村名": "宮崎県串間市",
        "施設・場所名": "石原公民館",
        "住所": "宮崎県串間市大字市木石原",
        "指定緊急避難場所との住所同一": "",
        "その他市町村長が必要と認める事項": null,
        "受入対象者": null,
        "備考": ""
      }
    },
    {
      "type": "Feature",
      "geometry": {
        "type": "Point",
        "coordinates": [
          131.363642,
          31.455056
        ]
      },
      "properties": {
        "NO": 79024,
        "共通ID": "E4520700019111",
        "都道府県名及び市町村名": "宮崎県串間市",
        "施設・場所名": "石波公民館",
        "住所": "宮崎県串間市大字市木石波",
        "指定緊急避難場所との住所同一": "",
        "その他市町村長が必要と認める事項": null,
        "受入対象者": null,
        "備考": ""
      }
    },
    {
      "type": "Feature",
      "geometry": {
        "type": "Point",
        "coordinates": [
          131.388256,
          31.477401
        ]
      },
      "properties": {
        "NO": 79025,
        "共通ID": "E4520700020111",
        "都道府県名及び市町村名": "宮崎県串間市",
        "施設・場所名": "築島集会所",
        "住所": "宮崎県串間市大字市木築島",
        "指定緊急避難場所との住所同一": "",
        "その他市町村長が必要と認める事項": null,
        "受入対象者": null,
        "備考": ""
      }
    },
    {
      "type": "Feature",
      "geometry": {
        "type": "Point",
        "coordinates": [
          131.357632,
          31.468255
        ]
      },
      "properties": {
        "NO": 79026,
        "共通ID": "E4520700021111",
        "都道府県名及び市町村名": "宮崎県串間市",
        "施設・場所名": "藤公民館",
        "住所": "宮崎県串間市大字市木藤",
        "指定緊急避難場所との住所同一": "",
        "その他市町村長が必要と認める事項": null,
        "受入対象者": null,
        "備考": ""
      }
    },
    {
      "type": "Feature",
      "geometry": {
        "type": "Point",
        "coordinates": [
          131.338494,
          31.461185
        ]
      },
      "properties": {
        "NO": 79027,
        "共通ID": "E4520700022111",
        "都道府県名及び市町村名": "宮崎県串間市",
        "施設・場所名": "内ノ畑集落センター",
        "住所": "宮崎県串間市大字市木内ノ畑",
        "指定緊急避難場所との住所同一": "",
        "その他市町村長が必要と認める事項": null,
        "受入対象者": null,
        "備考": ""
      }
    },
    {
      "type": "Feature",
      "geometry": {
        "type": "Point",
        "coordinates": [
          131.384843,
          31.482034
        ]
      },
      "properties": {
        "NO": 79028,
        "共通ID": "E4520700023111",
        "都道府県名及び市町村名": "宮崎県串間市",
        "施設・場所名": "漁民研修センター",
        "住所": "宮崎県串間市大字市木舳",
        "指定緊急避難場所との住所同一": "",
        "その他市町村長が必要と認める事項": null,
        "受入対象者": null,
        "備考": ""
      }
    },
    {
      "type": "Feature",
      "geometry": {
        "type": "Point",
        "coordinates": [
          131.266287,
          31.500892
        ]
      },
      "properties": {
        "NO": 79029,
        "共通ID": "E4520700024111",
        "都道府県名及び市町村名": "宮崎県串間市",
        "施設・場所名": "秋山小学校",
        "住所": "宮崎県串間市大字秋山2485",
        "指定緊急避難場所との住所同一": "1",
        "その他市町村長が必要と認める事項": null,
        "受入対象者": null,
        "備考": ""
      }
    },
    {
      "type": "Feature",
      "geometry": {
        "type": "Point",
        "coordinates": [
          131.235829,
          31.495236
        ]
      },
      "properties": {
        "NO": 79030,
        "共通ID": "E4520700002121",
        "都道府県名及び市町村名": "宮崎県串間市",
        "施設・場所名": "さつき園",
        "住所": "宮崎県串間市大字西方1213",
        "指定緊急避難場所との住所同一": "",
        "その他市町村長が必要と認める事項": null,
        "受入対象者": null,
        "備考": ""
      }
    },
    {
      "type": "Feature",
      "geometry": {
        "type": "Point",
        "coordinates": [
          131.204727,
          31.456726
        ]
      },
      "properties": {
        "NO": 79031,
        "共通ID": "E4520700026111",
        "都道府県名及び市町村名": "宮崎県串間市",
        "施設・場所名": "有明小学校",
        "住所": "宮崎県串間市大字西方15077-2",
        "指定緊急避難場所との住所同一": "1",
        "その他市町村長が必要と認める事項": null,
        "受入対象者": null,
        "備考": ""
      }
    },
    {
      "type": "Feature",
      "geometry": {
        "type": "Point",
        "coordinates": [
          131.233309,
          31.46935
        ]
      },
      "properties": {
        "NO": 79032,
        "共通ID": "E4520700027111",
        "都道府県名及び市町村名": "宮崎県串間市",
        "施設・場所名": "福島高校",
        "住所": "宮崎県串間市大字西方4015",
        "指定緊急避難場所との住所同一": "1",
        "その他市町村長が必要と認める事項": null,
        "受入対象者": null,
        "備考": ""
      }
    },
    {
      "type": "Feature",
      "geometry": {
        "type": "Point",
        "coordinates": [
          131.230819,
          31.468431
        ]
      },
      "properties": {
        "NO": 79033,
        "共通ID": "E4520700028111",
        "都道府県名及び市町村名": "宮崎県串間市",
        "施設・場所名": "福島小学校",
        "住所": "宮崎県串間市大字西方4148",
        "指定緊急避難場所との住所同一": "1",
        "その他市町村長が必要と認める事項": null,
        "受入対象者": null,
        "備考": ""
      }
    },
    {
      "type": "Feature",
      "geometry": {
        "type": "Point",
        "coordinates": [
          131.229268,
          31.469757
        ]
      },
      "properties": {
        "NO": 79034,
        "共通ID": "E4520700004121",
        "都道府県名及び市町村名": "宮崎県串間市",
        "施設・場所名": "寿楽園",
        "住所": "宮崎県串間市大字西方4341-1",
        "指定緊急避難場所との住所同一": "",
        "その他市町村長が必要と認める事項": null,
        "受入対象者": null,
        "備考": ""
      }
    },
    {
      "type": "Feature",
      "geometry": {
        "type": "Point",
        "coordinates": [
          131.228553,
          31.464578
        ]
      },
      "properties": {
        "NO": 79035,
        "共通ID": "E4520700030111",
        "都道府県名及び市町村名": "宮崎県串間市",
        "施設・場所名": "串間市役所",
        "住所": "宮崎県串間市大字西方5550",
        "指定緊急避難場所との住所同一": "",
        "その他市町村長が必要と認める事項": null,
        "受入対象者": null,
        "備考": ""
      }
    },
    {
      "type": "Feature",
      "geometry": {
        "type": "Point",
        "coordinates": [
          131.228971,
          31.461851
        ]
      },
      "properties": {
        "NO": 79036,
        "共通ID": "E4520700031111",
        "都道府県名及び市町村名": "宮崎県串間市",
        "施設・場所名": "シティプラザエクセレントビル",
        "住所": "宮崎県串間市大字西方6563-1",
        "指定緊急避難場所との住所同一": "",
        "その他市町村長が必要と認める事項": null,
        "受入対象者": null,
        "備考": ""
      }
    },
    {
      "type": "Feature",
      "geometry": {
        "type": "Point",
        "coordinates": [
          131.227778,
          31.459969
        ]
      },
      "properties": {
        "NO": 79037,
        "共通ID": "E4520700032111",
        "都道府県名及び市町村名": "宮崎県串間市",
        "施設・場所名": "メゾン谷口",
        "住所": "宮崎県串間市大字西方6628-1",
        "指定緊急避難場所との住所同一": "",
        "その他市町村長が必要と認める事項": null,
        "受入対象者": null,
        "備考": ""
      }
    },
    {
      "type": "Feature",
      "geometry": {
        "type": "Point",
        "coordinates": [
          131.218455,
          31.45862
        ]
      },
      "properties": {
        "NO": 79038,
        "共通ID": "E4520700033111",
        "都道府県名及び市町村名": "宮崎県串間市",
        "施設・場所名": "正国寺",
        "住所": "宮崎県串間市大字西方7009",
        "指定緊急避難場所との住所同一": "",
        "その他市町村長が必要と認める事項": null,
        "受入対象者": null,
        "備考": ""
      }
    },
    {
      "type": "Feature",
      "geometry": {
        "type": "Point",
        "coordinates": [
          131.220049,
          31.458583
        ]
      },
      "properties": {
        "NO": 79039,
        "共通ID": "E4520700034111",
        "都道府県名及び市町村名": "宮崎県串間市",
        "施設・場所名": "寺里団地",
        "住所": "宮崎県串間市大字西方7264-6",
        "指定緊急避難場所との住所同一": "",
        "その他市町村長が必要と認める事項": null,
        "受入対象者": null,
        "備考": ""
      }
    },
    {
      "type": "Feature",
      "geometry": {
        "type": "Point",
        "coordinates": [
          131.225849,
          31.461475
        ]
      },
      "properties": {
        "NO": 79040,
        "共通ID": "E4520700035111",
        "都道府県名及び市町村名": "宮崎県串間市",
        "施設・場所名": "本町かんな住宅",
        "住所": "宮崎県串間市大字西方7314",
        "指定緊急避難場所との住所同一": "",
        "その他市町村長が必要と認める事項": null,
        "受入対象者": null,
        "備考": ""
      }
    },
    {
      "type": "Feature",
      "geometry": {
        "type": "Point",
        "coordinates": [
          131.226427,
          31.474076
        ]
      },
      "properties": {
        "NO": 79041,
        "共通ID": "E4520700036111",
        "都道府県名及び市町村名": "宮崎県串間市",
        "施設・場所名": "串間中学校",
        "住所": "宮崎県串間市大字西方8607",
        "指定緊急避難場所との住所同一": "1",
        "その他市町村長が必要と認める事項": null,
        "受入対象者": null,
        "備考": ""
      }
    },
    {
      "type": "Feature",
      "geometry": {
        "type": "Point",
        "coordinates": [
          131.218996,
          31.4648
        ]
      },
      "properties": {
        "NO": 79042,
        "共通ID": "E4520700037112",
        "都道府県名及び市町村名": "宮崎県串間市",
        "施設・場所名": "市総合体育館",
        "住所": "宮崎県串間市大字西方9050",
        "指定緊急避難場所との住所同一": "",
        "その他市町村長が必要と認める事項": null,
        "受入対象者": null,
        "備考": ""
      }
    },
    {
      "type": "Feature",
      "geometry": {
        "type": "Point",
        "coordinates": [
          131.236023,
          31.500124
        ]
      },
      "properties": {
        "NO": 79043,
        "共通ID": "E4520700039111",
        "都道府県名及び市町村名": "宮崎県串間市",
        "施設・場所名": "桂原地区研修センター",
        "住所": "宮崎県串間市大字西方桂原",
        "指定緊急避難場所との住所同一": "",
        "その他市町村長が必要と認める事項": null,
        "受入対象者": null,
        "備考": ""
      }
    },
    {
      "type": "Feature",
      "geometry": {
        "type": "Point",
        "coordinates": [
          131.222613,
          31.468217
        ]
      },
      "properties": {
        "NO": 79044,
        "共通ID": "E4520700040111",
        "都道府県名及び市町村名": "宮崎県串間市",
        "施設・場所名": "松尾集落センター",
        "住所": "宮崎県串間市大字西方松尾",
        "指定緊急避難場所との住所同一": "",
        "その他市町村長が必要と認める事項": null,
        "受入対象者": null,
        "備考": ""
      }
    },
    {
      "type": "Feature",
      "geometry": {
        "type": "Point",
        "coordinates": [
          131.232594,
          31.491733
        ]
      },
      "properties": {
        "NO": 79045,
        "共通ID": "E4520700041111",
        "都道府県名及び市町村名": "宮崎県串間市",
        "施設・場所名": "穂佐ヶ原研修施設",
        "住所": "宮崎県串間市大字西方穂佐ケ原",
        "指定緊急避難場所との住所同一": "",
        "その他市町村長が必要と認める事項": null,
        "受入対象者": null,
        "備考": ""
      }
    },
    {
      "type": "Feature",
      "geometry": {
        "type": "Point",
        "coordinates": [
          131.231316,
          31.479837
        ]
      },
      "properties": {
        "NO": 79046,
        "共通ID": "E4520700042111",
        "都道府県名及び市町村名": "宮崎県串間市",
        "施設・場所名": "霧島地区集落センター",
        "住所": "宮崎県串間市大字西方霧島",
        "指定緊急避難場所との住所同一": "",
        "その他市町村長が必要と認める事項": null,
        "受入対象者": null,
        "備考": ""
      }
    },
    {
      "type": "Feature",
      "geometry": {
        "type": "Point",
        "coordinates": [
          131.244943,
          31.560833
        ]
      },
      "properties": {
        "NO": 79047,
        "共通ID": "E4520700044111",
        "都道府県名及び市町村名": "宮崎県串間市",
        "施設・場所名": "大平小学校",
        "住所": "宮崎県串間市大字大平1881",
        "指定緊急避難場所との住所同一": "1",
        "その他市町村長が必要と認める事項": null,
        "受入対象者": null,
        "備考": ""
      }
    },
    {
      "type": "Feature",
      "geometry": {
        "type": "Point",
        "coordinates": [
          131.23514,
          31.523458
        ]
      },
      "properties": {
        "NO": 79048,
        "共通ID": "E4520700045111",
        "都道府県名及び市町村名": "宮崎県串間市",
        "施設・場所名": "旧大束中学校",
        "住所": "宮崎県串間市大字大平5714",
        "指定緊急避難場所との住所同一": "1",
        "その他市町村長が必要と認める事項": null,
        "受入対象者": null,
        "備考": ""
      }
    },
    {
      "type": "Feature",
      "geometry": {
        "type": "Point",
        "coordinates": [
          131.236314,
          31.525024
        ]
      },
      "properties": {
        "NO": 79049,
        "共通ID": "E4520700046112",
        "都道府県名及び市町村名": "宮崎県串間市",
        "施設・場所名": "大束小学校",
        "住所": "宮崎県串間市大字大平5715",
        "指定緊急避難場所との住所同一": "1",
        "その他市町村長が必要と認める事項": null,
        "受入対象者": null,
        "備考": ""
      }
    },
    {
      "type": "Feature",
      "geometry": {
        "type": "Point",
        "coordinates": [
          131.250448,
          31.508246
        ]
      },
      "properties": {
        "NO": 79050,
        "共通ID": "E4520700046111",
        "都道府県名及び市町村名": "宮崎県串間市",
        "施設・場所名": "石木田公民館",
        "住所": "宮崎県串間市大字大平5715",
        "指定緊急避難場所との住所同一": "1",
        "その他市町村長が必要と認める事項": null,
        "受入対象者": null,
        "備考": ""
      }
    },
    {
      "type": "Feature",
      "geometry": {
        "type": "Point",
        "coordinates": [
          131.238153,
          31.503072
        ]
      },
      "properties": {
        "NO": 79051,
        "共通ID": "E4520700047111",
        "都道府県名及び市町村名": "宮崎県串間市",
        "施設・場所名": "井牟田公民館",
        "住所": "宮崎県串間市大字大平井牟田",
        "指定緊急避難場所との住所同一": "",
        "その他市町村長が必要と認める事項": null,
        "受入対象者": null,
        "備考": ""
      }
    },
    {
      "type": "Feature",
      "geometry": {
        "type": "Point",
        "coordinates": [
          131.244609,
          31.564719
        ]
      },
      "properties": {
        "NO": 79052,
        "共通ID": "E4520700048111",
        "都道府県名及び市町村名": "宮崎県串間市",
        "施設・場所名": "広野集落センター",
        "住所": "宮崎県串間市大字大平広野",
        "指定緊急避難場所との住所同一": "",
        "その他市町村長が必要と認める事項": null,
        "受入対象者": null,
        "備考": ""
      }
    },
    {
      "type": "Feature",
      "geometry": {
        "type": "Point",
        "coordinates": [
          131.241474,
          31.536815
        ]
      },
      "properties": {
        "NO": 79053,
        "共通ID": "E4520700049111",
        "都道府県名及び市町村名": "宮崎県串間市",
        "施設・場所名": "高則集落センター",
        "住所": "宮崎県串間市大字大平高則",
        "指定緊急避難場所との住所同一": "",
        "その他市町村長が必要と認める事項": null,
        "受入対象者": null,
        "備考": ""
      }
    },
    {
      "type": "Feature",
      "geometry": {
        "type": "Point",
        "coordinates": [
          131.228664,
          31.516666
        ]
      },
      "properties": {
        "NO": 79054,
        "共通ID": "E4520700050111",
        "都道府県名及び市町村名": "宮崎県串間市",
        "施設・場所名": "市ノ瀬公民館",
        "住所": "宮崎県串間市大字大平市ノ瀬",
        "指定緊急避難場所との住所同一": "",
        "その他市町村長が必要と認める事項": null,
        "受入対象者": null,
        "備考": ""
      }
    },
    {
      "type": "Feature",
      "geometry": {
        "type": "Point",
        "coordinates": [
          131.249601,
          31.558786
        ]
      },
      "properties": {
        "NO": 79055,
        "共通ID": "E4520700051111",
        "都道府県名及び市町村名": "宮崎県串間市",
        "施設・場所名": "大平集落センター",
        "住所": "宮崎県串間市大字大平大平",
        "指定緊急避難場所との住所同一": "",
        "その他市町村長が必要と認める事項": null,
        "受入対象者": null,
        "備考": ""
      }
    },
    {
      "type": "Feature",
      "geometry": {
        "type": "Point",
        "coordinates": [
          131.249298,
          31.555678
        ]
      },
      "properties": {
        "NO": 79056,
        "共通ID": "E4520700052111",
        "都道府県名及び市町村名": "宮崎県串間市",
        "施設・場所名": "中原営農研修施設",
        "住所": "宮崎県串間市大字大平中原",
        "指定緊急避難場所との住所同一": "",
        "その他市町村長が必要と認める事項": null,
        "受入対象者": null,
        "備考": ""
      }
    },
    {
      "type": "Feature",
      "geometry": {
        "type": "Point",
        "coordinates": [
          131.237099,
          31.526338
        ]
      },
      "properties": {
        "NO": 79057,
        "共通ID": "E4520700053111",
        "都道府県名及び市町村名": "宮崎県串間市",
        "施設・場所名": "揚原集落センター",
        "住所": "宮崎県串間市大字大平揚原",
        "指定緊急避難場所との住所同一": "",
        "その他市町村長が必要と認める事項": null,
        "受入対象者": null,
        "備考": ""
      }
    },
    {
      "type": "Feature",
      "geometry": {
        "type": "Point",
        "coordinates": [
          131.202298,
          31.562473
        ]
      },
      "properties": {
        "NO": 79058,
        "共通ID": "E4520700054111",
        "都道府県名及び市町村名": "宮崎県串間市",
        "施設・場所名": "赤池活性化センター",
        "住所": "宮崎県串間市大字大矢取608",
        "指定緊急避難場所との住所同一": "",
        "その他市町村長が必要と認める事項": null,
        "受入対象者": null,
        "備考": ""
      }
    },
    {
      "type": "Feature",
      "geometry": {
        "type": "Point",
        "coordinates": [
          131.21179,
          31.587859
        ]
      },
      "properties": {
        "NO": 79059,
        "共通ID": "E4520700055111",
        "都道府県名及び市町村名": "宮崎県串間市",
        "施設・場所名": "上大矢取公民館",
        "住所": "宮崎県串間市大字大矢取大矢取",
        "指定緊急避難場所との住所同一": "",
        "その他市町村長が必要と認める事項": null,
        "受入対象者": null,
        "備考": ""
      }
    },
    {
      "type": "Feature",
      "geometry": {
        "type": "Point",
        "coordinates": [
          131.305608,
          31.397487
        ]
      },
      "properties": {
        "NO": 79060,
        "共通ID": "E4520700056111",
        "都道府県名及び市町村名": "宮崎県串間市",
        "施設・場所名": "都井基幹集落センター",
        "住所": "宮崎県串間市大字都井2157",
        "指定緊急避難場所との住所同一": "",
        "その他市町村長が必要と認める事項": null,
        "受入対象者": null,
        "備考": ""
      }
    },
    {
      "type": "Feature",
      "geometry": {
        "type": "Point",
        "coordinates": [
          131.305961,
          31.398821
        ]
      },
      "properties": {
        "NO": 79061,
        "共通ID": "E4520700057111",
        "都道府県名及び市町村名": "宮崎県串間市",
        "施設・場所名": "都井小学校",
        "住所": "宮崎県串間市大字都井2257-1",
        "指定緊急避難場所との住所同一": "1",
        "その他市町村長が必要と認める事項": null,
        "受入対象者": null,
        "備考": ""
      }
    },
    {
      "type": "Feature",
      "geometry": {
        "type": "Point",
        "coordinates": [
          131.317674,
          31.392607
        ]
      },
      "properties": {
        "NO": 79062,
        "共通ID": "E4520700058111",
        "都道府県名及び市町村名": "宮崎県串間市",
        "施設・場所名": "旧都井中学校",
        "住所": "宮崎県串間市大字都井4766",
        "指定緊急避難場所との住所同一": "1",
        "その他市町村長が必要と認める事項": null,
        "受入対象者": null,
        "備考": ""
      }
    },
    {
      "type": "Feature",
      "geometry": {
        "type": "Point",
        "coordinates": [
          131.291427,
          31.389896
        ]
      },
      "properties": {
        "NO": 79063,
        "共通ID": "E4520700059111",
        "都道府県名及び市町村名": "宮崎県串間市",
        "施設・場所名": "黒井公民館",
        "住所": "宮崎県串間市大字都井黒井",
        "指定緊急避難場所との住所同一": "",
        "その他市町村長が必要と認める事項": null,
        "受入対象者": null,
        "備考": ""
      }
    },
    {
      "type": "Feature",
      "geometry": {
        "type": "Point",
        "coordinates": [
          131.185483,
          31.500408
        ]
      },
      "properties": {
        "NO": 79064,
        "共通ID": "E4520700060111",
        "都道府県名及び市町村名": "宮崎県串間市",
        "施設・場所名": "笠祇小学校",
        "住所": "宮崎県串間市大字奴久見1297",
        "指定緊急避難場所との住所同一": "1",
        "その他市町村長が必要と認める事項": null,
        "受入対象者": null,
        "備考": ""
      }
    },
    {
      "type": "Feature",
      "geometry": {
        "type": "Point",
        "coordinates": [
          131.260895,
          31.529889
        ]
      },
      "properties": {
        "NO": 79065,
        "共通ID": "E4520700061111",
        "都道府県名及び市町村名": "宮崎県串間市",
        "施設・場所名": "虎渓寺",
        "住所": "宮崎県串間市大字奈留1704",
        "指定緊急避難場所との住所同一": "",
        "その他市町村長が必要と認める事項": null,
        "受入対象者": null,
        "備考": ""
      }
    },
    {
      "type": "Feature",
      "geometry": {
        "type": "Point",
        "coordinates": [
          131.247763,
          31.511261
        ]
      },
      "properties": {
        "NO": 79066,
        "共通ID": "E4520700062111",
        "都道府県名及び市町村名": "宮崎県串間市",
        "施設・場所名": "串間市大束公民館",
        "住所": "宮崎県串間市大字奈留5225-1",
        "指定緊急避難場所との住所同一": "",
        "その他市町村長が必要と認める事項": null,
        "受入対象者": null,
        "備考": ""
      }
    },
    {
      "type": "Feature",
      "geometry": {
        "type": "Point",
        "coordinates": [
          131.246655,
          31.513361
        ]
      },
      "properties": {
        "NO": 79067,
        "共通ID": "E4520700005111",
        "都道府県名及び市町村名": "宮崎県串間市",
        "施設・場所名": "長寿の里",
        "住所": "宮崎県串間市大字奈留5298-3",
        "指定緊急避難場所との住所同一": "",
        "その他市町村長が必要と認める事項": null,
        "受入対象者": null,
        "備考": ""
      }
    },
    {
      "type": "Feature",
      "geometry": {
        "type": "Point",
        "coordinates": [
          131.245346,
          31.512524
        ]
      },
      "properties": {
        "NO": 79068,
        "共通ID": "E4520700064111",
        "都道府県名及び市町村名": "宮崎県串間市",
        "施設・場所名": "下園田研修施設",
        "住所": "宮崎県串間市大字奈留5490-1",
        "指定緊急避難場所との住所同一": "",
        "その他市町村長が必要と認める事項": null,
        "受入対象者": null,
        "備考": ""
      }
    },
    {
      "type": "Feature",
      "geometry": {
        "type": "Point",
        "coordinates": [
          131.252931,
          31.513533
        ]
      },
      "properties": {
        "NO": 79069,
        "共通ID": "E4520700065111",
        "都道府県名及び市町村名": "宮崎県串間市",
        "施設・場所名": "烏帽子野公民館",
        "住所": "宮崎県串間市大字奈留烏帽子野",
        "指定緊急避難場所との住所同一": "",
        "その他市町村長が必要と認める事項": null,
        "受入対象者": null,
        "備考": ""
      }
    },
    {
      "type": "Feature",
      "geometry": {
        "type": "Point",
        "coordinates": [
          131.246174,
          31.506798
        ]
      },
      "properties": {
        "NO": 79070,
        "共通ID": "E4520700066111",
        "都道府県名及び市町村名": "宮崎県串間市",
        "施設・場所名": "小山集落センター",
        "住所": "宮崎県串間市大字奈留小山",
        "指定緊急避難場所との住所同一": "",
        "その他市町村長が必要と認める事項": null,
        "受入対象者": null,
        "備考": ""
      }
    },
    {
      "type": "Feature",
      "geometry": {
        "type": "Point",
        "coordinates": [
          131.245174,
          31.514598
        ]
      },
      "properties": {
        "NO": 79071,
        "共通ID": "E4520700067111",
        "都道府県名及び市町村名": "宮崎県串間市",
        "施設・場所名": "上園田集落センター",
        "住所": "宮崎県串間市大字奈留上園田",
        "指定緊急避難場所との住所同一": "",
        "その他市町村長が必要と認める事項": null,
        "受入対象者": null,
        "備考": ""
      }
    },
    {
      "type": "Feature",
      "geometry": {
        "type": "Point",
        "coordinates": [
          131.248079,
          31.518428
        ]
      },
      "properties": {
        "NO": 79072,
        "共通ID": "E4520700068111",
        "都道府県名及び市町村名": "宮崎県串間市",
        "施設・場所名": "西ノ園集落センター",
        "住所": "宮崎県串間市大字奈留西ノ園",
        "指定緊急避難場所との住所同一": "",
        "その他市町村長が必要と認める事項": null,
        "受入対象者": null,
        "備考": ""
      }
    },
    {
      "type": "Feature",
      "geometry": {
        "type": "Point",
        "coordinates": [
          131.269195,
          31.529565
        ]
      },
      "properties": {
        "NO": 79073,
        "共通ID": "E4520700069111",
        "都道府県名及び市町村名": "宮崎県串間市",
        "施設・場所名": "仲別府営農研修施設",
        "住所": "宮崎県串間市大字奈留仲別府",
        "指定緊急避難場所との住所同一": "",
        "その他市町村長が必要と認める事項": null,
        "受入対象者": null,
        "備考": ""
      }
    },
    {
      "type": "Feature",
      "geometry": {
        "type": "Point",
        "coordinates": [
          131.250797,
          31.518931
        ]
      },
      "properties": {
        "NO": 79074,
        "共通ID": "E4520700070111",
        "都道府県名及び市町村名": "宮崎県串間市",
        "施設・場所名": "堂園集落センター",
        "住所": "宮崎県串間市大字奈留堂園",
        "指定緊急避難場所との住所同一": "",
        "その他市町村長が必要と認める事項": null,
        "受入対象者": null,
        "備考": ""
      }
    },
    {
      "type": "Feature",
      "geometry": {
        "type": "Point",
        "coordinates": [
          131.249808,
          31.500182
        ]
      },
      "properties": {
        "NO": 79075,
        "共通ID": "E4520700071111",
        "都道府県名及び市町村名": "宮崎県串間市",
        "施設・場所名": "徳山公民館",
        "住所": "宮崎県串間市大字奈留徳山",
        "指定緊急避難場所との住所同一": "",
        "その他市町村長が必要と認める事項": null,
        "受入対象者": null,
        "備考": ""
      }
    },
    {
      "type": "Feature",
      "geometry": {
        "type": "Point",
        "coordinates": [
          131.256102,
          31.502907
        ]
      },
      "properties": {
        "NO": 79076,
        "共通ID": "E4520700072111",
        "都道府県名及び市町村名": "宮崎県串間市",
        "施設・場所名": "白坂公民館",
        "住所": "宮崎県串間市大字奈留白坂",
        "指定緊急避難場所との住所同一": "",
        "その他市町村長が必要と認める事項": null,
        "受入対象者": null,
        "備考": ""
      }
    },
    {
      "type": "Feature",
      "geometry": {
        "type": "Point",
        "coordinates": [
          131.225888,
          31.441022
        ]
      },
      "properties": {
        "NO": 79077,
        "共通ID": "E4520700001112",
        "都道府県名及び市町村名": "宮崎県串間市",
        "施設・場所名": "あすか園",
        "住所": "宮崎県串間市大字南方3431-5",
        "指定緊急避難場所との住所同一": "",
        "その他市町村長が必要と認める事項": null,
        "受入対象者": null,
        "備考": ""
      }
    },
    {
      "type": "Feature",
      "geometry": {
        "type": "Point",
        "coordinates": [
          131.216076,
          31.4438
        ]
      },
      "properties": {
        "NO": 79078,
        "共通ID": "E4520700074111",
        "都道府県名及び市町村名": "宮崎県串間市",
        "施設・場所名": "望洋の郷",
        "住所": "宮崎県串間市大字南方4201-1",
        "指定緊急避難場所との住所同一": "",
        "その他市町村長が必要と認める事項": null,
        "受入対象者": null,
        "備考": ""
      }
    },
    {
      "type": "Feature",
      "geometry": {
        "type": "Point",
        "coordinates": [
          131.216076,
          31.4438
        ]
      },
      "properties": {
        "NO": 79079,
        "共通ID": "E4520700074121",
        "都道府県名及び市町村名": "宮崎県串間市",
        "施設・場所名": "望洋の郷",
        "住所": "宮崎県串間市大字南方4201-1",
        "指定緊急避難場所との住所同一": "",
        "その他市町村長が必要と認める事項": null,
        "受入対象者": null,
        "備考": ""
      }
    },
    {
      "type": "Feature",
      "geometry": {
        "type": "Point",
        "coordinates": [
          131.216076,
          31.4438
        ]
      },
      "properties": {
        "NO": 79080,
        "共通ID": "E4520700074112",
        "都道府県名及び市町村名": "宮崎県串間市",
        "施設・場所名": "望洋の郷",
        "住所": "宮崎県串間市大字南方4201-1",
        "指定緊急避難場所との住所同一": "",
        "その他市町村長が必要と認める事項": "",
        "受入対象者": "",
        "備考": ""
      }
    },
    {
      "type": "Feature",
      "geometry": {
        "type": "Point",
        "coordinates": [
          131.212917,
          31.445599
        ]
      },
      "properties": {
        "NO": 79081,
        "共通ID": "E4520700075111",
        "都道府県名及び市町村名": "宮崎県串間市",
        "施設・場所名": "金谷小学校",
        "住所": "宮崎県串間市大字南方4438",
        "指定緊急避難場所との住所同一": "1",
        "その他市町村長が必要と認める事項": null,
        "受入対象者": null,
        "備考": ""
      }
    },
    {
      "type": "Feature",
      "geometry": {
        "type": "Point",
        "coordinates": [
          131.223543,
          31.441902
        ]
      },
      "properties": {
        "NO": 79082,
        "共通ID": "E4520700076111",
        "都道府県名及び市町村名": "宮崎県串間市",
        "施設・場所名": "下弓田公民館",
        "住所": "宮崎県串間市大字南方下弓田",
        "指定緊急避難場所との住所同一": "",
        "その他市町村長が必要と認める事項": null,
        "受入対象者": null,
        "備考": ""
      }
    },
    {
      "type": "Feature",
      "geometry": {
        "type": "Point",
        "coordinates": [
          131.243835,
          31.482204
        ]
      },
      "properties": {
        "NO": 79083,
        "共通ID": "E4520700077111",
        "都道府県名及び市町村名": "宮崎県串間市",
        "施設・場所名": "北方農村研修センター",
        "住所": "宮崎県串間市大字北方1466-1",
        "指定緊急避難場所との住所同一": "",
        "その他市町村長が必要と認める事項": null,
        "受入対象者": null,
        "備考": ""
      }
    },
    {
      "type": "Feature",
      "geometry": {
        "type": "Point",
        "coordinates": [
          131.253113,
          31.481302
        ]
      },
      "properties": {
        "NO": 79084,
        "共通ID": "E4520700007112",
        "都道府県名及び市町村名": "宮崎県串間市",
        "施設・場所名": "めぐみの郷",
        "住所": "宮崎県串間市大字北方1599",
        "指定緊急避難場所との住所同一": "",
        "その他市町村長が必要と認める事項": null,
        "受入対象者": null,
        "備考": ""
      }
    },
    {
      "type": "Feature",
      "geometry": {
        "type": "Point",
        "coordinates": [
          131.248323,
          31.485968
        ]
      },
      "properties": {
        "NO": 79085,
        "共通ID": "E4520700079111",
        "都道府県名及び市町村名": "宮崎県串間市",
        "施設・場所名": "旧北方中学校",
        "住所": "宮崎県串間市大字北方3768",
        "指定緊急避難場所との住所同一": "1",
        "その他市町村長が必要と認める事項": null,
        "受入対象者": null,
        "備考": ""
      }
    },
    {
      "type": "Feature",
      "geometry": {
        "type": "Point",
        "coordinates": [
          131.24432,
          31.480897
        ]
      },
      "properties": {
        "NO": 79086,
        "共通ID": "E4520700080111",
        "都道府県名及び市町村名": "宮崎県串間市",
        "施設・場所名": "農村環境改善センター",
        "住所": "宮崎県串間市大字北方4117-1",
        "指定緊急避難場所との住所同一": "",
        "その他市町村長が必要と認める事項": null,
        "受入対象者": null,
        "備考": ""
      }
    },
    {
      "type": "Feature",
      "geometry": {
        "type": "Point",
        "coordinates": [
          131.243338,
          31.469634
        ]
      },
      "properties": {
        "NO": 79087,
        "共通ID": "E4520700081111",
        "都道府県名及び市町村名": "宮崎県串間市",
        "施設・場所名": "北方小学校",
        "住所": "宮崎県串間市大字北方4894",
        "指定緊急避難場所との住所同一": "1",
        "その他市町村長が必要と認める事項": null,
        "受入対象者": null,
        "備考": ""
      }
    },
    {
      "type": "Feature",
      "geometry": {
        "type": "Point",
        "coordinates": [
          131.24756,
          31.480806
        ]
      },
      "properties": {
        "NO": 79088,
        "共通ID": "E4520700082111",
        "都道府県名及び市町村名": "宮崎県串間市",
        "施設・場所名": "屋治地区集落センター",
        "住所": "宮崎県串間市大字北方屋治",
        "指定緊急避難場所との住所同一": "",
        "その他市町村長が必要と認める事項": null,
        "受入対象者": null,
        "備考": ""
      }
    },
    {
      "type": "Feature",
      "geometry": {
        "type": "Point",
        "coordinates": [
          131.263412,
          31.435941
        ]
      },
      "properties": {
        "NO": 79089,
        "共通ID": "E4520700083111",
        "都道府県名及び市町村名": "宮崎県串間市",
        "施設・場所名": "旧本城中学校",
        "住所": "宮崎県串間市大字本城5951-2",
        "指定緊急避難場所との住所同一": "1",
        "その他市町村長が必要と認める事項": null,
        "受入対象者": null,
        "備考": ""
      }
    },
    {
      "type": "Feature",
      "geometry": {
        "type": "Point",
        "coordinates": [
          131.262414,
          31.433999
        ]
      },
      "properties": {
        "NO": 79090,
        "共通ID": "E4520700084111",
        "都道府県名及び市町村名": "宮崎県串間市",
        "施設・場所名": "本城小学校",
        "住所": "宮崎県串間市大字本城7764",
        "指定緊急避難場所との住所同一": "1",
        "その他市町村長が必要と認める事項": null,
        "受入対象者": null,
        "備考": ""
      }
    },
    {
      "type": "Feature",
      "geometry": {
        "type": "Point",
        "coordinates": [
          131.277703,
          31.435453
        ]
      },
      "properties": {
        "NO": 79091,
        "共通ID": "E4520700085111",
        "都道府県名及び市町村名": "宮崎県串間市",
        "施設・場所名": "本城支所",
        "住所": "宮崎県串間市大字本城987",
        "指定緊急避難場所との住所同一": "",
        "その他市町村長が必要と認める事項": null,
        "受入対象者": null,
        "備考": ""
      }
    },
    {
      "type": "Feature",
      "geometry": {
        "type": "Point",
        "coordinates": [
          131.23726,
          31.431836
        ]
      },
      "properties": {
        "NO": 79092,
        "共通ID": "E4520700086111",
        "都道府県名及び市町村名": "宮崎県串間市",
        "施設・場所名": "下千野集落センター",
        "住所": "宮崎県串間市大字本城下千野",
        "指定緊急避難場所との住所同一": "",
        "その他市町村長が必要と認める事項": null,
        "受入対象者": null,
        "備考": ""
      }
    },
    {
      "type": "Feature",
      "geometry": {
        "type": "Point",
        "coordinates": [
          131.272029,
          31.435891
        ]
      },
      "properties": {
        "NO": 79093,
        "共通ID": "E4520700087111",
        "都道府県名及び市町村名": "宮崎県串間市",
        "施設・場所名": "中園公民館",
        "住所": "宮崎県串間市大字本城下中園",
        "指定緊急避難場所との住所同一": "",
        "その他市町村長が必要と認める事項": null,
        "受入対象者": null,
        "備考": ""
      }
    },
    {
      "type": "Feature",
      "geometry": {
        "type": "Point",
        "coordinates": [
          131.280901,
          31.445244
        ]
      },
      "properties": {
        "NO": 79094,
        "共通ID": "E4520700088111",
        "都道府県名及び市町村名": "宮崎県串間市",
        "施設・場所名": "居城田公民館",
        "住所": "宮崎県串間市大字本城居城田",
        "指定緊急避難場所との住所同一": "",
        "その他市町村長が必要と認める事項": null,
        "受入対象者": null,
        "備考": ""
      }
    },
    {
      "type": "Feature",
      "geometry": {
        "type": "Point",
        "coordinates": [
          131.244282,
          31.426956
        ]
      },
      "properties": {
        "NO": 79095,
        "共通ID": "E4520700089111",
        "都道府県名及び市町村名": "宮崎県串間市",
        "施設・場所名": "港公民館",
        "住所": "宮崎県串間市大字本城港",
        "指定緊急避難場所との住所同一": "",
        "その他市町村長が必要と認める事項": null,
        "受入対象者": null,
        "備考": ""
      }
    },
    {
      "type": "Feature",
      "geometry": {
        "type": "Point",
        "coordinates": [
          131.271381,
          31.430264
        ]
      },
      "properties": {
        "NO": 79096,
        "共通ID": "E4520700090111",
        "都道府県名及び市町村名": "宮崎県串間市",
        "施設・場所名": "小田代公民館",
        "住所": "宮崎県串間市大字本城小田代",
        "指定緊急避難場所との住所同一": "",
        "その他市町村長が必要と認める事項": null,
        "受入対象者": null,
        "備考": ""
      }
    },
    {
      "type": "Feature",
      "geometry": {
        "type": "Point",
        "coordinates": [
          131.243603,
          31.434693
        ]
      },
      "properties": {
        "NO": 79097,
        "共通ID": "E4520700091111",
        "都道府県名及び市町村名": "宮崎県串間市",
        "施設・場所名": "中千野集落センター",
        "住所": "宮崎県串間市大字本城中千野",
        "指定緊急避難場所との住所同一": "",
        "その他市町村長が必要と認める事項": null,
        "受入対象者": null,
        "備考": ""
      }
    },
    {
      "type": "Feature",
      "geometry": {
        "type": "Point",
        "coordinates": [
          131.273222,
          31.433993
        ]
      },
      "properties": {
        "NO": 79098,
        "共通ID": "E4520700092111",
        "都道府県名及び市町村名": "宮崎県串間市",
        "施設・場所名": "道場公民館",
        "住所": "宮崎県串間市大字本城道場",
        "指定緊急避難場所との住所同一": "",
        "その他市町村長が必要と認める事項": null,
        "受入対象者": null,
        "備考": ""
      }
    },
    {
      "type": "Feature",
      "geometry": {
        "type": "Point",
        "coordinates": [
          131.279588,
          31.448911
        ]
      },
      "properties": {
        "NO": 79099,
        "共通ID": "E4520700093111",
        "都道府県名及び市町村名": "宮崎県串間市",
        "施設・場所名": "遍保ヶ野公民館",
        "住所": "宮崎県串間市大字本城遍保ケ野",
        "指定緊急避難場所との住所同一": "",
        "その他市町村長が必要と認める事項": null,
        "受入対象者": null,
        "備考": ""
      }
    },
    {
      "type": "Feature",
      "geometry": {
        "type": "Point",
        "coordinates": [
          131.232783,
          31.46273
        ]
      },
      "properties": {
        "NO": 79100,
        "共通ID": "E4520700094111",
        "都道府県名及び市町村名": "宮崎県串間市",
        "施設・場所名": "ビッグプリンス３０００",
        "住所": "宮崎県串間市東町12-1",
        "指定緊急避難場所との住所同一": "",
        "その他市町村長が必要と認める事項": null,
        "受入対象者": null,
        "備考": ""
      }
    }
  ]
}