{
  "type": "FeatureCollection",
  "name": "452092",
  "features": [
    {
      "type": "Feature",
      "geometry": {
        "type": "Point",
        "coordinates": [
          130.785698,
          32.021259
        ]
      },
      "properties": {
        "NO": 79172,
        "共通ID": "E4520900001111",
        "都道府県名及び市町村名": "宮崎県えびの市",
        "施設・場所名": "岡元小学校体育館",
        "住所": "宮崎県えびの市大字浦371",
        "指定緊急避難場所との住所同一": "",
        "その他市町村長が必要と認める事項": null,
        "受入対象者": null,
        "備考": ""
      }
    },
    {
      "type": "Feature",
      "geometry": {
        "type": "Point",
        "coordinates": [
          130.810881,
          32.056628
        ]
      },
      "properties": {
        "NO": 79173,
        "共通ID": "E4520900002111",
        "都道府県名及び市町村名": "宮崎県えびの市",
        "施設・場所名": "えびの市国際交流センター",
        "住所": "宮崎県えびの市大字榎田388-1",
        "指定緊急避難場所との住所同一": "",
        "その他市町村長が必要と認める事項": null,
        "受入対象者": null,
        "備考": ""
      }
    },
    {
      "type": "Feature",
      "geometry": {
        "type": "Point",
        "coordinates": [
          130.754192,
          32.046853
        ]
      },
      "properties": {
        "NO": 79174,
        "共通ID": "E4520900023112",
        "都道府県名及び市町村名": "宮崎県えびの市",
        "施設・場所名": "南岡松公民館",
        "住所": "宮崎県えびの市大字岡松1412-2",
        "指定緊急避難場所との住所同一": "1",
        "その他市町村長が必要と認める事項": null,
        "受入対象者": null,
        "備考": ""
      }
    },
    {
      "type": "Feature",
      "geometry": {
        "type": "Point",
        "coordinates": [
          130.809285,
          32.045672
        ]
      },
      "properties": {
        "NO": 79175,
        "共通ID": "E4520900003111",
        "都道府県名及び市町村名": "宮崎県えびの市",
        "施設・場所名": "加久藤地区体育館",
        "住所": "宮崎県えびの市大字栗下1168-13",
        "指定緊急避難場所との住所同一": "",
        "その他市町村長が必要と認める事項": null,
        "受入対象者": null,
        "備考": ""
      }
    },
    {
      "type": "Feature",
      "geometry": {
        "type": "Point",
        "coordinates": [
          130.810951,
          32.044734
        ]
      },
      "properties": {
        "NO": 79176,
        "共通ID": "E4520900004111",
        "都道府県名及び市町村名": "宮崎県えびの市",
        "施設・場所名": "加久藤中学校体育館",
        "住所": "宮崎県えびの市大字栗下1269-1",
        "指定緊急避難場所との住所同一": "",
        "その他市町村長が必要と認める事項": null,
        "受入対象者": null,
        "備考": ""
      }
    },
    {
      "type": "Feature",
      "geometry": {
        "type": "Point",
        "coordinates": [
          130.813651,
          32.046088
        ]
      },
      "properties": {
        "NO": 79177,
        "共通ID": "E4520900005111",
        "都道府県名及び市町村名": "宮崎県えびの市",
        "施設・場所名": "加久藤小学校体育館",
        "住所": "宮崎県えびの市大字栗下151",
        "指定緊急避難場所との住所同一": "",
        "その他市町村長が必要と認める事項": null,
        "受入対象者": null,
        "備考": ""
      }
    },
    {
      "type": "Feature",
      "geometry": {
        "type": "Point",
        "coordinates": [
          130.812868,
          32.04458
        ]
      },
      "properties": {
        "NO": 79178,
        "共通ID": "E4520900006111",
        "都道府県名及び市町村名": "宮崎県えびの市",
        "施設・場所名": "加久藤地区コミュニティセンター",
        "住所": "宮崎県えびの市大字栗下64-1",
        "指定緊急避難場所との住所同一": "",
        "その他市町村長が必要と認める事項": null,
        "受入対象者": null,
        "備考": ""
      }
    },
    {
      "type": "Feature",
      "geometry": {
        "type": "Point",
        "coordinates": [
          130.867127,
          32.047553
        ]
      },
      "properties": {
        "NO": 79179,
        "共通ID": "E4520900007111",
        "都道府県名及び市町村名": "宮崎県えびの市",
        "施設・場所名": "飯野小学校体育館",
        "住所": "宮崎県えびの市大字原田110",
        "指定緊急避難場所との住所同一": "",
        "その他市町村長が必要と認める事項": null,
        "受入対象者": null,
        "備考": ""
      }
    },
    {
      "type": "Feature",
      "geometry": {
        "type": "Point",
        "coordinates": [
          130.867436,
          32.046016
        ]
      },
      "properties": {
        "NO": 79180,
        "共通ID": "E4520900008111",
        "都道府県名及び市町村名": "宮崎県えびの市",
        "施設・場所名": "高齢者交流プラザ",
        "住所": "宮崎県えびの市大字原田112-1",
        "指定緊急避難場所との住所同一": "",
        "その他市町村長が必要と認める事項": null,
        "受入対象者": null,
        "備考": ""
      }
    },
    {
      "type": "Feature",
      "geometry": {
        "type": "Point",
        "coordinates": [
          130.866803,
          32.046543
        ]
      },
      "properties": {
        "NO": 79181,
        "共通ID": "E4520900009111",
        "都道府県名及び市町村名": "宮崎県えびの市",
        "施設・場所名": "飯野地区コミュニティセンター",
        "住所": "宮崎県えびの市大字原田112-11",
        "指定緊急避難場所との住所同一": "1",
        "その他市町村長が必要と認める事項": null,
        "受入対象者": null,
        "備考": ""
      }
    },
    {
      "type": "Feature",
      "geometry": {
        "type": "Point",
        "coordinates": [
          130.866803,
          32.046543
        ]
      },
      "properties": {
        "NO": 79182,
        "共通ID": "E4520900009121",
        "都道府県名及び市町村名": "宮崎県えびの市",
        "施設・場所名": "飯野地区コミュニティセンター",
        "住所": "宮崎県えびの市大字原田112-11",
        "指定緊急避難場所との住所同一": "1",
        "その他市町村長が必要と認める事項": null,
        "受入対象者": "要配慮者、一般",
        "備考": ""
      }
    },
    {
      "type": "Feature",
      "geometry": {
        "type": "Point",
        "coordinates": [
          130.870778,
          32.045488
        ]
      },
      "properties": {
        "NO": 79183,
        "共通ID": "E4520900010111",
        "都道府県名及び市町村名": "宮崎県えびの市",
        "施設・場所名": "飯野中学校体育館",
        "住所": "宮崎県えびの市大字原田190",
        "指定緊急避難場所との住所同一": "",
        "その他市町村長が必要と認める事項": null,
        "受入対象者": null,
        "備考": ""
      }
    },
    {
      "type": "Feature",
      "geometry": {
        "type": "Point",
        "coordinates": [
          130.872797,
          32.033567
        ]
      },
      "properties": {
        "NO": 79184,
        "共通ID": "E4520900011111",
        "都道府県名及び市町村名": "宮崎県えびの市",
        "施設・場所名": "飯野駅前地区体育館",
        "住所": "宮崎県えびの市大字原田2176",
        "指定緊急避難場所との住所同一": "1",
        "その他市町村長が必要と認める事項": null,
        "受入対象者": null,
        "備考": ""
      }
    },
    {
      "type": "Feature",
      "geometry": {
        "type": "Point",
        "coordinates": [
          130.868628,
          32.04473
        ]
      },
      "properties": {
        "NO": 79185,
        "共通ID": "E4520900012111",
        "都道府県名及び市町村名": "宮崎県えびの市",
        "施設・場所名": "えびの市民体育館",
        "住所": "宮崎県えびの市大字原田3056",
        "指定緊急避難場所との住所同一": "",
        "その他市町村長が必要と認める事項": null,
        "受入対象者": null,
        "備考": ""
      }
    },
    {
      "type": "Feature",
      "geometry": {
        "type": "Point",
        "coordinates": [
          130.760976,
          32.043893
        ]
      },
      "properties": {
        "NO": 79186,
        "共通ID": "E4520900013111",
        "都道府県名及び市町村名": "宮崎県えびの市",
        "施設・場所名": "真幸地区体育館",
        "住所": "宮崎県えびの市大字向江1188-10",
        "指定緊急避難場所との住所同一": "",
        "その他市町村長が必要と認める事項": null,
        "受入対象者": null,
        "備考": ""
      }
    },
    {
      "type": "Feature",
      "geometry": {
        "type": "Point",
        "coordinates": [
          130.769248,
          32.048344
        ]
      },
      "properties": {
        "NO": 79187,
        "共通ID": "E4520900014111",
        "都道府県名及び市町村名": "宮崎県えびの市",
        "施設・場所名": "えびの市老人福祉センター",
        "住所": "宮崎県えびの市大字向江491-4",
        "指定緊急避難場所との住所同一": "",
        "その他市町村長が必要と認める事項": null,
        "受入対象者": null,
        "備考": ""
      }
    },
    {
      "type": "Feature",
      "geometry": {
        "type": "Point",
        "coordinates": [
          130.769301,
          32.048519
        ]
      },
      "properties": {
        "NO": 79188,
        "共通ID": "E4520900014121",
        "都道府県名及び市町村名": "宮崎県えびの市",
        "施設・場所名": "えびの市老人福祉センター",
        "住所": "宮崎県えびの市大字向江491-4",
        "指定緊急避難場所との住所同一": "",
        "その他市町村長が必要と認める事項": null,
        "受入対象者": "要配慮者、一般",
        "備考": ""
      }
    },
    {
      "type": "Feature",
      "geometry": {
        "type": "Point",
        "coordinates": [
          130.763152,
          32.048852
        ]
      },
      "properties": {
        "NO": 79189,
        "共通ID": "E4520900015111",
        "都道府県名及び市町村名": "宮崎県えびの市",
        "施設・場所名": "真幸地区コミュニティセンター",
        "住所": "宮崎県えびの市大字向江798",
        "指定緊急避難場所との住所同一": "",
        "その他市町村長が必要と認める事項": null,
        "受入対象者": null,
        "備考": ""
      }
    },
    {
      "type": "Feature",
      "geometry": {
        "type": "Point",
        "coordinates": [
          130.849826,
          32.097883
        ]
      },
      "properties": {
        "NO": 79190,
        "共通ID": "E4520900016111",
        "都道府県名及び市町村名": "宮崎県えびの市",
        "施設・場所名": "高野コミュニティセンター",
        "住所": "宮崎県えびの市大字坂元1666",
        "指定緊急避難場所との住所同一": "",
        "その他市町村長が必要と認める事項": null,
        "受入対象者": null,
        "備考": ""
      }
    },
    {
      "type": "Feature",
      "geometry": {
        "type": "Point",
        "coordinates": [
          130.847626,
          32.032646
        ]
      },
      "properties": {
        "NO": 79191,
        "共通ID": "E4520900017111",
        "都道府県名及び市町村名": "宮崎県えびの市",
        "施設・場所名": "上江小中学校体育館",
        "住所": "宮崎県えびの市大字上江1580",
        "指定緊急避難場所との住所同一": "",
        "その他市町村長が必要と認める事項": null,
        "受入対象者": null,
        "備考": ""
      }
    },
    {
      "type": "Feature",
      "geometry": {
        "type": "Point",
        "coordinates": [
          130.845189,
          32.028447
        ]
      },
      "properties": {
        "NO": 79192,
        "共通ID": "E4520900018111",
        "都道府県名及び市町村名": "宮崎県えびの市",
        "施設・場所名": "旧上江中学校体育館",
        "住所": "宮崎県えびの市大字上江1735",
        "指定緊急避難場所との住所同一": "",
        "その他市町村長が必要と認める事項": null,
        "受入対象者": null,
        "備考": ""
      }
    },
    {
      "type": "Feature",
      "geometry": {
        "type": "Point",
        "coordinates": [
          130.843645,
          32.028676
        ]
      },
      "properties": {
        "NO": 79193,
        "共通ID": "E4520900019111",
        "都道府県名及び市町村名": "宮崎県えびの市",
        "施設・場所名": "上江地区体育館",
        "住所": "宮崎県えびの市大字上江1780-1",
        "指定緊急避難場所との住所同一": "1",
        "その他市町村長が必要と認める事項": null,
        "受入対象者": null,
        "備考": ""
      }
    },
    {
      "type": "Feature",
      "geometry": {
        "type": "Point",
        "coordinates": [
          130.915381,
          32.062756
        ]
      },
      "properties": {
        "NO": 79194,
        "共通ID": "E4520900020111",
        "都道府県名及び市町村名": "宮崎県えびの市",
        "施設・場所名": "旧大河平小学校体育館",
        "住所": "宮崎県えびの市大字大河平2410",
        "指定緊急避難場所との住所同一": "",
        "その他市町村長が必要と認める事項": null,
        "受入対象者": null,
        "備考": ""
      }
    },
    {
      "type": "Feature",
      "geometry": {
        "type": "Point",
        "coordinates": [
          130.828946,
          32.05265
        ]
      },
      "properties": {
        "NO": 79195,
        "共通ID": "E4520900028111",
        "都道府県名及び市町村名": "宮崎県えびの市",
        "施設・場所名": "えびの市防災食育センター",
        "住所": "宮崎県えびの市大字大明司1019-1",
        "指定緊急避難場所との住所同一": "",
        "その他市町村長が必要と認める事項": "",
        "受入対象者": "",
        "備考": ""
      }
    },
    {
      "type": "Feature",
      "geometry": {
        "type": "Point",
        "coordinates": [
          130.826906,
          32.05231
        ]
      },
      "properties": {
        "NO": 79196,
        "共通ID": "E4520900021112",
        "都道府県名及び市町村名": "宮崎県えびの市",
        "施設・場所名": "えびの市保健センター",
        "住所": "宮崎県えびの市大字大明司2146-2",
        "指定緊急避難場所との住所同一": "1",
        "その他市町村長が必要と認める事項": null,
        "受入対象者": null,
        "備考": ""
      }
    },
    {
      "type": "Feature",
      "geometry": {
        "type": "Point",
        "coordinates": [
          130.826906,
          32.05231
        ]
      },
      "properties": {
        "NO": 79197,
        "共通ID": "E4520900021121",
        "都道府県名及び市町村名": "宮崎県えびの市",
        "施設・場所名": "えびの市文化センター",
        "住所": "宮崎県えびの市大字大明司2146-2",
        "指定緊急避難場所との住所同一": "1",
        "その他市町村長が必要と認める事項": null,
        "受入対象者": "要配慮者、一般",
        "備考": ""
      }
    },
    {
      "type": "Feature",
      "geometry": {
        "type": "Point",
        "coordinates": [
          130.826906,
          32.05231
        ]
      },
      "properties": {
        "NO": 79198,
        "共通ID": "E4520900021111",
        "都道府県名及び市町村名": "宮崎県えびの市",
        "施設・場所名": "えびの市文化センター",
        "住所": "宮崎県えびの市大字大明司2146-2",
        "指定緊急避難場所との住所同一": "1",
        "その他市町村長が必要と認める事項": null,
        "受入対象者": null,
        "備考": ""
      }
    },
    {
      "type": "Feature",
      "geometry": {
        "type": "Point",
        "coordinates": [
          130.779485,
          32.043173
        ]
      },
      "properties": {
        "NO": 79199,
        "共通ID": "E4520900022112",
        "都道府県名及び市町村名": "宮崎県えびの市",
        "施設・場所名": "中浦自治公民館",
        "住所": "宮崎県えびの市大字島内2044-2",
        "指定緊急避難場所との住所同一": "1",
        "その他市町村長が必要と認める事項": null,
        "受入対象者": null,
        "備考": ""
      }
    },
    {
      "type": "Feature",
      "geometry": {
        "type": "Point",
        "coordinates": [
          130.819727,
          31.992362
        ]
      },
      "properties": {
        "NO": 79200,
        "共通ID": "E4520900027111",
        "都道府県名及び市町村名": "宮崎県えびの市",
        "施設・場所名": "尾八重野コミュニティセンター",
        "住所": "宮崎県えびの市大字東長江浦1652-368",
        "指定緊急避難場所との住所同一": "",
        "その他市町村長が必要と認める事項": null,
        "受入対象者": null,
        "備考": ""
      }
    }
  ]
}