{
  "type": "FeatureCollection",
  "name": "453820",
  "features": [
    {
      "type": "Feature",
      "geometry": {
        "type": "Point",
        "coordinates": [
          131.342582,
          32.008218
        ]
      },
      "properties": {
        "NO": 79258,
        "共通ID": "E4538200001111",
        "都道府県名及び市町村名": "宮崎県国富町",
        "施設・場所名": "国富町農業者トレーニングセンター",
        "住所": "宮崎県国富町大字三名1657",
        "指定緊急避難場所との住所同一": "",
        "その他市町村長が必要と認める事項": null,
        "受入対象者": null,
        "備考": ""
      }
    },
    {
      "type": "Feature",
      "geometry": {
        "type": "Point",
        "coordinates": [
          131.284067,
          31.999795
        ]
      },
      "properties": {
        "NO": 79259,
        "共通ID": "E4538200002111",
        "都道府県名及び市町村名": "宮崎県国富町",
        "施設・場所名": "国富町立森永小学校体育館",
        "住所": "宮崎県国富町大字森永1967",
        "指定緊急避難場所との住所同一": "",
        "その他市町村長が必要と認める事項": null,
        "受入対象者": null,
        "備考": ""
      }
    },
    {
      "type": "Feature",
      "geometry": {
        "type": "Point",
        "coordinates": [
          131.290278,
          32.021637
        ]
      },
      "properties": {
        "NO": 79260,
        "共通ID": "E4538200003111",
        "都道府県名及び市町村名": "宮崎県国富町",
        "施設・場所名": "国富町深年体育館",
        "住所": "宮崎県国富町大字深年5590-1",
        "指定緊急避難場所との住所同一": "",
        "その他市町村長が必要と認める事項": null,
        "受入対象者": null,
        "備考": ""
      }
    },
    {
      "type": "Feature",
      "geometry": {
        "type": "Point",
        "coordinates": [
          131.28443,
          32.011533
        ]
      },
      "properties": {
        "NO": 79261,
        "共通ID": "E4538200004111",
        "都道府県名及び市町村名": "宮崎県国富町",
        "施設・場所名": "須志田地区農業構造改善センター",
        "住所": "宮崎県国富町大字須志田1104-2",
        "指定緊急避難場所との住所同一": "",
        "その他市町村長が必要と認める事項": null,
        "受入対象者": null,
        "備考": ""
      }
    },
    {
      "type": "Feature",
      "geometry": {
        "type": "Point",
        "coordinates": [
          131.307261,
          32.026461
        ]
      },
      "properties": {
        "NO": 79262,
        "共通ID": "E4538200005111",
        "都道府県名及び市町村名": "宮崎県国富町",
        "施設・場所名": "国富町立八代中学校体育館",
        "住所": "宮崎県国富町大字八代南俣1710",
        "指定緊急避難場所との住所同一": "",
        "その他市町村長が必要と認める事項": null,
        "受入対象者": null,
        "備考": ""
      }
    },
    {
      "type": "Feature",
      "geometry": {
        "type": "Point",
        "coordinates": [
          131.307706,
          32.028014
        ]
      },
      "properties": {
        "NO": 79263,
        "共通ID": "E4538200006111",
        "都道府県名及び市町村名": "宮崎県国富町",
        "施設・場所名": "国富町立八代小学校体育館",
        "住所": "宮崎県国富町大字八代南俣2101",
        "指定緊急避難場所との住所同一": "",
        "その他市町村長が必要と認める事項": null,
        "受入対象者": null,
        "備考": ""
      }
    },
    {
      "type": "Feature",
      "geometry": {
        "type": "Point",
        "coordinates": [
          131.295696,
          32.058436
        ]
      },
      "properties": {
        "NO": 79264,
        "共通ID": "E4538200007111",
        "都道府県名及び市町村名": "宮崎県国富町",
        "施設・場所名": "国富町籾木体育館",
        "住所": "宮崎県国富町大字八代南俣3808-1",
        "指定緊急避難場所との住所同一": "",
        "その他市町村長が必要と認める事項": null,
        "受入対象者": null,
        "備考": ""
      }
    },
    {
      "type": "Feature",
      "geometry": {
        "type": "Point",
        "coordinates": [
          131.316668,
          32.047253
        ]
      },
      "properties": {
        "NO": 79265,
        "共通ID": "E4538200008111",
        "都道府県名及び市町村名": "宮崎県国富町",
        "施設・場所名": "国富町北俣体育館",
        "住所": "宮崎県国富町大字八代北俣2365-8",
        "指定緊急避難場所との住所同一": "",
        "その他市町村長が必要と認める事項": null,
        "受入対象者": null,
        "備考": ""
      }
    },
    {
      "type": "Feature",
      "geometry": {
        "type": "Point",
        "coordinates": [
          131.33519,
          31.995536
        ]
      },
      "properties": {
        "NO": 79266,
        "共通ID": "E4538200009111",
        "都道府県名及び市町村名": "宮崎県国富町",
        "施設・場所名": "国富町中央コミュニティセンター",
        "住所": "宮崎県国富町大字本庄11895",
        "指定緊急避難場所との住所同一": "",
        "その他市町村長が必要と認める事項": null,
        "受入対象者": null,
        "備考": ""
      }
    },
    {
      "type": "Feature",
      "geometry": {
        "type": "Point",
        "coordinates": [
          131.337107,
          31.984525
        ]
      },
      "properties": {
        "NO": 79267,
        "共通ID": "E4538200010111",
        "都道府県名及び市町村名": "宮崎県国富町",
        "施設・場所名": "国富町東部体育館",
        "住所": "宮崎県国富町大字本庄2367-2",
        "指定緊急避難場所との住所同一": "",
        "その他市町村長が必要と認める事項": null,
        "受入対象者": null,
        "備考": ""
      }
    },
    {
      "type": "Feature",
      "geometry": {
        "type": "Point",
        "coordinates": [
          131.324786,
          31.988187
        ]
      },
      "properties": {
        "NO": 79268,
        "共通ID": "E4538200011111",
        "都道府県名及び市町村名": "宮崎県国富町",
        "施設・場所名": "国富町立本庄小学校体育館",
        "住所": "宮崎県国富町大字本庄4056",
        "指定緊急避難場所との住所同一": "",
        "その他市町村長が必要と認める事項": null,
        "受入対象者": null,
        "備考": ""
      }
    },
    {
      "type": "Feature",
      "geometry": {
        "type": "Point",
        "coordinates": [
          131.324794,
          31.990569
        ]
      },
      "properties": {
        "NO": 79269,
        "共通ID": "E4538200012111",
        "都道府県名及び市町村名": "宮崎県国富町",
        "施設・場所名": "国富町武道館",
        "住所": "宮崎県国富町大字本庄4778",
        "指定緊急避難場所との住所同一": "",
        "その他市町村長が必要と認める事項": null,
        "受入対象者": null,
        "備考": ""
      }
    },
    {
      "type": "Feature",
      "geometry": {
        "type": "Point",
        "coordinates": [
          131.324257,
          31.990433
        ]
      },
      "properties": {
        "NO": 79270,
        "共通ID": "E4538200012112",
        "都道府県名及び市町村名": "宮崎県国富町",
        "施設・場所名": "国富町農村環境改善センター",
        "住所": "宮崎県国富町大字本庄4778",
        "指定緊急避難場所との住所同一": "",
        "その他市町村長が必要と認める事項": null,
        "受入対象者": null,
        "備考": ""
      }
    },
    {
      "type": "Feature",
      "geometry": {
        "type": "Point",
        "coordinates": [
          131.318497,
          31.986977
        ]
      },
      "properties": {
        "NO": 79271,
        "共通ID": "E4538200013111",
        "都道府県名及び市町村名": "宮崎県国富町",
        "施設・場所名": "宮崎県立本庄高等学校",
        "住所": "宮崎県国富町大字本庄5071",
        "指定緊急避難場所との住所同一": "",
        "その他市町村長が必要と認める事項": null,
        "受入対象者": null,
        "備考": ""
      }
    },
    {
      "type": "Feature",
      "geometry": {
        "type": "Point",
        "coordinates": [
          131.310852,
          31.992546
        ]
      },
      "properties": {
        "NO": 79272,
        "共通ID": "E4538200014111",
        "都道府県名及び市町村名": "宮崎県国富町",
        "施設・場所名": "国富町立本庄中学校体育館",
        "住所": "宮崎県国富町大字本庄6686",
        "指定緊急避難場所との住所同一": "",
        "その他市町村長が必要と認める事項": null,
        "受入対象者": null,
        "備考": ""
      }
    },
    {
      "type": "Feature",
      "geometry": {
        "type": "Point",
        "coordinates": [
          131.355218,
          31.990978
        ]
      },
      "properties": {
        "NO": 79273,
        "共通ID": "E4538200015111",
        "都道府県名及び市町村名": "宮崎県国富町",
        "施設・場所名": "国富町立木脇中学校体育館",
        "住所": "宮崎県国富町大字木脇1707",
        "指定緊急避難場所との住所同一": "",
        "その他市町村長が必要と認める事項": null,
        "受入対象者": null,
        "備考": ""
      }
    },
    {
      "type": "Feature",
      "geometry": {
        "type": "Point",
        "coordinates": [
          131.356038,
          31.992371
        ]
      },
      "properties": {
        "NO": 79274,
        "共通ID": "E4538200016111",
        "都道府県名及び市町村名": "宮崎県国富町",
        "施設・場所名": "国富町立木脇小学校体育館",
        "住所": "宮崎県国富町大字木脇1730",
        "指定緊急避難場所との住所同一": "",
        "その他市町村長が必要と認める事項": null,
        "受入対象者": null,
        "備考": ""
      }
    },
    {
      "type": "Feature",
      "geometry": {
        "type": "Point",
        "coordinates": [
          131.368479,
          31.985586
        ]
      },
      "properties": {
        "NO": 79275,
        "共通ID": "E4538200017111",
        "都道府県名及び市町村名": "宮崎県国富町",
        "施設・場所名": "木脇地区農業構造改善センター",
        "住所": "宮崎県国富町大字木脇3096-1",
        "指定緊急避難場所との住所同一": "",
        "その他市町村長が必要と認める事項": null,
        "受入対象者": null,
        "備考": ""
      }
    },
    {
      "type": "Feature",
      "geometry": {
        "type": "Point",
        "coordinates": [
          131.308811,
          31.974456
        ]
      },
      "properties": {
        "NO": 79276,
        "共通ID": "E4538200018111",
        "都道府県名及び市町村名": "宮崎県国富町",
        "施設・場所名": "国富町川南地区健康増進センター",
        "住所": "宮崎県国富町大字嵐田1518-1",
        "指定緊急避難場所との住所同一": "",
        "その他市町村長が必要と認める事項": null,
        "受入対象者": null,
        "備考": ""
      }
    }
  ]
}