{
  "type": "FeatureCollection",
  "name": "454044",
  "features": [
    {
      "type": "Feature",
      "geometry": {
        "type": "Point",
        "coordinates": [
          131.479053,
          32.167826
        ]
      },
      "properties": {
        "NO": 79421,
        "共通ID": "E4540400003121",
        "都道府県名及び市町村名": "宮崎県木城町",
        "施設・場所名": "木城地域ふれあい館　輝ららフィットネス棟",
        "住所": "宮崎県木城町大字高城1427-1",
        "指定緊急避難場所との住所同一": "",
        "その他市町村長が必要と認める事項": "",
        "受入対象者": "町が特定した者",
        "備考": ""
      }
    },
    {
      "type": "Feature",
      "geometry": {
        "type": "Point",
        "coordinates": [
          131.464284,
          32.166744
        ]
      },
      "properties": {
        "NO": 79422,
        "共通ID": "E4540400004121",
        "都道府県名及び市町村名": "宮崎県木城町",
        "施設・場所名": "特別養護老人ホーム　新納荘",
        "住所": "宮崎県木城町大字高城3078",
        "指定緊急避難場所との住所同一": "",
        "その他市町村長が必要と認める事項": "",
        "受入対象者": "町が特定した者",
        "備考": ""
      }
    },
    {
      "type": "Feature",
      "geometry": {
        "type": "Point",
        "coordinates": [
          131.474053,
          32.166237
        ]
      },
      "properties": {
        "NO": 79423,
        "共通ID": "E4540400005111",
        "都道府県名及び市町村名": "宮崎県木城町",
        "施設・場所名": "高城児童館",
        "住所": "宮崎県木城町大字高城3876-1",
        "指定緊急避難場所との住所同一": "1",
        "その他市町村長が必要と認める事項": "",
        "受入対象者": "",
        "備考": ""
      }
    },
    {
      "type": "Feature",
      "geometry": {
        "type": "Point",
        "coordinates": [
          131.415512,
          32.218465
        ]
      },
      "properties": {
        "NO": 79424,
        "共通ID": "E4540400007111",
        "都道府県名及び市町村名": "宮崎県木城町",
        "施設・場所名": "石河内公民館",
        "住所": "宮崎県木城町大字石河内412-2",
        "指定緊急避難場所との住所同一": "1",
        "その他市町村長が必要と認める事項": null,
        "受入対象者": null,
        "備考": ""
      }
    },
    {
      "type": "Feature",
      "geometry": {
        "type": "Point",
        "coordinates": [
          131.425835,
          32.169099
        ]
      },
      "properties": {
        "NO": 79425,
        "共通ID": "E4540400008111",
        "都道府県名及び市町村名": "宮崎県木城町",
        "施設・場所名": "川原公民館",
        "住所": "宮崎県木城町大字川原807",
        "指定緊急避難場所との住所同一": "1",
        "その他市町村長が必要と認める事項": null,
        "受入対象者": null,
        "備考": ""
      }
    },
    {
      "type": "Feature",
      "geometry": {
        "type": "Point",
        "coordinates": [
          131.356354,
          32.304053
        ]
      },
      "properties": {
        "NO": 79426,
        "共通ID": "E4540400009111",
        "都道府県名及び市町村名": "宮崎県木城町",
        "施設・場所名": "中之又総合福祉センター",
        "住所": "宮崎県木城町大字中之又351-11",
        "指定緊急避難場所との住所同一": "1",
        "その他市町村長が必要と認める事項": "",
        "受入対象者": "",
        "備考": ""
      }
    },
    {
      "type": "Feature",
      "geometry": {
        "type": "Point",
        "coordinates": [
          131.467075,
          32.160329
        ]
      },
      "properties": {
        "NO": 79427,
        "共通ID": "E4540400011113",
        "都道府県名及び市町村名": "宮崎県木城町",
        "施設・場所名": "みどりの杜木城学園体育館",
        "住所": "宮崎県木城町大字椎木2010-1",
        "指定緊急避難場所との住所同一": "1",
        "その他市町村長が必要と認める事項": "",
        "受入対象者": "",
        "備考": ""
      }
    },
    {
      "type": "Feature",
      "geometry": {
        "type": "Point",
        "coordinates": [
          131.467225,
          32.160877
        ]
      },
      "properties": {
        "NO": 79428,
        "共通ID": "E4540400011112",
        "都道府県名及び市町村名": "宮崎県木城町",
        "施設・場所名": "みどりの杜木城学園",
        "住所": "宮崎県木城町大字椎木2010-1",
        "指定緊急避難場所との住所同一": "1",
        "その他市町村長が必要と認める事項": "",
        "受入対象者": "",
        "備考": ""
      }
    },
    {
      "type": "Feature",
      "geometry": {
        "type": "Point",
        "coordinates": [
          131.466404,
          32.1604
        ]
      },
      "properties": {
        "NO": 79429,
        "共通ID": "E4540400012111",
        "都道府県名及び市町村名": "宮崎県木城町",
        "施設・場所名": "みどりの杜木城学園講堂",
        "住所": "宮崎県木城町大字椎木2190",
        "指定緊急避難場所との住所同一": "1",
        "その他市町村長が必要と認める事項": "",
        "受入対象者": "",
        "備考": ""
      }
    },
    {
      "type": "Feature",
      "geometry": {
        "type": "Point",
        "coordinates": [
          131.463673,
          32.156028
        ]
      },
      "properties": {
        "NO": 79430,
        "共通ID": "E4540400013121",
        "都道府県名及び市町村名": "宮崎県木城町",
        "施設・場所名": "複合型福祉施設　仁の里",
        "住所": "宮崎県木城町大字椎木3950-1",
        "指定緊急避難場所との住所同一": "",
        "その他市町村長が必要と認める事項": "",
        "受入対象者": "町が特定した者",
        "備考": ""
      }
    },
    {
      "type": "Feature",
      "geometry": {
        "type": "Point",
        "coordinates": [
          131.467835,
          32.159379
        ]
      },
      "properties": {
        "NO": 79431,
        "共通ID": "E4540400016121",
        "都道府県名及び市町村名": "宮崎県木城町",
        "施設・場所名": "木城世代間交流福祉館",
        "住所": "宮崎県木城町大字椎木4176",
        "指定緊急避難場所との住所同一": "",
        "その他市町村長が必要と認める事項": "",
        "受入対象者": "町が特定した者",
        "備考": ""
      }
    },
    {
      "type": "Feature",
      "geometry": {
        "type": "Point",
        "coordinates": [
          131.469961,
          32.157498
        ]
      },
      "properties": {
        "NO": 79432,
        "共通ID": "E4540400017121",
        "都道府県名及び市町村名": "宮崎県木城町",
        "施設・場所名": "木城町病児・病後児保育施設ひだまり",
        "住所": "宮崎県木城町大字椎木4246",
        "指定緊急避難場所との住所同一": "1",
        "その他市町村長が必要と認める事項": "",
        "受入対象者": "町が特定した者",
        "備考": ""
      }
    }
  ]
}