{
  "type": "FeatureCollection",
  "name": "454036",
  "features": [
    {
      "type": "Feature",
      "geometry": {
        "type": "Point",
        "coordinates": [
          131.24432,
          32.198643
        ]
      },
      "properties": {
        "NO": 79408,
        "共通ID": "E4540300001111",
        "都道府県名及び市町村名": "宮崎県西米良村",
        "施設・場所名": "越野尾活性化センター",
        "住所": "宮崎県西米良村大字越野尾58",
        "指定緊急避難場所との住所同一": "1",
        "その他市町村長が必要と認める事項": "西米良村  0983-36-1111",
        "受入対象者": null,
        "備考": ""
      }
    },
    {
      "type": "Feature",
      "geometry": {
        "type": "Point",
        "coordinates": [
          131.194717,
          32.198389
        ]
      },
      "properties": {
        "NO": 79409,
        "共通ID": "E4540300002111",
        "都道府県名及び市町村名": "宮崎県西米良村",
        "施設・場所名": "横野活性化センター",
        "住所": "宮崎県西米良村大字横野11",
        "指定緊急避難場所との住所同一": "1",
        "その他市町村長が必要と認める事項": "西米良村  0983-36-1111",
        "受入対象者": null,
        "備考": ""
      }
    },
    {
      "type": "Feature",
      "geometry": {
        "type": "Point",
        "coordinates": [
          131.216911,
          32.233018
        ]
      },
      "properties": {
        "NO": 79410,
        "共通ID": "E4540300003111",
        "都道府県名及び市町村名": "宮崎県西米良村",
        "施設・場所名": "小川多目的集会室",
        "住所": "宮崎県西米良村大字小川989-1",
        "指定緊急避難場所との住所同一": "1",
        "その他市町村長が必要と認める事項": "西米良村  0983-36-1111",
        "受入対象者": null,
        "備考": ""
      }
    },
    {
      "type": "Feature",
      "geometry": {
        "type": "Point",
        "coordinates": [
          131.131195,
          32.266771
        ]
      },
      "properties": {
        "NO": 79411,
        "共通ID": "E4540300004111",
        "都道府県名及び市町村名": "宮崎県西米良村",
        "施設・場所名": "上米良多目的集会室",
        "住所": "宮崎県西米良村大字上米良154",
        "指定緊急避難場所との住所同一": "1",
        "その他市町村長が必要と認める事項": "西米良村  0983-36-1111",
        "受入対象者": null,
        "備考": ""
      }
    },
    {
      "type": "Feature",
      "geometry": {
        "type": "Point",
        "coordinates": [
          131.153399,
          32.233433
        ]
      },
      "properties": {
        "NO": 79412,
        "共通ID": "E4540300005111",
        "都道府県名及び市町村名": "宮崎県西米良村",
        "施設・場所名": "柔剣道場及び管理棟",
        "住所": "宮崎県西米良村大字村所1-7",
        "指定緊急避難場所との住所同一": "1",
        "その他市町村長が必要と認める事項": "西米良村  0983-36-1111",
        "受入対象者": null,
        "備考": ""
      }
    },
    {
      "type": "Feature",
      "geometry": {
        "type": "Point",
        "coordinates": [
          131.1548,
          32.226426
        ]
      },
      "properties": {
        "NO": 79413,
        "共通ID": "E4540300006111",
        "都道府県名及び市町村名": "宮崎県西米良村",
        "施設・場所名": "基幹集落センター",
        "住所": "宮崎県西米良村大字村所19",
        "指定緊急避難場所との住所同一": "1",
        "その他市町村長が必要と認める事項": "西米良村  0983-36-1111",
        "受入対象者": null,
        "備考": ""
      }
    },
    {
      "type": "Feature",
      "geometry": {
        "type": "Point",
        "coordinates": [
          131.152049,
          32.229597
        ]
      },
      "properties": {
        "NO": 79414,
        "共通ID": "E4540300007111",
        "都道府県名及び市町村名": "宮崎県西米良村",
        "施設・場所名": "菊池記念館",
        "住所": "宮崎県西米良村大字村所2",
        "指定緊急避難場所との住所同一": "1",
        "その他市町村長が必要と認める事項": "菊池記念館36-1020",
        "受入対象者": null,
        "備考": ""
      }
    },
    {
      "type": "Feature",
      "geometry": {
        "type": "Point",
        "coordinates": [
          131.154631,
          32.227052
        ]
      },
      "properties": {
        "NO": 79415,
        "共通ID": "E4540300008111",
        "都道府県名及び市町村名": "宮崎県西米良村",
        "施設・場所名": "放課後児童クラブ",
        "住所": "宮崎県西米良村大字村所2-1",
        "指定緊急避難場所との住所同一": "1",
        "その他市町村長が必要と認める事項": "西米良村  0983-36-1111",
        "受入対象者": null,
        "備考": ""
      }
    },
    {
      "type": "Feature",
      "geometry": {
        "type": "Point",
        "coordinates": [
          131.154625,
          32.227098
        ]
      },
      "properties": {
        "NO": 79416,
        "共通ID": "E4540300008112",
        "都道府県名及び市町村名": "宮崎県西米良村",
        "施設・場所名": "村所小へき地集会室",
        "住所": "宮崎県西米良村大字村所2-1",
        "指定緊急避難場所との住所同一": "1",
        "その他市町村長が必要と認める事項": "小学校  36-1034",
        "受入対象者": null,
        "備考": ""
      }
    },
    {
      "type": "Feature",
      "geometry": {
        "type": "Point",
        "coordinates": [
          131.11597,
          32.238039
        ]
      },
      "properties": {
        "NO": 79417,
        "共通ID": "E4540300009111",
        "都道府県名及び市町村名": "宮崎県西米良村",
        "施設・場所名": "松之本地区集会所",
        "住所": "宮崎県西米良村大字村所726-13",
        "指定緊急避難場所との住所同一": "1",
        "その他市町村長が必要と認める事項": "西米良村  0983-36-1111",
        "受入対象者": null,
        "備考": ""
      }
    },
    {
      "type": "Feature",
      "geometry": {
        "type": "Point",
        "coordinates": [
          131.151999,
          32.240945
        ]
      },
      "properties": {
        "NO": 79418,
        "共通ID": "E4540300010121",
        "都道府県名及び市町村名": "宮崎県西米良村",
        "施設・場所名": "特別養護老人ホーム天包荘",
        "住所": "宮崎県西米良村大字竹原432",
        "指定緊急避難場所との住所同一": "1",
        "その他市町村長が必要と認める事項": null,
        "受入対象者": "高齢者、障がい者など特別な配慮を必要とする方",
        "備考": ""
      }
    },
    {
      "type": "Feature",
      "geometry": {
        "type": "Point",
        "coordinates": [
          131.152176,
          32.241429
        ]
      },
      "properties": {
        "NO": 79419,
        "共通ID": "E4540300011111",
        "都道府県名及び市町村名": "宮崎県西米良村",
        "施設・場所名": "西米良村立ふたば園",
        "住所": "宮崎県西米良村大字竹原437-1",
        "指定緊急避難場所との住所同一": "",
        "その他市町村長が必要と認める事項": "ふたば園　0983-36-1073",
        "受入対象者": null,
        "備考": ""
      }
    },
    {
      "type": "Feature",
      "geometry": {
        "type": "Point",
        "coordinates": [
          131.098038,
          32.223393
        ]
      },
      "properties": {
        "NO": 79420,
        "共通ID": "E4540300012111",
        "都道府県名及び市町村名": "宮崎県西米良村",
        "施設・場所名": "板谷多目的集会施設",
        "住所": "宮崎県西米良村大字板谷149-2",
        "指定緊急避難場所との住所同一": "1",
        "その他市町村長が必要と認める事項": "西米良村  0983-36-1111",
        "受入対象者": null,
        "備考": ""
      }
    }
  ]
}