{
  "type": "FeatureCollection",
  "name": "462080",
  "features": [
    {
      "type": "Feature",
      "geometry": {
        "type": "Point",
        "coordinates": [
          130.343334,
          32.119925
        ]
      },
      "properties": {
        "NO": 80030,
        "共通ID": "E4620800001111",
        "都道府県名及び市町村名": "鹿児島県出水市",
        "施設・場所名": "米ノ津東小学校",
        "住所": "鹿児島県出水市下鯖町584",
        "指定緊急避難場所との住所同一": "1",
        "その他市町村長が必要と認める事項": null,
        "受入対象者": null,
        "備考": ""
      }
    },
    {
      "type": "Feature",
      "geometry": {
        "type": "Point",
        "coordinates": [
          130.324684,
          32.107577
        ]
      },
      "properties": {
        "NO": 80031,
        "共通ID": "E4620800002111",
        "都道府県名及び市町村名": "鹿児島県出水市",
        "施設・場所名": "米ノ津小学校",
        "住所": "鹿児島県出水市下知識町1584",
        "指定緊急避難場所との住所同一": "1",
        "その他市町村長が必要と認める事項": null,
        "受入対象者": null,
        "備考": ""
      }
    },
    {
      "type": "Feature",
      "geometry": {
        "type": "Point",
        "coordinates": [
          130.326009,
          32.099889
        ]
      },
      "properties": {
        "NO": 80032,
        "共通ID": "E4620800003111",
        "都道府県名及び市町村名": "鹿児島県出水市",
        "施設・場所名": "津山自治公民館",
        "住所": "鹿児島県出水市下知識町918",
        "指定緊急避難場所との住所同一": "1",
        "その他市町村長が必要と認める事項": null,
        "受入対象者": null,
        "備考": ""
      }
    },
    {
      "type": "Feature",
      "geometry": {
        "type": "Point",
        "coordinates": [
          130.364442,
          32.155497
        ]
      },
      "properties": {
        "NO": 80033,
        "共通ID": "E4620800004111",
        "都道府県名及び市町村名": "鹿児島県出水市",
        "施設・場所名": "切通小学校",
        "住所": "鹿児島県出水市境町1286",
        "指定緊急避難場所との住所同一": "1",
        "その他市町村長が必要と認める事項": null,
        "受入対象者": null,
        "備考": ""
      }
    },
    {
      "type": "Feature",
      "geometry": {
        "type": "Point",
        "coordinates": [
          130.29916,
          32.087142
        ]
      },
      "properties": {
        "NO": 80034,
        "共通ID": "E4620800006111",
        "都道府県名及び市町村名": "鹿児島県出水市",
        "施設・場所名": "下水流農業者トレーニングセンター",
        "住所": "鹿児島県出水市高尾野町下水流3164-15",
        "指定緊急避難場所との住所同一": "1",
        "その他市町村長が必要と認める事項": null,
        "受入対象者": null,
        "備考": ""
      }
    },
    {
      "type": "Feature",
      "geometry": {
        "type": "Point",
        "coordinates": [
          130.298838,
          32.087953
        ]
      },
      "properties": {
        "NO": 80035,
        "共通ID": "E4620800007111",
        "都道府県名及び市町村名": "鹿児島県出水市",
        "施設・場所名": "下水流小学校",
        "住所": "鹿児島県出水市高尾野町下水流3164-7",
        "指定緊急避難場所との住所同一": "1",
        "その他市町村長が必要と認める事項": null,
        "受入対象者": null,
        "備考": ""
      }
    },
    {
      "type": "Feature",
      "geometry": {
        "type": "Point",
        "coordinates": [
          130.25222,
          32.096065
        ]
      },
      "properties": {
        "NO": 80036,
        "共通ID": "E4620800008111",
        "都道府県名及び市町村名": "鹿児島県出水市",
        "施設・場所名": "江内カントリーコア",
        "住所": "鹿児島県出水市高尾野町江内3377",
        "指定緊急避難場所との住所同一": "1",
        "その他市町村長が必要と認める事項": null,
        "受入対象者": null,
        "備考": ""
      }
    },
    {
      "type": "Feature",
      "geometry": {
        "type": "Point",
        "coordinates": [
          130.252219,
          32.098792
        ]
      },
      "properties": {
        "NO": 80037,
        "共通ID": "E4620800010111",
        "都道府県名及び市町村名": "鹿児島県出水市",
        "施設・場所名": "江内小学校",
        "住所": "鹿児島県出水市高尾野町江内7631",
        "指定緊急避難場所との住所同一": "1",
        "その他市町村長が必要と認める事項": null,
        "受入対象者": null,
        "備考": ""
      }
    },
    {
      "type": "Feature",
      "geometry": {
        "type": "Point",
        "coordinates": [
          130.296465,
          32.061891
        ]
      },
      "properties": {
        "NO": 80038,
        "共通ID": "E4620800011111",
        "都道府県名及び市町村名": "鹿児島県出水市",
        "施設・場所名": "高尾野小学校",
        "住所": "鹿児島県出水市高尾野町柴引1559",
        "指定緊急避難場所との住所同一": "1",
        "その他市町村長が必要と認める事項": null,
        "受入対象者": null,
        "備考": ""
      }
    },
    {
      "type": "Feature",
      "geometry": {
        "type": "Point",
        "coordinates": [
          130.298518,
          32.058821
        ]
      },
      "properties": {
        "NO": 80039,
        "共通ID": "E4620800012111",
        "都道府県名及び市町村名": "鹿児島県出水市",
        "施設・場所名": "高尾野中学校",
        "住所": "鹿児島県出水市高尾野町柴引2143",
        "指定緊急避難場所との住所同一": "1",
        "その他市町村長が必要と認める事項": null,
        "受入対象者": null,
        "備考": ""
      }
    },
    {
      "type": "Feature",
      "geometry": {
        "type": "Point",
        "coordinates": [
          130.30405,
          32.061432
        ]
      },
      "properties": {
        "NO": 80040,
        "共通ID": "E4620800048111",
        "都道府県名及び市町村名": "鹿児島県出水市",
        "施設・場所名": "高尾野体育館",
        "住所": "鹿児島県出水市高尾野町大久保158-1",
        "指定緊急避難場所との住所同一": "1",
        "その他市町村長が必要と認める事項": "",
        "受入対象者": "",
        "備考": ""
      }
    },
    {
      "type": "Feature",
      "geometry": {
        "type": "Point",
        "coordinates": [
          130.311909,
          32.060655
        ]
      },
      "properties": {
        "NO": 80041,
        "共通ID": "E4620800013111",
        "都道府県名及び市町村名": "鹿児島県出水市",
        "施設・場所名": "高尾野農業者健康管理センター",
        "住所": "鹿児島県出水市高尾野町大久保3816-29",
        "指定緊急避難場所との住所同一": "1",
        "その他市町村長が必要と認める事項": null,
        "受入対象者": null,
        "備考": ""
      }
    },
    {
      "type": "Feature",
      "geometry": {
        "type": "Point",
        "coordinates": [
          130.310608,
          32.06264
        ]
      },
      "properties": {
        "NO": 80042,
        "共通ID": "E4620800014111",
        "都道府県名及び市町村名": "鹿児島県出水市",
        "施設・場所名": "高尾野地域交流スペース",
        "住所": "鹿児島県出水市高尾野町大久保600",
        "指定緊急避難場所との住所同一": "1",
        "その他市町村長が必要と認める事項": null,
        "受入対象者": null,
        "備考": ""
      }
    },
    {
      "type": "Feature",
      "geometry": {
        "type": "Point",
        "coordinates": [
          130.304424,
          32.060951
        ]
      },
      "properties": {
        "NO": 80043,
        "共通ID": "E4620800015111",
        "都道府県名及び市町村名": "鹿児島県出水市",
        "施設・場所名": "高尾野市民交流センター",
        "住所": "鹿児島県出水市高尾野町大久保7",
        "指定緊急避難場所との住所同一": "1",
        "その他市町村長が必要と認める事項": null,
        "受入対象者": null,
        "備考": ""
      }
    },
    {
      "type": "Feature",
      "geometry": {
        "type": "Point",
        "coordinates": [
          130.355651,
          32.086926
        ]
      },
      "properties": {
        "NO": 80044,
        "共通ID": "E4620800016111",
        "都道府県名及び市町村名": "鹿児島県出水市",
        "施設・場所名": "ＮＴＴ出水ビル",
        "住所": "鹿児島県出水市昭和町43-24",
        "指定緊急避難場所との住所同一": "1",
        "その他市町村長が必要と認める事項": null,
        "受入対象者": null,
        "備考": ""
      }
    },
    {
      "type": "Feature",
      "geometry": {
        "type": "Point",
        "coordinates": [
          130.367776,
          32.080232
        ]
      },
      "properties": {
        "NO": 80045,
        "共通ID": "E4620800017111",
        "都道府県名及び市町村名": "鹿児島県出水市",
        "施設・場所名": "東出水小学校",
        "住所": "鹿児島県出水市上鯖渕1866",
        "指定緊急避難場所との住所同一": "1",
        "その他市町村長が必要と認める事項": null,
        "受入対象者": null,
        "備考": ""
      }
    },
    {
      "type": "Feature",
      "geometry": {
        "type": "Point",
        "coordinates": [
          130.476813,
          32.102583
        ]
      },
      "properties": {
        "NO": 80046,
        "共通ID": "E4620800018111",
        "都道府県名及び市町村名": "鹿児島県出水市",
        "施設・場所名": "上場小学校",
        "住所": "鹿児島県出水市上大川内2580-27",
        "指定緊急避難場所との住所同一": "1",
        "その他市町村長が必要と認める事項": null,
        "受入対象者": null,
        "備考": ""
      }
    },
    {
      "type": "Feature",
      "geometry": {
        "type": "Point",
        "coordinates": [
          130.474622,
          32.10125
        ]
      },
      "properties": {
        "NO": 80047,
        "共通ID": "E4620800019111",
        "都道府県名及び市町村名": "鹿児島県出水市",
        "施設・場所名": "上場活性化施設　秋桜館",
        "住所": "鹿児島県出水市上大川内2648-4",
        "指定緊急避難場所との住所同一": "1",
        "その他市町村長が必要と認める事項": null,
        "受入対象者": null,
        "備考": ""
      }
    },
    {
      "type": "Feature",
      "geometry": {
        "type": "Point",
        "coordinates": [
          130.441883,
          32.072861
        ]
      },
      "properties": {
        "NO": 80048,
        "共通ID": "E4620800020111",
        "都道府県名及び市町村名": "鹿児島県出水市",
        "施設・場所名": "大川内農業者トレーニングセンター",
        "住所": "鹿児島県出水市上大川内807-1",
        "指定緊急避難場所との住所同一": "1",
        "その他市町村長が必要と認める事項": null,
        "受入対象者": null,
        "備考": ""
      }
    },
    {
      "type": "Feature",
      "geometry": {
        "type": "Point",
        "coordinates": [
          130.441951,
          32.071785
        ]
      },
      "properties": {
        "NO": 80049,
        "共通ID": "E4620800021111",
        "都道府県名及び市町村名": "鹿児島県出水市",
        "施設・場所名": "大川内中学校",
        "住所": "鹿児島県出水市上大川内823",
        "指定緊急避難場所との住所同一": "1",
        "その他市町村長が必要と認める事項": null,
        "受入対象者": null,
        "備考": ""
      }
    },
    {
      "type": "Feature",
      "geometry": {
        "type": "Point",
        "coordinates": [
          130.341323,
          32.074244
        ]
      },
      "properties": {
        "NO": 80050,
        "共通ID": "E4620800022111",
        "都道府県名及び市町村名": "鹿児島県出水市",
        "施設・場所名": "西出水小学校",
        "住所": "鹿児島県出水市西出水町1045",
        "指定緊急避難場所との住所同一": "1",
        "その他市町村長が必要と認める事項": null,
        "受入対象者": null,
        "備考": ""
      }
    },
    {
      "type": "Feature",
      "geometry": {
        "type": "Point",
        "coordinates": [
          130.280287,
          32.085999
        ]
      },
      "properties": {
        "NO": 80051,
        "共通ID": "E4620800023111",
        "都道府県名及び市町村名": "鹿児島県出水市",
        "施設・場所名": "鶴荘学園",
        "住所": "鹿児島県出水市荘1748",
        "指定緊急避難場所との住所同一": "1",
        "その他市町村長が必要と認める事項": null,
        "受入対象者": null,
        "備考": ""
      }
    },
    {
      "type": "Feature",
      "geometry": {
        "type": "Point",
        "coordinates": [
          130.347836,
          32.081959
        ]
      },
      "properties": {
        "NO": 80052,
        "共通ID": "E4620800024111",
        "都道府県名及び市町村名": "鹿児島県出水市",
        "施設・場所名": "出水中学校",
        "住所": "鹿児島県出水市中央町1262",
        "指定緊急避難場所との住所同一": "1",
        "その他市町村長が必要と認める事項": null,
        "受入対象者": null,
        "備考": ""
      }
    },
    {
      "type": "Feature",
      "geometry": {
        "type": "Point",
        "coordinates": [
          130.344667,
          32.08612
        ]
      },
      "properties": {
        "NO": 80053,
        "共通ID": "E4620800025111",
        "都道府県名及び市町村名": "鹿児島県出水市",
        "施設・場所名": "屋内ゲートボール場",
        "住所": "鹿児島県出水市中央町198",
        "指定緊急避難場所との住所同一": "1",
        "その他市町村長が必要と認める事項": null,
        "受入対象者": null,
        "備考": ""
      }
    },
    {
      "type": "Feature",
      "geometry": {
        "type": "Point",
        "coordinates": [
          130.344961,
          32.08726
        ]
      },
      "properties": {
        "NO": 80054,
        "共通ID": "E4620800026111",
        "都道府県名及び市町村名": "鹿児島県出水市",
        "施設・場所名": "総合武道場",
        "住所": "鹿児島県出水市中央町29",
        "指定緊急避難場所との住所同一": "1",
        "その他市町村長が必要と認める事項": null,
        "受入対象者": null,
        "備考": ""
      }
    },
    {
      "type": "Feature",
      "geometry": {
        "type": "Point",
        "coordinates": [
          130.348043,
          32.054479
        ]
      },
      "properties": {
        "NO": 80055,
        "共通ID": "E4620800027111",
        "都道府県名及び市町村名": "鹿児島県出水市",
        "施設・場所名": "青年の家　小原山体育館",
        "住所": "鹿児島県出水市武本1044",
        "指定緊急避難場所との住所同一": "1",
        "その他市町村長が必要と認める事項": null,
        "受入対象者": null,
        "備考": ""
      }
    },
    {
      "type": "Feature",
      "geometry": {
        "type": "Point",
        "coordinates": [
          130.343053,
          32.091069
        ]
      },
      "properties": {
        "NO": 80056,
        "共通ID": "E4620800028121",
        "都道府県名及び市町村名": "鹿児島県出水市",
        "施設・場所名": "鹿児島県立出水養護学校",
        "住所": "鹿児島県出水市文化町966",
        "指定緊急避難場所との住所同一": "",
        "その他市町村長が必要と認める事項": null,
        "受入対象者": "市内在住の出水養護学校在校生及び卒業生と同居する家族のみ",
        "備考": ""
      }
    },
    {
      "type": "Feature",
      "geometry": {
        "type": "Point",
        "coordinates": [
          130.330144,
          32.087277
        ]
      },
      "properties": {
        "NO": 80057,
        "共通ID": "E4620800029111",
        "都道府県名及び市町村名": "鹿児島県出水市",
        "施設・場所名": "高齢者ふれあいセンター",
        "住所": "鹿児島県出水市平和町72",
        "指定緊急避難場所との住所同一": "1",
        "その他市町村長が必要と認める事項": null,
        "受入対象者": null,
        "備考": ""
      }
    },
    {
      "type": "Feature",
      "geometry": {
        "type": "Point",
        "coordinates": [
          130.357274,
          32.081762
        ]
      },
      "properties": {
        "NO": 80058,
        "共通ID": "E4620800030111",
        "都道府県名及び市町村名": "鹿児島県出水市",
        "施設・場所名": "出水市民交流センター",
        "住所": "鹿児島県出水市本町7-16",
        "指定緊急避難場所との住所同一": "1",
        "その他市町村長が必要と認める事項": null,
        "受入対象者": null,
        "備考": ""
      }
    },
    {
      "type": "Feature",
      "geometry": {
        "type": "Point",
        "coordinates": [
          130.335452,
          32.113553
        ]
      },
      "properties": {
        "NO": 80059,
        "共通ID": "E4620800031111",
        "都道府県名及び市町村名": "鹿児島県出水市",
        "施設・場所名": "米ノ津中学校",
        "住所": "鹿児島県出水市明神町100",
        "指定緊急避難場所との住所同一": "1",
        "その他市町村長が必要と認める事項": null,
        "受入対象者": null,
        "備考": ""
      }
    },
    {
      "type": "Feature",
      "geometry": {
        "type": "Point",
        "coordinates": [
          130.268845,
          32.078944
        ]
      },
      "properties": {
        "NO": 80060,
        "共通ID": "E4620800032111",
        "都道府県名及び市町村名": "鹿児島県出水市",
        "施設・場所名": "屋地自治公民館",
        "住所": "鹿児島県出水市野田町下名1817",
        "指定緊急避難場所との住所同一": "1",
        "その他市町村長が必要と認める事項": null,
        "受入対象者": null,
        "備考": ""
      }
    },
    {
      "type": "Feature",
      "geometry": {
        "type": "Point",
        "coordinates": [
          130.244888,
          32.072243
        ]
      },
      "properties": {
        "NO": 80061,
        "共通ID": "E4620800033111",
        "都道府県名及び市町村名": "鹿児島県出水市",
        "施設・場所名": "餅井自治公民館",
        "住所": "鹿児島県出水市野田町下名3477-1",
        "指定緊急避難場所との住所同一": "1",
        "その他市町村長が必要と認める事項": null,
        "受入対象者": null,
        "備考": ""
      }
    },
    {
      "type": "Feature",
      "geometry": {
        "type": "Point",
        "coordinates": [
          130.267263,
          32.064788
        ]
      },
      "properties": {
        "NO": 80062,
        "共通ID": "E4620800034111",
        "都道府県名及び市町村名": "鹿児島県出水市",
        "施設・場所名": "野田女子高等学校",
        "住所": "鹿児島県出水市野田町下名5454",
        "指定緊急避難場所との住所同一": "1",
        "その他市町村長が必要と認める事項": null,
        "受入対象者": null,
        "備考": ""
      }
    },
    {
      "type": "Feature",
      "geometry": {
        "type": "Point",
        "coordinates": [
          130.273184,
          32.045509
        ]
      },
      "properties": {
        "NO": 80063,
        "共通ID": "E4620800035111",
        "都道府県名及び市町村名": "鹿児島県出水市",
        "施設・場所名": "青木原自治公民館",
        "住所": "鹿児島県出水市野田町上名1800-5",
        "指定緊急避難場所との住所同一": "1",
        "その他市町村長が必要と認める事項": null,
        "受入対象者": null,
        "備考": ""
      }
    },
    {
      "type": "Feature",
      "geometry": {
        "type": "Point",
        "coordinates": [
          130.268165,
          32.058229
        ]
      },
      "properties": {
        "NO": 80064,
        "共通ID": "E4620800036111",
        "都道府県名及び市町村名": "鹿児島県出水市",
        "施設・場所名": "野田小学校",
        "住所": "鹿児島県出水市野田町上名375",
        "指定緊急避難場所との住所同一": "1",
        "その他市町村長が必要と認める事項": null,
        "受入対象者": null,
        "備考": ""
      }
    },
    {
      "type": "Feature",
      "geometry": {
        "type": "Point",
        "coordinates": [
          130.26639,
          32.057752
        ]
      },
      "properties": {
        "NO": 80065,
        "共通ID": "E4620800038111",
        "都道府県名及び市町村名": "鹿児島県出水市",
        "施設・場所名": "野田保健センター",
        "住所": "鹿児島県出水市野田町上名6031",
        "指定緊急避難場所との住所同一": "1",
        "その他市町村長が必要と認める事項": null,
        "受入対象者": null,
        "備考": ""
      }
    },
    {
      "type": "Feature",
      "geometry": {
        "type": "Point",
        "coordinates": [
          130.265755,
          32.057892
        ]
      },
      "properties": {
        "NO": 80066,
        "共通ID": "E4620800039111",
        "都道府県名及び市町村名": "鹿児島県出水市",
        "施設・場所名": "野田市民交流センター",
        "住所": "鹿児島県出水市野田町上名6034-1",
        "指定緊急避難場所との住所同一": "1",
        "その他市町村長が必要と認める事項": null,
        "受入対象者": null,
        "備考": ""
      }
    },
    {
      "type": "Feature",
      "geometry": {
        "type": "Point",
        "coordinates": [
          130.265889,
          32.059481
        ]
      },
      "properties": {
        "NO": 80067,
        "共通ID": "E4620800040111",
        "都道府県名及び市町村名": "鹿児島県出水市",
        "施設・場所名": "野田農村環境改善センター",
        "住所": "鹿児島県出水市野田町上名6113",
        "指定緊急避難場所との住所同一": "1",
        "その他市町村長が必要と認める事項": null,
        "受入対象者": null,
        "備考": ""
      }
    },
    {
      "type": "Feature",
      "geometry": {
        "type": "Point",
        "coordinates": [
          130.353171,
          32.090197
        ]
      },
      "properties": {
        "NO": 80068,
        "共通ID": "E4620800044111",
        "都道府県名及び市町村名": "鹿児島県出水市",
        "施設・場所名": "出水市役所",
        "住所": "鹿児島県出水市緑町1-3",
        "指定緊急避難場所との住所同一": "1",
        "その他市町村長が必要と認める事項": null,
        "受入対象者": null,
        "備考": ""
      }
    },
    {
      "type": "Feature",
      "geometry": {
        "type": "Point",
        "coordinates": [
          130.353021,
          32.09319
        ]
      },
      "properties": {
        "NO": 80069,
        "共通ID": "E4620800045111",
        "都道府県名及び市町村名": "鹿児島県出水市",
        "施設・場所名": "出水保健センター",
        "住所": "鹿児島県出水市緑町50-1",
        "指定緊急避難場所との住所同一": "1",
        "その他市町村長が必要と認める事項": null,
        "受入対象者": null,
        "備考": ""
      }
    },
    {
      "type": "Feature",
      "geometry": {
        "type": "Point",
        "coordinates": [
          130.35868,
          32.075008
        ]
      },
      "properties": {
        "NO": 80070,
        "共通ID": "E4620800046111",
        "都道府県名及び市町村名": "鹿児島県出水市",
        "施設・場所名": "出水小学校",
        "住所": "鹿児島県出水市麓町9-13",
        "指定緊急避難場所との住所同一": "1",
        "その他市町村長が必要と認める事項": null,
        "受入対象者": null,
        "備考": ""
      }
    }
  ]
}