{
  "type": "FeatureCollection",
  "name": "463035",
  "features": [
    {
      "type": "Feature",
      "geometry": {
        "type": "Point",
        "coordinates": [
          129.955968,
          30.835558
        ]
      },
      "properties": {
        "NO": 81081,
        "共通ID": "E4630300001111",
        "都道府県名及び市町村名": "鹿児島県三島村",
        "施設・場所名": "大里生活センター",
        "住所": "鹿児島県三島村大字黒島15",
        "指定緊急避難場所との住所同一": "1",
        "その他市町村長が必要と認める事項": null,
        "受入対象者": null,
        "備考": ""
      }
    },
    {
      "type": "Feature",
      "geometry": {
        "type": "Point",
        "coordinates": [
          129.911254,
          30.8336
        ]
      },
      "properties": {
        "NO": 81082,
        "共通ID": "E4630300002111",
        "都道府県名及び市町村名": "鹿児島県三島村",
        "施設・場所名": "片泊生活センター",
        "住所": "鹿児島県三島村大字黒島31-2",
        "指定緊急避難場所との住所同一": "1",
        "その他市町村長が必要と認める事項": null,
        "受入対象者": null,
        "備考": ""
      }
    },
    {
      "type": "Feature",
      "geometry": {
        "type": "Point",
        "coordinates": [
          129.908739,
          30.832608
        ]
      },
      "properties": {
        "NO": 81083,
        "共通ID": "E4630300003111",
        "都道府県名及び市町村名": "鹿児島県三島村",
        "施設・場所名": "片泊ふれあいセンター",
        "住所": "鹿児島県三島村大字黒島39-3",
        "指定緊急避難場所との住所同一": "1",
        "その他市町村長が必要と認める事項": null,
        "受入対象者": null,
        "備考": ""
      }
    },
    {
      "type": "Feature",
      "geometry": {
        "type": "Point",
        "coordinates": [
          129.953692,
          30.835361
        ]
      },
      "properties": {
        "NO": 81084,
        "共通ID": "E4630300004111",
        "都道府県名及び市町村名": "鹿児島県三島村",
        "施設・場所名": "大里ふるさとセンター",
        "住所": "鹿児島県三島村大字黒島67-4",
        "指定緊急避難場所との住所同一": "1",
        "その他市町村長が必要と認める事項": null,
        "受入対象者": null,
        "備考": ""
      }
    },
    {
      "type": "Feature",
      "geometry": {
        "type": "Point",
        "coordinates": [
          130.417643,
          30.813181
        ]
      },
      "properties": {
        "NO": 81085,
        "共通ID": "E4630300005111",
        "都道府県名及び市町村名": "鹿児島県三島村",
        "施設・場所名": "竹島あいあい会館",
        "住所": "鹿児島県三島村大字竹島7",
        "指定緊急避難場所との住所同一": "1",
        "その他市町村長が必要と認める事項": null,
        "受入対象者": null,
        "備考": ""
      }
    },
    {
      "type": "Feature",
      "geometry": {
        "type": "Point",
        "coordinates": [
          130.285542,
          30.786328
        ]
      },
      "properties": {
        "NO": 81086,
        "共通ID": "E4630300006111",
        "都道府県名及び市町村名": "鹿児島県三島村",
        "施設・場所名": "冒険ランドいおうじま",
        "住所": "鹿児島県三島村大字硫黄島202-9",
        "指定緊急避難場所との住所同一": "1",
        "その他市町村長が必要と認める事項": null,
        "受入対象者": null,
        "備考": ""
      }
    },
    {
      "type": "Feature",
      "geometry": {
        "type": "Point",
        "coordinates": [
          130.281467,
          30.780331
        ]
      },
      "properties": {
        "NO": 81087,
        "共通ID": "E4630300008111",
        "都道府県名及び市町村名": "鹿児島県三島村",
        "施設・場所名": "みしまジャンベスクール",
        "住所": "鹿児島県三島村大字硫黄島218",
        "指定緊急避難場所との住所同一": "1",
        "その他市町村長が必要と認める事項": null,
        "受入対象者": null,
        "備考": ""
      }
    },
    {
      "type": "Feature",
      "geometry": {
        "type": "Point",
        "coordinates": [
          130.277627,
          30.781851
        ]
      },
      "properties": {
        "NO": 81088,
        "共通ID": "E4630300009111",
        "都道府県名及び市町村名": "鹿児島県三島村",
        "施設・場所名": "三島開発総合センター",
        "住所": "鹿児島県三島村大字硫黄島90-61",
        "指定緊急避難場所との住所同一": "1",
        "その他市町村長が必要と認める事項": null,
        "受入対象者": null,
        "備考": ""
      }
    }
  ]
}