{
  "type": "FeatureCollection",
  "name": "464911",
  "features": [
    {
      "type": "Feature",
      "geometry": {
        "type": "Point",
        "coordinates": [
          130.803767,
          31.183226
        ]
      },
      "properties": {
        "NO": 81217,
        "共通ID": "E4649100001111",
        "都道府県名及び市町村名": "鹿児島県南大隅町",
        "施設・場所名": "横ビュー高原ふれあい館",
        "住所": "鹿児島県南大隅町根占横別府1920",
        "指定緊急避難場所との住所同一": "1",
        "その他市町村長が必要と認める事項": null,
        "受入対象者": null,
        "備考": ""
      }
    },
    {
      "type": "Feature",
      "geometry": {
        "type": "Point",
        "coordinates": [
          130.765651,
          31.189688
        ]
      },
      "properties": {
        "NO": 81218,
        "共通ID": "E4649100004111",
        "都道府県名及び市町村名": "鹿児島県南大隅町",
        "施設・場所名": "旧宮田小学校",
        "住所": "鹿児島県南大隅町根占山本7065",
        "指定緊急避難場所との住所同一": "1",
        "その他市町村長が必要と認める事項": null,
        "受入対象者": null,
        "備考": ""
      }
    },
    {
      "type": "Feature",
      "geometry": {
        "type": "Point",
        "coordinates": [
          130.7783,
          31.211777
        ]
      },
      "properties": {
        "NO": 81219,
        "共通ID": "E4649100005111",
        "都道府県名及び市町村名": "鹿児島県南大隅町",
        "施設・場所名": "川南地区集会施設",
        "住所": "鹿児島県南大隅町根占川南3256-3",
        "指定緊急避難場所との住所同一": "1",
        "その他市町村長が必要と認める事項": null,
        "受入対象者": null,
        "備考": ""
      }
    },
    {
      "type": "Feature",
      "geometry": {
        "type": "Point",
        "coordinates": [
          130.778136,
          31.211486
        ]
      },
      "properties": {
        "NO": 81220,
        "共通ID": "E4649100005112",
        "都道府県名及び市町村名": "鹿児島県南大隅町",
        "施設・場所名": "老人福祉センター",
        "住所": "鹿児島県南大隅町根占川南3256-3",
        "指定緊急避難場所との住所同一": "1",
        "その他市町村長が必要と認める事項": null,
        "受入対象者": null,
        "備考": ""
      }
    },
    {
      "type": "Feature",
      "geometry": {
        "type": "Point",
        "coordinates": [
          130.772099,
          31.21598
        ]
      },
      "properties": {
        "NO": 81221,
        "共通ID": "E4649100006111",
        "都道府県名及び市町村名": "鹿児島県南大隅町",
        "施設・場所名": "神山小学校",
        "住所": "鹿児島県南大隅町根占川北1250",
        "指定緊急避難場所との住所同一": "1",
        "その他市町村長が必要と認める事項": null,
        "受入対象者": null,
        "備考": ""
      }
    },
    {
      "type": "Feature",
      "geometry": {
        "type": "Point",
        "coordinates": [
          130.773673,
          31.213182
        ]
      },
      "properties": {
        "NO": 81222,
        "共通ID": "E4649100007111",
        "都道府県名及び市町村名": "鹿児島県南大隅町",
        "施設・場所名": "鹿児島きもつき農協根占支所",
        "住所": "鹿児島県南大隅町根占川北1729",
        "指定緊急避難場所との住所同一": "1",
        "その他市町村長が必要と認める事項": null,
        "受入対象者": null,
        "備考": ""
      }
    },
    {
      "type": "Feature",
      "geometry": {
        "type": "Point",
        "coordinates": [
          130.767256,
          31.217491
        ]
      },
      "properties": {
        "NO": 81223,
        "共通ID": "E4649100008111",
        "都道府県名及び市町村名": "鹿児島県南大隅町",
        "施設・場所名": "南大隅町体育館",
        "住所": "鹿児島県南大隅町根占川北199",
        "指定緊急避難場所との住所同一": "1",
        "その他市町村長が必要と認める事項": null,
        "受入対象者": null,
        "備考": ""
      }
    },
    {
      "type": "Feature",
      "geometry": {
        "type": "Point",
        "coordinates": [
          130.767982,
          31.217684
        ]
      },
      "properties": {
        "NO": 81224,
        "共通ID": "E4649100009111",
        "都道府県名及び市町村名": "鹿児島県南大隅町",
        "施設・場所名": "根占保健センター",
        "住所": "鹿児島県南大隅町根占川北226",
        "指定緊急避難場所との住所同一": "1",
        "その他市町村長が必要と認める事項": null,
        "受入対象者": null,
        "備考": ""
      }
    },
    {
      "type": "Feature",
      "geometry": {
        "type": "Point",
        "coordinates": [
          130.768463,
          31.216865
        ]
      },
      "properties": {
        "NO": 81225,
        "共通ID": "E4649100009112",
        "都道府県名及び市町村名": "鹿児島県南大隅町",
        "施設・場所名": "南大隅町武道館",
        "住所": "鹿児島県南大隅町根占川北226",
        "指定緊急避難場所との住所同一": "1",
        "その他市町村長が必要と認める事項": null,
        "受入対象者": null,
        "備考": ""
      }
    },
    {
      "type": "Feature",
      "geometry": {
        "type": "Point",
        "coordinates": [
          130.809426,
          31.222405
        ]
      },
      "properties": {
        "NO": 81226,
        "共通ID": "E4649100010111",
        "都道府県名及び市町村名": "鹿児島県南大隅町",
        "施設・場所名": "農村集落多目的共同利用施設",
        "住所": "鹿児島県南大隅町根占川北8284-1",
        "指定緊急避難場所との住所同一": "1",
        "その他市町村長が必要と認める事項": null,
        "受入対象者": null,
        "備考": ""
      }
    },
    {
      "type": "Feature",
      "geometry": {
        "type": "Point",
        "coordinates": [
          130.751257,
          31.139741
        ]
      },
      "properties": {
        "NO": 81227,
        "共通ID": "E4649100013111",
        "都道府県名及び市町村名": "鹿児島県南大隅町",
        "施設・場所名": "旧登尾小学校",
        "住所": "鹿児島県南大隅町根占辺田3310",
        "指定緊急避難場所との住所同一": "1",
        "その他市町村長が必要と認める事項": null,
        "受入対象者": null,
        "備考": ""
      }
    },
    {
      "type": "Feature",
      "geometry": {
        "type": "Point",
        "coordinates": [
          130.733789,
          31.118261
        ]
      },
      "properties": {
        "NO": 81228,
        "共通ID": "E4649100014111",
        "都道府県名及び市町村名": "鹿児島県南大隅町",
        "施設・場所名": "大川公民館",
        "住所": "鹿児島県南大隅町根占辺田4740-1",
        "指定緊急避難場所との住所同一": "1",
        "その他市町村長が必要と認める事項": null,
        "受入対象者": null,
        "備考": ""
      }
    },
    {
      "type": "Feature",
      "geometry": {
        "type": "Point",
        "coordinates": [
          130.755375,
          31.119821
        ]
      },
      "properties": {
        "NO": 81229,
        "共通ID": "E4649100015111",
        "都道府県名及び市町村名": "鹿児島県南大隅町",
        "施設・場所名": "旧辺田別府分校",
        "住所": "鹿児島県南大隅町根占辺田5878",
        "指定緊急避難場所との住所同一": "1",
        "その他市町村長が必要と認める事項": null,
        "受入対象者": null,
        "備考": ""
      }
    },
    {
      "type": "Feature",
      "geometry": {
        "type": "Point",
        "coordinates": [
          130.679369,
          31.064594
        ]
      },
      "properties": {
        "NO": 81230,
        "共通ID": "E4649100017111",
        "都道府県名及び市町村名": "鹿児島県南大隅町",
        "施設・場所名": "島泊体育館",
        "住所": "鹿児島県南大隅町佐多伊座敷315-3",
        "指定緊急避難場所との住所同一": "1",
        "その他市町村長が必要と認める事項": null,
        "受入対象者": null,
        "備考": ""
      }
    },
    {
      "type": "Feature",
      "geometry": {
        "type": "Point",
        "coordinates": [
          130.699636,
          31.089163
        ]
      },
      "properties": {
        "NO": 81231,
        "共通ID": "E4649100018111",
        "都道府県名及び市町村名": "鹿児島県南大隅町",
        "施設・場所名": "第一佐多中学校",
        "住所": "鹿児島県南大隅町佐多伊座敷3470",
        "指定緊急避難場所との住所同一": "1",
        "その他市町村長が必要と認める事項": null,
        "受入対象者": null,
        "備考": ""
      }
    },
    {
      "type": "Feature",
      "geometry": {
        "type": "Point",
        "coordinates": [
          130.698114,
          31.08898
        ]
      },
      "properties": {
        "NO": 81232,
        "共通ID": "E4649100019111",
        "都道府県名及び市町村名": "鹿児島県南大隅町",
        "施設・場所名": "佐多交流施設",
        "住所": "鹿児島県南大隅町佐多伊座敷3474",
        "指定緊急避難場所との住所同一": "1",
        "その他市町村長が必要と認める事項": null,
        "受入対象者": null,
        "備考": ""
      }
    },
    {
      "type": "Feature",
      "geometry": {
        "type": "Point",
        "coordinates": [
          130.695164,
          31.092021
        ]
      },
      "properties": {
        "NO": 81233,
        "共通ID": "E4649100020111",
        "都道府県名及び市町村名": "鹿児島県南大隅町",
        "施設・場所名": "佐多小学校",
        "住所": "鹿児島県南大隅町佐多伊座敷3531",
        "指定緊急避難場所との住所同一": "1",
        "その他市町村長が必要と認める事項": null,
        "受入対象者": null,
        "備考": ""
      }
    },
    {
      "type": "Feature",
      "geometry": {
        "type": "Point",
        "coordinates": [
          130.774053,
          31.111048
        ]
      },
      "properties": {
        "NO": 81234,
        "共通ID": "E4649100023111",
        "都道府県名及び市町村名": "鹿児島県南大隅町",
        "施設・場所名": "旧大中尾小学校",
        "住所": "鹿児島県南大隅町佐多伊座敷5929-405",
        "指定緊急避難場所との住所同一": "1",
        "その他市町村長が必要と認める事項": null,
        "受入対象者": null,
        "備考": ""
      }
    },
    {
      "type": "Feature",
      "geometry": {
        "type": "Point",
        "coordinates": [
          130.731729,
          31.066488
        ]
      },
      "properties": {
        "NO": 81235,
        "共通ID": "E4649100039111",
        "都道府県名及び市町村名": "鹿児島県南大隅町",
        "施設・場所名": "旧郡小学校",
        "住所": "鹿児島県南大隅町佐多郡1456",
        "指定緊急避難場所との住所同一": "1",
        "その他市町村長が必要と認める事項": "",
        "受入対象者": "",
        "備考": ""
      }
    },
    {
      "type": "Feature",
      "geometry": {
        "type": "Point",
        "coordinates": [
          130.722063,
          31.047865
        ]
      },
      "properties": {
        "NO": 81236,
        "共通ID": "E4649100040111",
        "都道府県名及び市町村名": "鹿児島県南大隅町",
        "施設・場所名": "旧竹之浦小学校",
        "住所": "鹿児島県南大隅町佐多郡405",
        "指定緊急避難場所との住所同一": "1",
        "その他市町村長が必要と認める事項": "",
        "受入対象者": "",
        "備考": ""
      }
    },
    {
      "type": "Feature",
      "geometry": {
        "type": "Point",
        "coordinates": [
          130.683625,
          31.025974
        ]
      },
      "properties": {
        "NO": 81237,
        "共通ID": "E4649100032111",
        "都道府県名及び市町村名": "鹿児島県南大隅町",
        "施設・場所名": "旧大泊小学校",
        "住所": "鹿児島県南大隅町佐多馬籠595",
        "指定緊急避難場所との住所同一": "",
        "その他市町村長が必要と認める事項": null,
        "受入対象者": null,
        "備考": ""
      }
    },
    {
      "type": "Feature",
      "geometry": {
        "type": "Point",
        "coordinates": [
          130.8272,
          31.095159
        ]
      },
      "properties": {
        "NO": 81238,
        "共通ID": "E4649100036111",
        "都道府県名及び市町村名": "鹿児島県南大隅町",
        "施設・場所名": "旧辺塚小学校",
        "住所": "鹿児島県南大隅町佐多辺塚441-1",
        "指定緊急避難場所との住所同一": "1",
        "その他市町村長が必要と認める事項": null,
        "受入対象者": null,
        "備考": ""
      }
    }
  ]
}