{
  "type": "FeatureCollection",
  "name": "464929",
  "features": [
    {
      "type": "Feature",
      "geometry": {
        "type": "Point",
        "coordinates": [
          130.951328,
          31.336777
        ]
      },
      "properties": {
        "NO": 81239,
        "共通ID": "E4649200001111",
        "都道府県名及び市町村名": "鹿児島県肝付町",
        "施設・場所名": "肝付町福祉会館",
        "住所": "鹿児島県肝付町5589-8",
        "指定緊急避難場所との住所同一": "",
        "その他市町村長が必要と認める事項": null,
        "受入対象者": null,
        "備考": ""
      }
    },
    {
      "type": "Feature",
      "geometry": {
        "type": "Point",
        "coordinates": [
          130.990599,
          31.187135
        ]
      },
      "properties": {
        "NO": 81240,
        "共通ID": "E4649200002111",
        "都道府県名及び市町村名": "鹿児島県肝付町",
        "施設・場所名": "船間地区研修センター",
        "住所": "鹿児島県肝付町岸良1268-1",
        "指定緊急避難場所との住所同一": "1",
        "その他市町村長が必要と認める事項": null,
        "受入対象者": null,
        "備考": ""
      }
    },
    {
      "type": "Feature",
      "geometry": {
        "type": "Point",
        "coordinates": [
          130.918479,
          31.125747
        ]
      },
      "properties": {
        "NO": 81241,
        "共通ID": "E4649200003111",
        "都道府県名及び市町村名": "鹿児島県肝付町",
        "施設・場所名": "旧大浦小中学校",
        "住所": "鹿児島県肝付町岸良1474",
        "指定緊急避難場所との住所同一": "",
        "その他市町村長が必要と認める事項": null,
        "受入対象者": null,
        "備考": ""
      }
    },
    {
      "type": "Feature",
      "geometry": {
        "type": "Point",
        "coordinates": [
          131.003082,
          31.226905
        ]
      },
      "properties": {
        "NO": 81242,
        "共通ID": "E4649200004111",
        "都道府県名及び市町村名": "鹿児島県肝付町",
        "施設・場所名": "岸良出張所",
        "住所": "鹿児島県肝付町岸良482-1",
        "指定緊急避難場所との住所同一": "1",
        "その他市町村長が必要と認める事項": null,
        "受入対象者": null,
        "備考": ""
      }
    },
    {
      "type": "Feature",
      "geometry": {
        "type": "Point",
        "coordinates": [
          130.91211,
          31.363436
        ]
      },
      "properties": {
        "NO": 81243,
        "共通ID": "E4649200005111",
        "都道府県名及び市町村名": "鹿児島県肝付町",
        "施設・場所名": "宮富地区公民館",
        "住所": "鹿児島県肝付町宮下1634",
        "指定緊急避難場所との住所同一": "1",
        "その他市町村長が必要と認める事項": null,
        "受入対象者": null,
        "備考": ""
      }
    },
    {
      "type": "Feature",
      "geometry": {
        "type": "Point",
        "coordinates": [
          130.94428,
          31.319967
        ]
      },
      "properties": {
        "NO": 81244,
        "共通ID": "E4649200006111",
        "都道府県名及び市町村名": "鹿児島県肝付町",
        "施設・場所名": "国見中学校体育館",
        "住所": "鹿児島県肝付町後田1857",
        "指定緊急避難場所との住所同一": "",
        "その他市町村長が必要と認める事項": null,
        "受入対象者": null,
        "備考": ""
      }
    },
    {
      "type": "Feature",
      "geometry": {
        "type": "Point",
        "coordinates": [
          130.950718,
          31.283417
        ]
      },
      "properties": {
        "NO": 81245,
        "共通ID": "E4649200007111",
        "都道府県名及び市町村名": "鹿児島県肝付町",
        "施設・場所名": "旧川上小学校",
        "住所": "鹿児島県肝付町後田6329",
        "指定緊急避難場所との住所同一": "",
        "その他市町村長が必要と認める事項": "",
        "受入対象者": "",
        "備考": ""
      }
    },
    {
      "type": "Feature",
      "geometry": {
        "type": "Point",
        "coordinates": [
          130.959557,
          31.342494
        ]
      },
      "properties": {
        "NO": 81246,
        "共通ID": "E4649200008111",
        "都道府県名及び市町村名": "鹿児島県肝付町",
        "施設・場所名": "新富地区公民館",
        "住所": "鹿児島県肝付町新富4048-1",
        "指定緊急避難場所との住所同一": "1",
        "その他市町村長が必要と認める事項": null,
        "受入対象者": null,
        "備考": ""
      }
    },
    {
      "type": "Feature",
      "geometry": {
        "type": "Point",
        "coordinates": [
          130.949857,
          31.33723
        ]
      },
      "properties": {
        "NO": 81247,
        "共通ID": "E4649200009111",
        "都道府県名及び市町村名": "鹿児島県肝付町",
        "施設・場所名": "高山やぶさめ館",
        "住所": "鹿児島県肝付町新富5590-35",
        "指定緊急避難場所との住所同一": "",
        "その他市町村長が必要と認める事項": null,
        "受入対象者": null,
        "備考": ""
      }
    },
    {
      "type": "Feature",
      "geometry": {
        "type": "Point",
        "coordinates": [
          130.945338,
          31.344681
        ]
      },
      "properties": {
        "NO": 81248,
        "共通ID": "E4649200010111",
        "都道府県名及び市町村名": "鹿児島県肝付町",
        "施設・場所名": "町コミュニティセンター",
        "住所": "鹿児島県肝付町新富98",
        "指定緊急避難場所との住所同一": "1",
        "その他市町村長が必要と認める事項": null,
        "受入対象者": null,
        "備考": ""
      }
    },
    {
      "type": "Feature",
      "geometry": {
        "type": "Point",
        "coordinates": [
          130.94009,
          31.348004
        ]
      },
      "properties": {
        "NO": 81249,
        "共通ID": "E4649200011111",
        "都道府県名及び市町村名": "鹿児島県肝付町",
        "施設・場所名": "町民集会所（いこいの家）",
        "住所": "鹿児島県肝付町前田3690",
        "指定緊急避難場所との住所同一": "",
        "その他市町村長が必要と認める事項": null,
        "受入対象者": null,
        "備考": ""
      }
    },
    {
      "type": "Feature",
      "geometry": {
        "type": "Point",
        "coordinates": [
          130.935404,
          31.34222
        ]
      },
      "properties": {
        "NO": 81250,
        "共通ID": "E4649200012111",
        "都道府県名及び市町村名": "鹿児島県肝付町",
        "施設・場所名": "前田地区公民館",
        "住所": "鹿児島県肝付町前田3984-1",
        "指定緊急避難場所との住所同一": "1",
        "その他市町村長が必要と認める事項": null,
        "受入対象者": null,
        "備考": ""
      }
    },
    {
      "type": "Feature",
      "geometry": {
        "type": "Point",
        "coordinates": [
          131.074363,
          31.278359
        ]
      },
      "properties": {
        "NO": 81251,
        "共通ID": "E4649200013111",
        "都道府県名及び市町村名": "鹿児島県肝付町",
        "施設・場所名": "内之浦総合支所",
        "住所": "鹿児島県肝付町南方2643",
        "指定緊急避難場所との住所同一": "1",
        "その他市町村長が必要と認める事項": null,
        "受入対象者": null,
        "備考": ""
      }
    },
    {
      "type": "Feature",
      "geometry": {
        "type": "Point",
        "coordinates": [
          130.988474,
          31.351689
        ]
      },
      "properties": {
        "NO": 81252,
        "共通ID": "E4649200014111",
        "都道府県名及び市町村名": "鹿児島県肝付町",
        "施設・場所名": "波野中学校体育館",
        "住所": "鹿児島県肝付町波見1065",
        "指定緊急避難場所との住所同一": "",
        "その他市町村長が必要と認める事項": null,
        "受入対象者": null,
        "備考": ""
      }
    },
    {
      "type": "Feature",
      "geometry": {
        "type": "Point",
        "coordinates": [
          131.058222,
          31.340715
        ]
      },
      "properties": {
        "NO": 81253,
        "共通ID": "E4649200015111",
        "都道府県名及び市町村名": "鹿児島県肝付町",
        "施設・場所名": "旧有明小学校体育館",
        "住所": "鹿児島県肝付町波見1998",
        "指定緊急避難場所との住所同一": "1",
        "その他市町村長が必要と認める事項": null,
        "受入対象者": null,
        "備考": ""
      }
    },
    {
      "type": "Feature",
      "geometry": {
        "type": "Point",
        "coordinates": [
          130.901837,
          31.379395
        ]
      },
      "properties": {
        "NO": 81254,
        "共通ID": "E4649200017111",
        "都道府県名及び市町村名": "鹿児島県肝付町",
        "施設・場所名": "富山地区集落センター",
        "住所": "鹿児島県肝付町富山1317",
        "指定緊急避難場所との住所同一": "",
        "その他市町村長が必要と認める事項": null,
        "受入対象者": null,
        "備考": ""
      }
    },
    {
      "type": "Feature",
      "geometry": {
        "type": "Point",
        "coordinates": [
          131.050736,
          31.280607
        ]
      },
      "properties": {
        "NO": 81255,
        "共通ID": "E4649200018111",
        "都道府県名及び市町村名": "鹿児島県肝付町",
        "施設・場所名": "上北地区研修センター",
        "住所": "鹿児島県肝付町北方925-1",
        "指定緊急避難場所との住所同一": "",
        "その他市町村長が必要と認める事項": null,
        "受入対象者": null,
        "備考": ""
      }
    }
  ]
}