{
  "type": "FeatureCollection",
  "name": "465321",
  "features": [
    {
      "type": "Feature",
      "geometry": {
        "type": "Point",
        "coordinates": [
          128.926253,
          27.709121
        ]
      },
      "properties": {
        "NO": 81604,
        "共通ID": "E4653200002111",
        "都道府県名及び市町村名": "鹿児島県伊仙町",
        "施設・場所名": "保健福祉館",
        "住所": "鹿児島県伊仙町阿権1542-1",
        "指定緊急避難場所との住所同一": "1",
        "その他市町村長が必要と認める事項": null,
        "受入対象者": null,
        "備考": ""
      }
    },
    {
      "type": "Feature",
      "geometry": {
        "type": "Point",
        "coordinates": [
          128.926359,
          27.708889
        ]
      },
      "properties": {
        "NO": 81605,
        "共通ID": "E4653200003111",
        "都道府県名及び市町村名": "鹿児島県伊仙町",
        "施設・場所名": "阿権小学校",
        "住所": "鹿児島県伊仙町阿権1562",
        "指定緊急避難場所との住所同一": "1",
        "その他市町村長が必要と認める事項": null,
        "受入対象者": null,
        "備考": ""
      }
    },
    {
      "type": "Feature",
      "geometry": {
        "type": "Point",
        "coordinates": [
          128.930175,
          27.688103
        ]
      },
      "properties": {
        "NO": 81606,
        "共通ID": "E4653200004111",
        "都道府県名及び市町村名": "鹿児島県伊仙町",
        "施設・場所名": "生活館",
        "住所": "鹿児島県伊仙町阿三1168-2",
        "指定緊急避難場所との住所同一": "1",
        "その他市町村長が必要と認める事項": null,
        "受入対象者": null,
        "備考": ""
      }
    },
    {
      "type": "Feature",
      "geometry": {
        "type": "Point",
        "coordinates": [
          128.93003,
          27.69527
        ]
      },
      "properties": {
        "NO": 81607,
        "共通ID": "E4653200005111",
        "都道府県名及び市町村名": "鹿児島県伊仙町",
        "施設・場所名": "生活館",
        "住所": "鹿児島県伊仙町阿三2056",
        "指定緊急避難場所との住所同一": "1",
        "その他市町村長が必要と認める事項": null,
        "受入対象者": null,
        "備考": ""
      }
    },
    {
      "type": "Feature",
      "geometry": {
        "type": "Point",
        "coordinates": [
          128.919781,
          27.691113
        ]
      },
      "properties": {
        "NO": 81608,
        "共通ID": "E4653200006111",
        "都道府県名及び市町村名": "鹿児島県伊仙町",
        "施設・場所名": "鹿浦小学校",
        "住所": "鹿児島県伊仙町阿三2206-5",
        "指定緊急避難場所との住所同一": "1",
        "その他市町村長が必要と認める事項": null,
        "受入対象者": null,
        "備考": ""
      }
    },
    {
      "type": "Feature",
      "geometry": {
        "type": "Point",
        "coordinates": [
          128.941408,
          27.669922
        ]
      },
      "properties": {
        "NO": 81609,
        "共通ID": "E4653200007111",
        "都道府県名及び市町村名": "鹿児島県伊仙町",
        "施設・場所名": "営農センター",
        "住所": "鹿児島県伊仙町伊仙1237-2",
        "指定緊急避難場所との住所同一": "1",
        "その他市町村長が必要と認める事項": null,
        "受入対象者": null,
        "備考": ""
      }
    },
    {
      "type": "Feature",
      "geometry": {
        "type": "Point",
        "coordinates": [
          128.937319,
          27.67365
        ]
      },
      "properties": {
        "NO": 81610,
        "共通ID": "E4653200008111",
        "都道府県名及び市町村名": "鹿児島県伊仙町",
        "施設・場所名": "中央公民館",
        "住所": "鹿児島県伊仙町伊仙1842",
        "指定緊急避難場所との住所同一": "1",
        "その他市町村長が必要と認める事項": null,
        "受入対象者": null,
        "備考": ""
      }
    },
    {
      "type": "Feature",
      "geometry": {
        "type": "Point",
        "coordinates": [
          128.936482,
          27.673255
        ]
      },
      "properties": {
        "NO": 81611,
        "共通ID": "E4653200009111",
        "都道府県名及び市町村名": "鹿児島県伊仙町",
        "施設・場所名": "伊仙小学校",
        "住所": "鹿児島県伊仙町伊仙2085",
        "指定緊急避難場所との住所同一": "1",
        "その他市町村長が必要と認める事項": null,
        "受入対象者": null,
        "備考": ""
      }
    },
    {
      "type": "Feature",
      "geometry": {
        "type": "Point",
        "coordinates": [
          128.938658,
          27.676439
        ]
      },
      "properties": {
        "NO": 81612,
        "共通ID": "E4653200046121",
        "都道府県名及び市町村名": "鹿児島県伊仙町",
        "施設・場所名": "徳之島老人ホーム",
        "住所": "鹿児島県伊仙町伊仙2123",
        "指定緊急避難場所との住所同一": "",
        "その他市町村長が必要と認める事項": null,
        "受入対象者": null,
        "備考": ""
      }
    },
    {
      "type": "Feature",
      "geometry": {
        "type": "Point",
        "coordinates": [
          128.934602,
          27.672267
        ]
      },
      "properties": {
        "NO": 81613,
        "共通ID": "E4653200045121",
        "都道府県名及び市町村名": "鹿児島県伊仙町",
        "施設・場所名": "仙寿の里",
        "住所": "鹿児島県伊仙町伊仙2571",
        "指定緊急避難場所との住所同一": "",
        "その他市町村長が必要と認める事項": null,
        "受入対象者": null,
        "備考": ""
      }
    },
    {
      "type": "Feature",
      "geometry": {
        "type": "Point",
        "coordinates": [
          128.935177,
          27.673501
        ]
      },
      "properties": {
        "NO": 81614,
        "共通ID": "E4653200010111",
        "都道府県名及び市町村名": "鹿児島県伊仙町",
        "施設・場所名": "ほーらい館",
        "住所": "鹿児島県伊仙町伊仙2575-2",
        "指定緊急避難場所との住所同一": "1",
        "その他市町村長が必要と認める事項": null,
        "受入対象者": null,
        "備考": ""
      }
    },
    {
      "type": "Feature",
      "geometry": {
        "type": "Point",
        "coordinates": [
          128.933822,
          27.675935
        ]
      },
      "properties": {
        "NO": 81615,
        "共通ID": "E4653200011111",
        "都道府県名及び市町村名": "鹿児島県伊仙町",
        "施設・場所名": "伊仙中学校",
        "住所": "鹿児島県伊仙町伊仙2635",
        "指定緊急避難場所との住所同一": "1",
        "その他市町村長が必要と認める事項": null,
        "受入対象者": null,
        "備考": ""
      }
    },
    {
      "type": "Feature",
      "geometry": {
        "type": "Point",
        "coordinates": [
          128.933248,
          27.673109
        ]
      },
      "properties": {
        "NO": 81616,
        "共通ID": "E4653200012111",
        "都道府県名及び市町村名": "鹿児島県伊仙町",
        "施設・場所名": "未来館",
        "住所": "鹿児島県伊仙町伊仙2712",
        "指定緊急避難場所との住所同一": "1",
        "その他市町村長が必要と認める事項": null,
        "受入対象者": null,
        "備考": ""
      }
    },
    {
      "type": "Feature",
      "geometry": {
        "type": "Point",
        "coordinates": [
          128.942451,
          27.688436
        ]
      },
      "properties": {
        "NO": 81617,
        "共通ID": "E4653200013111",
        "都道府県名及び市町村名": "鹿児島県伊仙町",
        "施設・場所名": "総合体育館",
        "住所": "鹿児島県伊仙町伊仙3071",
        "指定緊急避難場所との住所同一": "",
        "その他市町村長が必要と認める事項": null,
        "受入対象者": null,
        "備考": ""
      }
    },
    {
      "type": "Feature",
      "geometry": {
        "type": "Point",
        "coordinates": [
          128.930594,
          27.678803
        ]
      },
      "properties": {
        "NO": 81618,
        "共通ID": "E4653200014111",
        "都道府県名及び市町村名": "鹿児島県伊仙町",
        "施設・場所名": "公民館",
        "住所": "鹿児島県伊仙町伊仙3508",
        "指定緊急避難場所との住所同一": "1",
        "その他市町村長が必要と認める事項": null,
        "受入対象者": null,
        "備考": ""
      }
    },
    {
      "type": "Feature",
      "geometry": {
        "type": "Point",
        "coordinates": [
          128.916467,
          27.711196
        ]
      },
      "properties": {
        "NO": 81619,
        "共通ID": "E4653200016111",
        "都道府県名及び市町村名": "鹿児島県伊仙町",
        "施設・場所名": "生活館",
        "住所": "鹿児島県伊仙町伊仙町木之香562-1",
        "指定緊急避難場所との住所同一": "",
        "その他市町村長が必要と認める事項": null,
        "受入対象者": null,
        "備考": ""
      }
    },
    {
      "type": "Feature",
      "geometry": {
        "type": "Point",
        "coordinates": [
          128.992363,
          27.685025
        ]
      },
      "properties": {
        "NO": 81620,
        "共通ID": "E4653200017111",
        "都道府県名及び市町村名": "鹿児島県伊仙町",
        "施設・場所名": "生活館",
        "住所": "鹿児島県伊仙町喜念34-1",
        "指定緊急避難場所との住所同一": "1",
        "その他市町村長が必要と認める事項": null,
        "受入対象者": null,
        "備考": ""
      }
    },
    {
      "type": "Feature",
      "geometry": {
        "type": "Point",
        "coordinates": [
          128.892201,
          27.713396
        ]
      },
      "properties": {
        "NO": 81621,
        "共通ID": "E4653200018111",
        "都道府県名及び市町村名": "鹿児島県伊仙町",
        "施設・場所名": "生活館",
        "住所": "鹿児島県伊仙町犬田布1503",
        "指定緊急避難場所との住所同一": "1",
        "その他市町村長が必要と認める事項": null,
        "受入対象者": null,
        "備考": ""
      }
    },
    {
      "type": "Feature",
      "geometry": {
        "type": "Point",
        "coordinates": [
          128.908383,
          27.713187
        ]
      },
      "properties": {
        "NO": 81622,
        "共通ID": "E4653200019111",
        "都道府県名及び市町村名": "鹿児島県伊仙町",
        "施設・場所名": "犬田布小学校",
        "住所": "鹿児島県伊仙町犬田布271",
        "指定緊急避難場所との住所同一": "1",
        "その他市町村長が必要と認める事項": null,
        "受入対象者": null,
        "備考": ""
      }
    },
    {
      "type": "Feature",
      "geometry": {
        "type": "Point",
        "coordinates": [
          128.908813,
          27.714541
        ]
      },
      "properties": {
        "NO": 81623,
        "共通ID": "E4653200020111",
        "都道府県名及び市町村名": "鹿児島県伊仙町",
        "施設・場所名": "集会所",
        "住所": "鹿児島県伊仙町犬田布286-1",
        "指定緊急避難場所との住所同一": "1",
        "その他市町村長が必要と認める事項": null,
        "受入対象者": null,
        "備考": ""
      }
    },
    {
      "type": "Feature",
      "geometry": {
        "type": "Point",
        "coordinates": [
          128.909053,
          27.711689
        ]
      },
      "properties": {
        "NO": 81624,
        "共通ID": "E4653200021111",
        "都道府県名及び市町村名": "鹿児島県伊仙町",
        "施設・場所名": "犬田布中学校",
        "住所": "鹿児島県伊仙町犬田布327",
        "指定緊急避難場所との住所同一": "1",
        "その他市町村長が必要と認める事項": null,
        "受入対象者": null,
        "備考": ""
      }
    },
    {
      "type": "Feature",
      "geometry": {
        "type": "Point",
        "coordinates": [
          128.909677,
          27.716214
        ]
      },
      "properties": {
        "NO": 81625,
        "共通ID": "E4653200023111",
        "都道府県名及び市町村名": "鹿児島県伊仙町",
        "施設・場所名": "西公民館",
        "住所": "鹿児島県伊仙町犬田布778",
        "指定緊急避難場所との住所同一": "1",
        "その他市町村長が必要と認める事項": null,
        "受入対象者": null,
        "備考": ""
      }
    },
    {
      "type": "Feature",
      "geometry": {
        "type": "Point",
        "coordinates": [
          128.962313,
          27.670686
        ]
      },
      "properties": {
        "NO": 81626,
        "共通ID": "E4653200024111",
        "都道府県名及び市町村名": "鹿児島県伊仙町",
        "施設・場所名": "生活館",
        "住所": "鹿児島県伊仙町古里203",
        "指定緊急避難場所との住所同一": "1",
        "その他市町村長が必要と認める事項": null,
        "受入対象者": null,
        "備考": ""
      }
    },
    {
      "type": "Feature",
      "geometry": {
        "type": "Point",
        "coordinates": [
          128.987689,
          27.681406
        ]
      },
      "properties": {
        "NO": 81627,
        "共通ID": "E4653200026111",
        "都道府県名及び市町村名": "鹿児島県伊仙町",
        "施設・場所名": "営農センター",
        "住所": "鹿児島県伊仙町佐弁40-7",
        "指定緊急避難場所との住所同一": "1",
        "その他市町村長が必要と認める事項": null,
        "受入対象者": null,
        "備考": ""
      }
    },
    {
      "type": "Feature",
      "geometry": {
        "type": "Point",
        "coordinates": [
          128.904501,
          27.724033
        ]
      },
      "properties": {
        "NO": 81628,
        "共通ID": "E4653200027111",
        "都道府県名及び市町村名": "鹿児島県伊仙町",
        "施設・場所名": "青少年会館",
        "住所": "鹿児島県伊仙町崎原1254-3",
        "指定緊急避難場所との住所同一": "1",
        "その他市町村長が必要と認める事項": null,
        "受入対象者": null,
        "備考": ""
      }
    },
    {
      "type": "Feature",
      "geometry": {
        "type": "Point",
        "coordinates": [
          128.915498,
          27.727386
        ]
      },
      "properties": {
        "NO": 81629,
        "共通ID": "E4653200028111",
        "都道府県名及び市町村名": "鹿児島県伊仙町",
        "施設・場所名": "営農センター",
        "住所": "鹿児島県伊仙町崎原126",
        "指定緊急避難場所との住所同一": "1",
        "その他市町村長が必要と認める事項": null,
        "受入対象者": null,
        "備考": ""
      }
    },
    {
      "type": "Feature",
      "geometry": {
        "type": "Point",
        "coordinates": [
          128.923773,
          27.733153
        ]
      },
      "properties": {
        "NO": 81630,
        "共通ID": "E4653200030111",
        "都道府県名及び市町村名": "鹿児島県伊仙町",
        "施設・場所名": "糸木名小学校",
        "住所": "鹿児島県伊仙町糸木名722",
        "指定緊急避難場所との住所同一": "1",
        "その他市町村長が必要と認める事項": null,
        "受入対象者": null,
        "備考": ""
      }
    },
    {
      "type": "Feature",
      "geometry": {
        "type": "Point",
        "coordinates": [
          128.925176,
          27.72463
        ]
      },
      "properties": {
        "NO": 81631,
        "共通ID": "E4653200031112",
        "都道府県名及び市町村名": "鹿児島県伊仙町",
        "施設・場所名": "生活館",
        "住所": "鹿児島県伊仙町糸木名845-3",
        "指定緊急避難場所との住所同一": "1",
        "その他市町村長が必要と認める事項": null,
        "受入対象者": null,
        "備考": ""
      }
    },
    {
      "type": "Feature",
      "geometry": {
        "type": "Point",
        "coordinates": [
          128.922562,
          27.734439
        ]
      },
      "properties": {
        "NO": 81632,
        "共通ID": "E4653200031111",
        "都道府県名及び市町村名": "鹿児島県伊仙町",
        "施設・場所名": "保健福祉館",
        "住所": "鹿児島県伊仙町糸木名845-3",
        "指定緊急避難場所との住所同一": "1",
        "その他市町村長が必要と認める事項": null,
        "受入対象者": null,
        "備考": ""
      }
    },
    {
      "type": "Feature",
      "geometry": {
        "type": "Point",
        "coordinates": [
          128.909709,
          27.743136
        ]
      },
      "properties": {
        "NO": 81633,
        "共通ID": "E4653200032111",
        "都道府県名及び市町村名": "鹿児島県伊仙町",
        "施設・場所名": "青少年会館",
        "住所": "鹿児島県伊仙町小島637-2",
        "指定緊急避難場所との住所同一": "1",
        "その他市町村長が必要と認める事項": null,
        "受入対象者": null,
        "備考": ""
      }
    },
    {
      "type": "Feature",
      "geometry": {
        "type": "Point",
        "coordinates": [
          128.955157,
          27.711167
        ]
      },
      "properties": {
        "NO": 81634,
        "共通ID": "E4653200033111",
        "都道府県名及び市町村名": "鹿児島県伊仙町",
        "施設・場所名": "営農センター",
        "住所": "鹿児島県伊仙町中山442-3",
        "指定緊急避難場所との住所同一": "1",
        "その他市町村長が必要と認める事項": null,
        "受入対象者": null,
        "備考": ""
      }
    },
    {
      "type": "Feature",
      "geometry": {
        "type": "Point",
        "coordinates": [
          128.948449,
          27.71336
        ]
      },
      "properties": {
        "NO": 81635,
        "共通ID": "E4653200034111",
        "都道府県名及び市町村名": "鹿児島県伊仙町",
        "施設・場所名": "馬根小学校",
        "住所": "鹿児島県伊仙町馬根475",
        "指定緊急避難場所との住所同一": "1",
        "その他市町村長が必要と認める事項": null,
        "受入対象者": null,
        "備考": ""
      }
    },
    {
      "type": "Feature",
      "geometry": {
        "type": "Point",
        "coordinates": [
          128.938189,
          27.720944
        ]
      },
      "properties": {
        "NO": 81636,
        "共通ID": "E4653200035111",
        "都道府県名及び市町村名": "鹿児島県伊仙町",
        "施設・場所名": "営農研修センター",
        "住所": "鹿児島県伊仙町八重竿110",
        "指定緊急避難場所との住所同一": "1",
        "その他市町村長が必要と認める事項": null,
        "受入対象者": null,
        "備考": ""
      }
    },
    {
      "type": "Feature",
      "geometry": {
        "type": "Point",
        "coordinates": [
          128.970303,
          27.676104
        ]
      },
      "properties": {
        "NO": 81637,
        "共通ID": "E4653200036111",
        "都道府県名及び市町村名": "鹿児島県伊仙町",
        "施設・場所名": "東公民館",
        "住所": "鹿児島県伊仙町面縄1977",
        "指定緊急避難場所との住所同一": "1",
        "その他市町村長が必要と認める事項": null,
        "受入対象者": null,
        "備考": ""
      }
    },
    {
      "type": "Feature",
      "geometry": {
        "type": "Point",
        "coordinates": [
          128.971051,
          27.673767
        ]
      },
      "properties": {
        "NO": 81638,
        "共通ID": "E4653200037111",
        "都道府県名及び市町村名": "鹿児島県伊仙町",
        "施設・場所名": "面縄中学校",
        "住所": "鹿児島県伊仙町面縄2196",
        "指定緊急避難場所との住所同一": "1",
        "その他市町村長が必要と認める事項": null,
        "受入対象者": null,
        "備考": ""
      }
    },
    {
      "type": "Feature",
      "geometry": {
        "type": "Point",
        "coordinates": [
          128.969743,
          27.672307
        ]
      },
      "properties": {
        "NO": 81639,
        "共通ID": "E4653200038111",
        "都道府県名及び市町村名": "鹿児島県伊仙町",
        "施設・場所名": "東面縄青少年会館",
        "住所": "鹿児島県伊仙町面縄2252-1",
        "指定緊急避難場所との住所同一": "1",
        "その他市町村長が必要と認める事項": null,
        "受入対象者": null,
        "備考": ""
      }
    },
    {
      "type": "Feature",
      "geometry": {
        "type": "Point",
        "coordinates": [
          128.964094,
          27.679266
        ]
      },
      "properties": {
        "NO": 81640,
        "共通ID": "E4653200040111",
        "都道府県名及び市町村名": "鹿児島県伊仙町",
        "施設・場所名": "上面縄生活館",
        "住所": "鹿児島県伊仙町面縄77",
        "指定緊急避難場所との住所同一": "1",
        "その他市町村長が必要と認める事項": null,
        "受入対象者": null,
        "備考": ""
      }
    },
    {
      "type": "Feature",
      "geometry": {
        "type": "Point",
        "coordinates": [
          128.982274,
          27.685398
        ]
      },
      "properties": {
        "NO": 81641,
        "共通ID": "E4653200043111",
        "都道府県名及び市町村名": "鹿児島県伊仙町",
        "施設・場所名": "西目手久公民館",
        "住所": "鹿児島県伊仙町目手久1758",
        "指定緊急避難場所との住所同一": "1",
        "その他市町村長が必要と認める事項": null,
        "受入対象者": null,
        "備考": ""
      }
    },
    {
      "type": "Feature",
      "geometry": {
        "type": "Point",
        "coordinates": [
          128.980833,
          27.68408
        ]
      },
      "properties": {
        "NO": 81642,
        "共通ID": "E4653200044111",
        "都道府県名及び市町村名": "鹿児島県伊仙町",
        "施設・場所名": "青少年会館",
        "住所": "鹿児島県伊仙町目手久410",
        "指定緊急避難場所との住所同一": "1",
        "その他市町村長が必要と認める事項": null,
        "受入対象者": null,
        "備考": ""
      }
    }
  ]
}