{
  "type": "FeatureCollection",
  "name": "472077",
  "features": [
    {
      "type": "Feature",
      "geometry": {
        "type": "Point",
        "coordinates": [
          124.301079,
          24.537187
        ]
      },
      "properties": {
        "NO": 81862,
        "共通ID": "E4720700003111",
        "都道府県名及び市町村名": "沖縄県石垣市",
        "施設・場所名": "明石小学校",
        "住所": "沖縄県石垣市伊原間249",
        "指定緊急避難場所との住所同一": "",
        "その他市町村長が必要と認める事項": null,
        "受入対象者": null,
        "備考": ""
      }
    },
    {
      "type": "Feature",
      "geometry": {
        "type": "Point",
        "coordinates": [
          124.281603,
          24.508715
        ]
      },
      "properties": {
        "NO": 81863,
        "共通ID": "E4720700004111",
        "都道府県名及び市町村名": "沖縄県石垣市",
        "施設・場所名": "伊原間中学校",
        "住所": "沖縄県石垣市伊原間28",
        "指定緊急避難場所との住所同一": "1",
        "その他市町村長が必要と認める事項": "",
        "受入対象者": "",
        "備考": ""
      }
    },
    {
      "type": "Feature",
      "geometry": {
        "type": "Point",
        "coordinates": [
          124.223277,
          24.355756
        ]
      },
      "properties": {
        "NO": 81864,
        "共通ID": "E4720700005111",
        "都道府県名及び市町村名": "沖縄県石垣市",
        "施設・場所名": "宮良小学校",
        "住所": "沖縄県石垣市宮良331-1",
        "指定緊急避難場所との住所同一": "1",
        "その他市町村長が必要と認める事項": null,
        "受入対象者": null,
        "備考": ""
      }
    },
    {
      "type": "Feature",
      "geometry": {
        "type": "Point",
        "coordinates": [
          124.104656,
          24.440809
        ]
      },
      "properties": {
        "NO": 81865,
        "共通ID": "E4720700007111",
        "都道府県名及び市町村名": "沖縄県石垣市",
        "施設・場所名": "崎枝小中学校",
        "住所": "沖縄県石垣市崎枝530-18",
        "指定緊急避難場所との住所同一": "1",
        "その他市町村長が必要と認める事項": null,
        "受入対象者": null,
        "備考": ""
      }
    },
    {
      "type": "Feature",
      "geometry": {
        "type": "Point",
        "coordinates": [
          124.215582,
          24.363546
        ]
      },
      "properties": {
        "NO": 81866,
        "共通ID": "E4720700085121",
        "都道府県名及び市町村名": "沖縄県石垣市",
        "施設・場所名": "特別養護老人ホーム　なごみの里",
        "住所": "沖縄県石垣市字宮良1131-1",
        "指定緊急避難場所との住所同一": "",
        "その他市町村長が必要と認める事項": "",
        "受入対象者": "協定に基づく要配慮者",
        "備考": ""
      }
    },
    {
      "type": "Feature",
      "geometry": {
        "type": "Point",
        "coordinates": [
          124.123428,
          24.359793
        ]
      },
      "properties": {
        "NO": 81867,
        "共通ID": "E4720700084121",
        "都道府県名及び市町村名": "沖縄県石垣市",
        "施設・場所名": "八重山厚生園",
        "住所": "沖縄県石垣市字新川1740-2",
        "指定緊急避難場所との住所同一": "",
        "その他市町村長が必要と認める事項": "",
        "受入対象者": "協定に基づく要配慮者",
        "備考": ""
      }
    },
    {
      "type": "Feature",
      "geometry": {
        "type": "Point",
        "coordinates": [
          124.141576,
          24.360629
        ]
      },
      "properties": {
        "NO": 81868,
        "共通ID": "E4720700083121",
        "都道府県名及び市町村名": "沖縄県石垣市",
        "施設・場所名": "介護老人保健施設　聖紫花の杜",
        "住所": "沖縄県石垣市字新川2127-2",
        "指定緊急避難場所との住所同一": "",
        "その他市町村長が必要と認める事項": "",
        "受入対象者": "協定に基づく要配慮者",
        "備考": ""
      }
    },
    {
      "type": "Feature",
      "geometry": {
        "type": "Point",
        "coordinates": [
          124.157494,
          24.345831
        ]
      },
      "properties": {
        "NO": 81869,
        "共通ID": "E4720700088121",
        "都道府県名及び市町村名": "沖縄県石垣市",
        "施設・場所名": "デイサービス　年輪",
        "住所": "沖縄県石垣市字石垣213",
        "指定緊急避難場所との住所同一": "",
        "その他市町村長が必要と認める事項": "",
        "受入対象者": "協定に基づく要配慮者",
        "備考": ""
      }
    },
    {
      "type": "Feature",
      "geometry": {
        "type": "Point",
        "coordinates": [
          124.162537,
          24.345357
        ]
      },
      "properties": {
        "NO": 81870,
        "共通ID": "E4720700012121",
        "都道府県名及び市町村名": "沖縄県石垣市",
        "施設・場所名": "福祉避難所兼ふれあい交流施設　結い心センター",
        "住所": "沖縄県石垣市字大川100-3",
        "指定緊急避難場所との住所同一": "1",
        "その他市町村長が必要と認める事項": "",
        "受入対象者": "要配慮者",
        "備考": ""
      }
    },
    {
      "type": "Feature",
      "geometry": {
        "type": "Point",
        "coordinates": [
          124.162319,
          24.349012
        ]
      },
      "properties": {
        "NO": 81871,
        "共通ID": "E4720700086121",
        "都道府県名及び市町村名": "沖縄県石垣市",
        "施設・場所名": "障害者支援施設　おもと学園",
        "住所": "沖縄県石垣市字大川581",
        "指定緊急避難場所との住所同一": "",
        "その他市町村長が必要と認める事項": "",
        "受入対象者": "協定に基づく要配慮者",
        "備考": ""
      }
    },
    {
      "type": "Feature",
      "geometry": {
        "type": "Point",
        "coordinates": [
          124.171092,
          24.347849
        ]
      },
      "properties": {
        "NO": 81872,
        "共通ID": "E4720700013121",
        "都道府県名及び市町村名": "沖縄県石垣市",
        "施設・場所名": "石垣市健康福祉センター",
        "住所": "沖縄県石垣市字登野城1357-1",
        "指定緊急避難場所との住所同一": "1",
        "その他市町村長が必要と認める事項": null,
        "受入対象者": "要配慮者",
        "備考": ""
      }
    },
    {
      "type": "Feature",
      "geometry": {
        "type": "Point",
        "coordinates": [
          124.234403,
          24.348436
        ]
      },
      "properties": {
        "NO": 81873,
        "共通ID": "E4720700087121",
        "都道府県名及び市町村名": "沖縄県石垣市",
        "施設・場所名": "ケアハウス　ばすきなよお",
        "住所": "沖縄県石垣市字白保287-60",
        "指定緊急避難場所との住所同一": "",
        "その他市町村長が必要と認める事項": "",
        "受入対象者": "協定に基づく要配慮者",
        "備考": ""
      }
    },
    {
      "type": "Feature",
      "geometry": {
        "type": "Point",
        "coordinates": [
          124.18018,
          24.348372
        ]
      },
      "properties": {
        "NO": 81874,
        "共通ID": "E4720700089121",
        "都道府県名及び市町村名": "沖縄県石垣市",
        "施設・場所名": "グループホーム　ふだずめー",
        "住所": "沖縄県石垣市字平得743-1",
        "指定緊急避難場所との住所同一": "",
        "その他市町村長が必要と認める事項": "",
        "受入対象者": "協定に基づく要配慮者",
        "備考": ""
      }
    },
    {
      "type": "Feature",
      "geometry": {
        "type": "Point",
        "coordinates": [
          124.154192,
          24.347766
        ]
      },
      "properties": {
        "NO": 81875,
        "共通ID": "E4720700019111",
        "都道府県名及び市町村名": "沖縄県石垣市",
        "施設・場所名": "石垣中学校",
        "住所": "沖縄県石垣市新川307",
        "指定緊急避難場所との住所同一": "1",
        "その他市町村長が必要と認める事項": null,
        "受入対象者": null,
        "備考": ""
      }
    },
    {
      "type": "Feature",
      "geometry": {
        "type": "Point",
        "coordinates": [
          124.197926,
          24.411249
        ]
      },
      "properties": {
        "NO": 81876,
        "共通ID": "E4720700023111",
        "都道府県名及び市町村名": "沖縄県石垣市",
        "施設・場所名": "大本小学校",
        "住所": "沖縄県石垣市真栄里1111",
        "指定緊急避難場所との住所同一": "",
        "その他市町村長が必要と認める事項": null,
        "受入対象者": null,
        "備考": ""
      }
    },
    {
      "type": "Feature",
      "geometry": {
        "type": "Point",
        "coordinates": [
          124.173456,
          24.33377
        ]
      },
      "properties": {
        "NO": 81877,
        "共通ID": "E4720700024111",
        "都道府県名及び市町村名": "沖縄県石垣市",
        "施設・場所名": "八重山商工高校",
        "住所": "沖縄県石垣市真栄里180",
        "指定緊急避難場所との住所同一": "",
        "その他市町村長が必要と認める事項": null,
        "受入対象者": null,
        "備考": ""
      }
    },
    {
      "type": "Feature",
      "geometry": {
        "type": "Point",
        "coordinates": [
          124.158698,
          24.345332
        ]
      },
      "properties": {
        "NO": 81878,
        "共通ID": "E4720700031111",
        "都道府県名及び市町村名": "沖縄県石垣市",
        "施設・場所名": "石垣小学校",
        "住所": "沖縄県石垣市石垣204",
        "指定緊急避難場所との住所同一": "1",
        "その他市町村長が必要と認める事項": null,
        "受入対象者": null,
        "備考": ""
      }
    },
    {
      "type": "Feature",
      "geometry": {
        "type": "Point",
        "coordinates": [
          124.158046,
          24.447705
        ]
      },
      "properties": {
        "NO": 81879,
        "共通ID": "E4720700033111",
        "都道府県名及び市町村名": "沖縄県石垣市",
        "施設・場所名": "吉原小学校",
        "住所": "沖縄県石垣市川平1218-137",
        "指定緊急避難場所との住所同一": "1",
        "その他市町村長が必要と認める事項": null,
        "受入対象者": null,
        "備考": ""
      }
    },
    {
      "type": "Feature",
      "geometry": {
        "type": "Point",
        "coordinates": [
          124.139305,
          24.459035
        ]
      },
      "properties": {
        "NO": 81880,
        "共通ID": "E4720700036111",
        "都道府県名及び市町村名": "沖縄県石垣市",
        "施設・場所名": "川平小中学校",
        "住所": "沖縄県石垣市川平969",
        "指定緊急避難場所との住所同一": "1",
        "その他市町村長が必要と認める事項": null,
        "受入対象者": null,
        "備考": ""
      }
    },
    {
      "type": "Feature",
      "geometry": {
        "type": "Point",
        "coordinates": [
          124.164445,
          24.345108
        ]
      },
      "properties": {
        "NO": 81881,
        "共通ID": "E4720700037111",
        "都道府県名及び市町村名": "沖縄県石垣市",
        "施設・場所名": "八重山農林高校",
        "住所": "沖縄県石垣市大川477-1",
        "指定緊急避難場所との住所同一": "1",
        "その他市町村長が必要と認める事項": null,
        "受入対象者": null,
        "備考": ""
      }
    },
    {
      "type": "Feature",
      "geometry": {
        "type": "Point",
        "coordinates": [
          124.19517,
          24.346462
        ]
      },
      "properties": {
        "NO": 81882,
        "共通ID": "E4720700038111",
        "都道府県名及び市町村名": "沖縄県石垣市",
        "施設・場所名": "大浜中学校（校舎２階以上）",
        "住所": "沖縄県石垣市大浜103",
        "指定緊急避難場所との住所同一": "1",
        "その他市町村長が必要と認める事項": null,
        "受入対象者": null,
        "備考": ""
      }
    },
    {
      "type": "Feature",
      "geometry": {
        "type": "Point",
        "coordinates": [
          124.208462,
          24.388998
        ]
      },
      "properties": {
        "NO": 81883,
        "共通ID": "E4720700039111",
        "都道府県名及び市町村名": "沖縄県石垣市",
        "施設・場所名": "川原小学校",
        "住所": "沖縄県石垣市大浜2064",
        "指定緊急避難場所との住所同一": "",
        "その他市町村長が必要と認める事項": null,
        "受入対象者": null,
        "備考": ""
      }
    },
    {
      "type": "Feature",
      "geometry": {
        "type": "Point",
        "coordinates": [
          124.167575,
          24.344689
        ]
      },
      "properties": {
        "NO": 81884,
        "共通ID": "E4720700042111",
        "都道府県名及び市町村名": "沖縄県石垣市",
        "施設・場所名": "石垣第二中学校",
        "住所": "沖縄県石垣市登野城1078",
        "指定緊急避難場所との住所同一": "1",
        "その他市町村長が必要と認める事項": null,
        "受入対象者": null,
        "備考": ""
      }
    },
    {
      "type": "Feature",
      "geometry": {
        "type": "Point",
        "coordinates": [
          124.164846,
          24.3418
        ]
      },
      "properties": {
        "NO": 81885,
        "共通ID": "E4720700046111",
        "都道府県名及び市町村名": "沖縄県石垣市",
        "施設・場所名": "八重山高校",
        "住所": "沖縄県石垣市登野城275",
        "指定緊急避難場所との住所同一": "1",
        "その他市町村長が必要と認める事項": null,
        "受入対象者": null,
        "備考": ""
      }
    },
    {
      "type": "Feature",
      "geometry": {
        "type": "Point",
        "coordinates": [
          124.163675,
          24.342335
        ]
      },
      "properties": {
        "NO": 81886,
        "共通ID": "E4720700047111",
        "都道府県名及び市町村名": "沖縄県石垣市",
        "施設・場所名": "登野城小学校",
        "住所": "沖縄県石垣市登野城290",
        "指定緊急避難場所との住所同一": "1",
        "その他市町村長が必要と認める事項": null,
        "受入対象者": null,
        "備考": ""
      }
    },
    {
      "type": "Feature",
      "geometry": {
        "type": "Point",
        "coordinates": [
          124.248119,
          24.453517
        ]
      },
      "properties": {
        "NO": 81887,
        "共通ID": "E4720700052111",
        "都道府県名及び市町村名": "沖縄県石垣市",
        "施設・場所名": "伊野田小学校",
        "住所": "沖縄県石垣市桃里168-56",
        "指定緊急避難場所との住所同一": "",
        "その他市町村長が必要と認める事項": null,
        "受入対象者": null,
        "備考": ""
      }
    },
    {
      "type": "Feature",
      "geometry": {
        "type": "Point",
        "coordinates": [
          124.23502,
          24.352828
        ]
      },
      "properties": {
        "NO": 81888,
        "共通ID": "E4720700056111",
        "都道府県名及び市町村名": "沖縄県石垣市",
        "施設・場所名": "白保中学校",
        "住所": "沖縄県石垣市白保268-35",
        "指定緊急避難場所との住所同一": "",
        "その他市町村長が必要と認める事項": null,
        "受入対象者": null,
        "備考": ""
      }
    },
    {
      "type": "Feature",
      "geometry": {
        "type": "Point",
        "coordinates": [
          124.310422,
          24.586494
        ]
      },
      "properties": {
        "NO": 81889,
        "共通ID": "E4720700071111",
        "都道府県名及び市町村名": "沖縄県石垣市",
        "施設・場所名": "平久保小学校",
        "住所": "沖縄県石垣市平久保77",
        "指定緊急避難場所との住所同一": "",
        "その他市町村長が必要と認める事項": null,
        "受入対象者": null,
        "備考": ""
      }
    },
    {
      "type": "Feature",
      "geometry": {
        "type": "Point",
        "coordinates": [
          124.172098,
          24.339423
        ]
      },
      "properties": {
        "NO": 81890,
        "共通ID": "E4720700072111",
        "都道府県名及び市町村名": "沖縄県石垣市",
        "施設・場所名": "平真小学校",
        "住所": "沖縄県石垣市平得174",
        "指定緊急避難場所との住所同一": "",
        "その他市町村長が必要と認める事項": null,
        "受入対象者": null,
        "備考": ""
      }
    },
    {
      "type": "Feature",
      "geometry": {
        "type": "Point",
        "coordinates": [
          124.17577,
          24.344206
        ]
      },
      "properties": {
        "NO": 81891,
        "共通ID": "E4720700073111",
        "都道府県名及び市町村名": "沖縄県石垣市",
        "施設・場所名": "石垣市総合体育館",
        "住所": "沖縄県石垣市平得439",
        "指定緊急避難場所との住所同一": "",
        "その他市町村長が必要と認める事項": null,
        "受入対象者": null,
        "備考": ""
      }
    },
    {
      "type": "Feature",
      "geometry": {
        "type": "Point",
        "coordinates": [
          124.161884,
          24.393257
        ]
      },
      "properties": {
        "NO": 81892,
        "共通ID": "E4720700074111",
        "都道府県名及び市町村名": "沖縄県石垣市",
        "施設・場所名": "名蔵小中学校",
        "住所": "沖縄県石垣市名蔵243",
        "指定緊急避難場所との住所同一": "",
        "その他市町村長が必要と認める事項": null,
        "受入対象者": null,
        "備考": ""
      }
    },
    {
      "type": "Feature",
      "geometry": {
        "type": "Point",
        "coordinates": [
          124.236347,
          24.497577
        ]
      },
      "properties": {
        "NO": 81893,
        "共通ID": "E4720700076111",
        "都道府県名及び市町村名": "沖縄県石垣市",
        "施設・場所名": "野底小学校",
        "住所": "沖縄県石垣市野底138",
        "指定緊急避難場所との住所同一": "",
        "その他市町村長が必要と認める事項": null,
        "受入対象者": null,
        "備考": ""
      }
    },
    {
      "type": "Feature",
      "geometry": {
        "type": "Point",
        "coordinates": [
          124.201511,
          24.453823
        ]
      },
      "properties": {
        "NO": 81894,
        "共通ID": "E4720700080111",
        "都道府県名及び市町村名": "沖縄県石垣市",
        "施設・場所名": "富野小中学校",
        "住所": "沖縄県石垣市桴海299-45",
        "指定緊急避難場所との住所同一": "",
        "その他市町村長が必要と認める事項": null,
        "受入対象者": null,
        "備考": ""
      }
    }
  ]
}