{
  "type": "FeatureCollection",
  "name": "472123",
  "features": [
    {
      "type": "Feature",
      "geometry": {
        "type": "Point",
        "coordinates": [
          127.679558,
          26.177358
        ]
      },
      "properties": {
        "NO": 81983,
        "共通ID": "E4721200001111",
        "都道府県名及び市町村名": "沖縄県豊見城市",
        "施設・場所名": "上田小学校",
        "住所": "沖縄県豊見城市宜保1-1-4",
        "指定緊急避難場所との住所同一": "",
        "その他市町村長が必要と認める事項": null,
        "受入対象者": null,
        "備考": ""
      }
    },
    {
      "type": "Feature",
      "geometry": {
        "type": "Point",
        "coordinates": [
          127.672851,
          26.171106
        ]
      },
      "properties": {
        "NO": 81984,
        "共通ID": "E4721200002111",
        "都道府県名及び市町村名": "沖縄県豊見城市",
        "施設・場所名": "伊良波中学校",
        "住所": "沖縄県豊見城市字伊良波273",
        "指定緊急避難場所との住所同一": "1",
        "その他市町村長が必要と認める事項": null,
        "受入対象者": null,
        "備考": ""
      }
    },
    {
      "type": "Feature",
      "geometry": {
        "type": "Point",
        "coordinates": [
          127.672492,
          26.173141
        ]
      },
      "properties": {
        "NO": 81985,
        "共通ID": "E4721200003111",
        "都道府県名及び市町村名": "沖縄県豊見城市",
        "施設・場所名": "伊良波小学校",
        "住所": "沖縄県豊見城市字伊良波300",
        "指定緊急避難場所との住所同一": "1",
        "その他市町村長が必要と認める事項": null,
        "受入対象者": null,
        "備考": ""
      }
    },
    {
      "type": "Feature",
      "geometry": {
        "type": "Point",
        "coordinates": [
          127.671305,
          26.161079
        ]
      },
      "properties": {
        "NO": 81986,
        "共通ID": "E4721200004111",
        "都道府県名及び市町村名": "沖縄県豊見城市",
        "施設・場所名": "豊見城南高等学校",
        "住所": "沖縄県豊見城市字翁長520",
        "指定緊急避難場所との住所同一": "1",
        "その他市町村長が必要と認める事項": null,
        "受入対象者": null,
        "備考": ""
      }
    },
    {
      "type": "Feature",
      "geometry": {
        "type": "Point",
        "coordinates": [
          127.678022,
          26.179803
        ]
      },
      "properties": {
        "NO": 81987,
        "共通ID": "E4721200005111",
        "都道府県名及び市町村名": "沖縄県豊見城市",
        "施設・場所名": "宜保コミュニティー供用施設",
        "住所": "沖縄県豊見城市字宜保21",
        "指定緊急避難場所との住所同一": "",
        "その他市町村長が必要と認める事項": null,
        "受入対象者": null,
        "備考": ""
      }
    },
    {
      "type": "Feature",
      "geometry": {
        "type": "Point",
        "coordinates": [
          127.703277,
          26.179593
        ]
      },
      "properties": {
        "NO": 81988,
        "共通ID": "E4721200006121",
        "都道府県名及び市町村名": "沖縄県豊見城市",
        "施設・場所名": "特別養護老人ホーム良長園",
        "住所": "沖縄県豊見城市字金良88",
        "指定緊急避難場所との住所同一": "",
        "その他市町村長が必要と認める事項": null,
        "受入対象者": "要配慮者",
        "備考": ""
      }
    },
    {
      "type": "Feature",
      "geometry": {
        "type": "Point",
        "coordinates": [
          127.689103,
          26.185394
        ]
      },
      "properties": {
        "NO": 81989,
        "共通ID": "E4721200007111",
        "都道府県名及び市町村名": "沖縄県豊見城市",
        "施設・場所名": "とよみ小学校",
        "住所": "沖縄県豊見城市字高安1132-2",
        "指定緊急避難場所との住所同一": "1",
        "その他市町村長が必要と認める事項": null,
        "受入対象者": null,
        "備考": ""
      }
    },
    {
      "type": "Feature",
      "geometry": {
        "type": "Point",
        "coordinates": [
          127.686346,
          26.177974
        ]
      },
      "properties": {
        "NO": 81990,
        "共通ID": "E4721200008111",
        "都道府県名及び市町村名": "沖縄県豊見城市",
        "施設・場所名": "高安地区コミュニティー供用施設",
        "住所": "沖縄県豊見城市字高安43",
        "指定緊急避難場所との住所同一": "",
        "その他市町村長が必要と認める事項": null,
        "受入対象者": null,
        "備考": ""
      }
    },
    {
      "type": "Feature",
      "geometry": {
        "type": "Point",
        "coordinates": [
          127.68924,
          26.170369
        ]
      },
      "properties": {
        "NO": 81991,
        "共通ID": "E4721200009121",
        "都道府県名及び市町村名": "沖縄県豊見城市",
        "施設・場所名": "介護老人保健施設桜山荘",
        "住所": "沖縄県豊見城市字高嶺111",
        "指定緊急避難場所との住所同一": "",
        "その他市町村長が必要と認める事項": null,
        "受入対象者": "要配慮者",
        "備考": ""
      }
    },
    {
      "type": "Feature",
      "geometry": {
        "type": "Point",
        "coordinates": [
          127.699922,
          26.167045
        ]
      },
      "properties": {
        "NO": 81992,
        "共通ID": "E4721200010111",
        "都道府県名及び市町村名": "沖縄県豊見城市",
        "施設・場所名": "豊見城小学校",
        "住所": "沖縄県豊見城市字高嶺439-2",
        "指定緊急避難場所との住所同一": "1",
        "その他市町村長が必要と認める事項": null,
        "受入対象者": null,
        "備考": ""
      }
    },
    {
      "type": "Feature",
      "geometry": {
        "type": "Point",
        "coordinates": [
          127.69248,
          26.168331
        ]
      },
      "properties": {
        "NO": 81993,
        "共通ID": "E4721200011111",
        "都道府県名及び市町村名": "沖縄県豊見城市",
        "施設・場所名": "高嶺公民館",
        "住所": "沖縄県豊見城市字高嶺5-1",
        "指定緊急避難場所との住所同一": "",
        "その他市町村長が必要と認める事項": null,
        "受入対象者": null,
        "備考": ""
      }
    },
    {
      "type": "Feature",
      "geometry": {
        "type": "Point",
        "coordinates": [
          127.692559,
          26.187223
        ]
      },
      "properties": {
        "NO": 81994,
        "共通ID": "E4721200013111",
        "都道府県名及び市町村名": "沖縄県豊見城市",
        "施設・場所名": "根差部公民館",
        "住所": "沖縄県豊見城市字根差部287",
        "指定緊急避難場所との住所同一": "",
        "その他市町村長が必要と認める事項": null,
        "受入対象者": null,
        "備考": ""
      }
    },
    {
      "type": "Feature",
      "geometry": {
        "type": "Point",
        "coordinates": [
          127.693708,
          26.189729
        ]
      },
      "properties": {
        "NO": 81995,
        "共通ID": "E4721200014111",
        "都道府県名及び市町村名": "沖縄県豊見城市",
        "施設・場所名": "真嘉部コミュニティーセンター",
        "住所": "沖縄県豊見城市字根差部375-2",
        "指定緊急避難場所との住所同一": "",
        "その他市町村長が必要と認める事項": null,
        "受入対象者": null,
        "備考": ""
      }
    },
    {
      "type": "Feature",
      "geometry": {
        "type": "Point",
        "coordinates": [
          127.697034,
          26.187389
        ]
      },
      "properties": {
        "NO": 81996,
        "共通ID": "E4721200015111",
        "都道府県名及び市町村名": "沖縄県豊見城市",
        "施設・場所名": "豊見城ニュータウン自治会館",
        "住所": "沖縄県豊見城市字根差部66-5",
        "指定緊急避難場所との住所同一": "",
        "その他市町村長が必要と認める事項": null,
        "受入対象者": null,
        "備考": ""
      }
    },
    {
      "type": "Feature",
      "geometry": {
        "type": "Point",
        "coordinates": [
          127.673394,
          26.165943
        ]
      },
      "properties": {
        "NO": 81997,
        "共通ID": "E4721200016111",
        "都道府県名及び市町村名": "沖縄県豊見城市",
        "施設・場所名": "座安小学校",
        "住所": "沖縄県豊見城市字座安230-1",
        "指定緊急避難場所との住所同一": "1",
        "その他市町村長が必要と認める事項": null,
        "受入対象者": null,
        "備考": ""
      }
    },
    {
      "type": "Feature",
      "geometry": {
        "type": "Point",
        "coordinates": [
          127.675537,
          26.175531
        ]
      },
      "properties": {
        "NO": 81998,
        "共通ID": "E4721200017121",
        "都道府県名及び市町村名": "沖縄県豊見城市",
        "施設・場所名": "介護老人保健施設友愛園",
        "住所": "沖縄県豊見城市字上田25",
        "指定緊急避難場所との住所同一": "",
        "その他市町村長が必要と認める事項": null,
        "受入対象者": "要配慮者",
        "備考": ""
      }
    },
    {
      "type": "Feature",
      "geometry": {
        "type": "Point",
        "coordinates": [
          127.705446,
          26.182463
        ]
      },
      "properties": {
        "NO": 81999,
        "共通ID": "E4721200019111",
        "都道府県名及び市町村名": "沖縄県豊見城市",
        "施設・場所名": "長堂公民館",
        "住所": "沖縄県豊見城市字長堂62",
        "指定緊急避難場所との住所同一": "",
        "その他市町村長が必要と認める事項": null,
        "受入対象者": null,
        "備考": ""
      }
    },
    {
      "type": "Feature",
      "geometry": {
        "type": "Point",
        "coordinates": [
          127.68401,
          26.17248
        ]
      },
      "properties": {
        "NO": 82000,
        "共通ID": "E4721200020121",
        "都道府県名及び市町村名": "沖縄県豊見城市",
        "施設・場所名": "特別養護老人ホームすみれ",
        "住所": "沖縄県豊見城市字渡嘉敷150",
        "指定緊急避難場所との住所同一": "",
        "その他市町村長が必要と認める事項": null,
        "受入対象者": "要配慮者",
        "備考": ""
      }
    },
    {
      "type": "Feature",
      "geometry": {
        "type": "Point",
        "coordinates": [
          127.683899,
          26.172577
        ]
      },
      "properties": {
        "NO": 82001,
        "共通ID": "E4721200020122",
        "都道府県名及び市町村名": "沖縄県豊見城市",
        "施設・場所名": "介護老人保健施設はまゆう",
        "住所": "沖縄県豊見城市字渡嘉敷150",
        "指定緊急避難場所との住所同一": "",
        "その他市町村長が必要と認める事項": null,
        "受入対象者": "要配慮者",
        "備考": ""
      }
    },
    {
      "type": "Feature",
      "geometry": {
        "type": "Point",
        "coordinates": [
          127.681864,
          26.168075
        ]
      },
      "properties": {
        "NO": 82002,
        "共通ID": "E4721200021111",
        "都道府県名及び市町村名": "沖縄県豊見城市",
        "施設・場所名": "渡嘉敷集落センター",
        "住所": "沖縄県豊見城市字渡嘉敷407",
        "指定緊急避難場所との住所同一": "",
        "その他市町村長が必要と認める事項": null,
        "受入対象者": null,
        "備考": ""
      }
    },
    {
      "type": "Feature",
      "geometry": {
        "type": "Point",
        "coordinates": [
          127.676766,
          26.164667
        ]
      },
      "properties": {
        "NO": 82003,
        "共通ID": "E4721200025111",
        "都道府県名及び市町村名": "沖縄県豊見城市",
        "施設・場所名": "わくわく児童館",
        "住所": "沖縄県豊見城市字保栄茂1153-109",
        "指定緊急避難場所との住所同一": "",
        "その他市町村長が必要と認める事項": null,
        "受入対象者": null,
        "備考": ""
      }
    },
    {
      "type": "Feature",
      "geometry": {
        "type": "Point",
        "coordinates": [
          127.680682,
          26.160437
        ]
      },
      "properties": {
        "NO": 82004,
        "共通ID": "E4721200026111",
        "都道府県名及び市町村名": "沖縄県豊見城市",
        "施設・場所名": "保栄茂構造改善センター",
        "住所": "沖縄県豊見城市字保栄茂241-1",
        "指定緊急避難場所との住所同一": "",
        "その他市町村長が必要と認める事項": null,
        "受入対象者": null,
        "備考": ""
      }
    },
    {
      "type": "Feature",
      "geometry": {
        "type": "Point",
        "coordinates": [
          127.679685,
          26.185238
        ]
      },
      "properties": {
        "NO": 82005,
        "共通ID": "E4721200027111",
        "都道府県名及び市町村名": "沖縄県豊見城市",
        "施設・場所名": "豊見城地区コミュニティー供用施設",
        "住所": "沖縄県豊見城市字豊見城150",
        "指定緊急避難場所との住所同一": "",
        "その他市町村長が必要と認める事項": null,
        "受入対象者": null,
        "備考": ""
      }
    },
    {
      "type": "Feature",
      "geometry": {
        "type": "Point",
        "coordinates": [
          127.673151,
          26.184226
        ]
      },
      "properties": {
        "NO": 82006,
        "共通ID": "E4721200028121",
        "都道府県名及び市町村名": "沖縄県豊見城市",
        "施設・場所名": "介護老人保健施設養生の里",
        "住所": "沖縄県豊見城市字豊見城344-5",
        "指定緊急避難場所との住所同一": "",
        "その他市町村長が必要と認める事項": null,
        "受入対象者": "要配慮者",
        "備考": ""
      }
    },
    {
      "type": "Feature",
      "geometry": {
        "type": "Point",
        "coordinates": [
          127.682012,
          26.181367
        ]
      },
      "properties": {
        "NO": 82007,
        "共通ID": "E4721200030111",
        "都道府県名及び市町村名": "沖縄県豊見城市",
        "施設・場所名": "ゆたか小学校",
        "住所": "沖縄県豊見城市字豊見城601-1",
        "指定緊急避難場所との住所同一": "1",
        "その他市町村長が必要と認める事項": null,
        "受入対象者": null,
        "備考": ""
      }
    },
    {
      "type": "Feature",
      "geometry": {
        "type": "Point",
        "coordinates": [
          127.664358,
          26.174395
        ]
      },
      "properties": {
        "NO": 82008,
        "共通ID": "E4721200032121",
        "都道府県名及び市町村名": "沖縄県豊見城市",
        "施設・場所名": "介護老人保健施設平成苑",
        "住所": "沖縄県豊見城市字名嘉地217-2",
        "指定緊急避難場所との住所同一": "",
        "その他市町村長が必要と認める事項": null,
        "受入対象者": "要配慮者",
        "備考": ""
      }
    },
    {
      "type": "Feature",
      "geometry": {
        "type": "Point",
        "coordinates": [
          127.695738,
          26.181883
        ]
      },
      "properties": {
        "NO": 82009,
        "共通ID": "E4721200034111",
        "都道府県名及び市町村名": "沖縄県豊見城市",
        "施設・場所名": "長嶺小学校",
        "住所": "沖縄県豊見城市字饒波1018",
        "指定緊急避難場所との住所同一": "1",
        "その他市町村長が必要と認める事項": null,
        "受入対象者": null,
        "備考": ""
      }
    },
    {
      "type": "Feature",
      "geometry": {
        "type": "Point",
        "coordinates": [
          127.695188,
          26.177152
        ]
      },
      "properties": {
        "NO": 82010,
        "共通ID": "E4721200036111",
        "都道府県名及び市町村名": "沖縄県豊見城市",
        "施設・場所名": "饒波農業集落多目的集会施設",
        "住所": "沖縄県豊見城市字饒波500-1",
        "指定緊急避難場所との住所同一": "",
        "その他市町村長が必要と認める事項": null,
        "受入対象者": null,
        "備考": ""
      }
    }
  ]
}